_conflict_type,_default_access,_form_id,_group_modify,_group_privileged,_group_read_only,_id,_locale,_row_etag,_row_owner,_savepoint_creator,_savepoint_timestamp,_savepoint_type,_sync_state,Location_accuracy,Location_altitude,Location_latitude,Location_longitude,admin_region,climate_zone,contact_name,delivery_type,distance_to_supply,electricity_source,facility_coverage,facility_id,facility_name,facility_ownership,facility_population,facility_type,gas_availability,grid_power_availability,kerosene_availability,regionLevel1,regionLevel2,solar_suitable_climate,solar_suitable_site,storage_type,vaccine_reserve_stock_requirement,vaccine_supply_interval,vaccine_supply_mode
,HIDDEN,,GROUP_CENTRAL_EAST,GROUP_ADMIN,,H1,default,,,anonymous,2016-07-11T16:01:59.016000000,COMPLETE,new_row,,,-13.65531667,33.93647862,Dowa,temperate,M. NYANGULU,static,20.0,grid,10.0,1000-0000,Dowa Hospital,public,46303.0,central_hospital,unknown,more_than_16,unknown,Central,Central East,yes,yes,delivery,1.0,4.0,unknown
,HIDDEN,,GROUP_CENTRAL_EAST,GROUP_ADMIN,,H2,default,,,anonymous,2016-07-11T16:01:59.017000000,COMPLETE,new_row,,,-13.65531667,33.93647862,Dowa,temperate,MARTIN NYANGULU,none,50.0,grid,100.0,1000-0001,Dowa Dho Vaccine Store,public,641895.0,regional_vaccine_store,not_available,more_than_16,not_available,Central,Central East,no,yes,depot,1.0,4.0,collected
,HIDDEN,,GROUP_CENTRAL_EAST,GROUP_ADMIN,,H3,default,,,anonymous,2016-07-11T16:01:59.019000000,COMPLETE,new_row,,,-13.55307773,33.89731836,Dowa,temperate,LYFORD CHIPENI,both,17.0,none,100.0,1000-0002,Msakambewa,public,29845.0,community_hospital,not_available,none,available,Central,Central East,yes,yes,delivery,1.0,4.0,delivered
,HIDDEN,,GROUP_CENTRAL_EAST,GROUP_ADMIN,,H4,default,,,anonymous,2016-07-11T16:01:59.022000000,COMPLETE,new_row,,,-13.51568416,33.83682211,Dowa,temperate,PATRICIA MSUKU,both,14.0,none,100.0,1000-0003,Chibanzi Health Post,public,10301.0,dispensary,not_available,none,unknown,Central,Central East,yes,yes,delivery,1.0,4.0,delivered
,HIDDEN,,GROUP_CENTRAL_EAST,GROUP_ADMIN,,H5,default,,,anonymous,2016-07-11T16:01:59.023000000,COMPLETE,new_row,,,-13.44421,33.64692594,Dowa,temperate,ALICK KEFASI BANDA,both,59.0,none,100.0,1000-0004,Chakhaza,public,25491.0,community_hospital,not_available,none,unknown,Central,Central East,no,yes,delivery,1.0,4.0,delivered
,HIDDEN,,GROUP_CENTRAL_EAST,GROUP_ADMIN,,H6,default,,,anonymous,2016-07-11T16:01:59.025000000,COMPLETE,new_row,,,-13.44421,33.64692594,Dowa,temperate,PETER DZIKAMBANI,both,56.0,grid,100.0,1000-0005,Bowe,public,29113.0,community_hospital,not_available,8_to_16,not_available,Central,Central East,no,yes,delivery,1.0,4.0,delivered
,HIDDEN,,GROUP_CENTRAL_EAST,GROUP_ADMIN,,H7,default,,,anonymous,2016-07-11T16:01:59.027000000,COMPLETE,new_row,,,-13.38532768,33.72097513,Dowa,temperate,A.K. YOHANE,both,15.0,none,100.0,1000-0006,Chinkhwili,public,22828.0,community_hospital,not_available,none,available,Central,Central East,yes,yes,delivery,1.0,4.0,delivered
,HIDDEN,,GROUP_CENTRAL_EAST,GROUP_ADMIN,,H8,default,,,anonymous,2016-07-11T16:01:59.029000000,COMPLETE,new_row,,,-13.40684652,33.6078577,Dowa,temperate,STEVEN KAYENDA,both,58.0,grid,10.0,1000-0007,Madisi,faithbased,41285.0,rural_hospital,not_available,more_than_16,not_available,Central,Central East,yes,yes,delivery,1.0,4.0,delivered
,HIDDEN,,GROUP_CENTRAL_EAST,GROUP_ADMIN,,H9,default,,,anonymous,2016-07-11T16:01:59.031000000,COMPLETE,new_row,,,-13.33336383,33.57615929,Dowa,temperate,B.G. KAMUYAMBENI,both,64.0,grid,100.0,1000-0008,Kasese,private,24954.0,community_hospital,not_available,more_than_16,not_available,Central,Central East,yes,yes,delivery,1.0,4.0,delivered
,HIDDEN,,GROUP_CENTRAL_EAST,GROUP_ADMIN,,H10,default,,,anonymous,2016-07-11T16:01:59.033000000,COMPLETE,new_row,,,-13.37104561,33.51586029,Dowa,temperate,EVANSON B.KAMWENDO,both,75.0,none,100.0,1000-0009,Kachigamba Health Post,public,8123.0,dispensary,not_available,none,available,Central,Central East,yes,yes,delivery,1.0,4.0,delivered
,HIDDEN,,GROUP_CENTRAL_EAST,GROUP_ADMIN,,H11,default,,,anonymous,2016-07-11T16:01:59.035000000,COMPLETE,new_row,,,-13.46339802,33.51316572,Dowa,temperate,ULIYA C. HARACK,both,60.0,none,100.0,1000-0010,Chizolowondo,public,21912.0,community_hospital,not_available,none,irregular,Central,Central East,yes,yes,delivery,1.0,4.0,delivered
,HIDDEN,,GROUP_CENTRAL_EAST,GROUP_ADMIN,,H12,default,,,anonymous,2016-07-11T16:01:59.040000000,COMPLETE,new_row,,,-13.49194938,33.4438448,Dowa,temperate,BENADETA CHIWAYA,both,80.0,none,100.0,1000-0011,Mondwe,public,2226.0,dispensary,not_available,none,unknown,Central,Central East,no,yes,delivery,1.0,4.0,delivered
,HIDDEN,,GROUP_CENTRAL_EAST,GROUP_ADMIN,,H13,default,,,anonymous,2016-07-11T16:01:59.042000000,COMPLETE,new_row,,,-13.54448316,33.51503031,Dowa,temperate,NELSON CHIDOTHI,both,68.0,grid,100.0,1000-0012,Mbingwa,public,19026.0,community_hospital,not_available,8_to_16,not_available,Central,Central East,yes,yes,delivery,1.0,4.0,delivered
,HIDDEN,,GROUP_CENTRAL_EAST,GROUP_ADMIN,,H14,default,,,anonymous,2016-07-11T16:01:59.044000000,COMPLETE,new_row,,,-13.63505534,33.47003469,Dowa,temperate,FRADWELL KATEMA,both,93.0,grid,100.0,1000-0013,Chisepo,public,25848.0,community_hospital,not_available,8_to_16,not_available,Central,Central East,yes,yes,delivery,1.0,4.0,delivered
,HIDDEN,,GROUP_CENTRAL_EAST,GROUP_ADMIN,,H15,default,,,anonymous,2016-07-11T16:01:59.047000000,COMPLETE,new_row,,,-13.64257364,33.58311386,Dowa,temperate,OBREY WILLIATI,both,63.0,grid,100.0,1000-0014,Kayembe,public,14533.0,community_hospital,not_available,8_to_16,not_available,Central,Central East,yes,yes,delivery,1.0,4.0,delivered
,HIDDEN,,GROUP_CENTRAL_EAST,GROUP_ADMIN,,H16,default,,,anonymous,2016-07-11T16:01:59.049000000,COMPLETE,new_row,,,-13.64251658,33.6069301,Dowa,temperate,GIBSON KALUZA,both,30.0,none,100.0,1000-0015,Nambuma Health Post,public,16459.0,dispensary,not_available,none,not_available,Central,Central East,yes,yes,delivery,1.0,4.0,delivered
,HIDDEN,,GROUP_CENTRAL_EAST,GROUP_ADMIN,,H17,default,,,anonymous,2016-07-11T16:01:59.051000000,COMPLETE,new_row,,,-13.58541377,33.66168923,Dowa,temperate,MOREEN CHIRWA,both,53.0,none,100.0,1000-0016,Dzoole,public,44618.0,community_hospital,not_available,none,irregular,Central,Central East,yes,yes,delivery,1.0,4.0,delivered
,HIDDEN,,GROUP_CENTRAL_EAST,GROUP_ADMIN,,H18,default,,,anonymous,2016-07-11T16:01:59.016000000,COMPLETE,new_row,,,-13.53277885,33.7370708,Dowa,temperate,HERBERT MAGOMBO,both,38.0,grid,10.0,1000-0017,Mponera Rural Hospital,public,55672.0,district_hospital,not_available,more_than_16,not_available,Central,Central East,yes,yes,delivery,1.0,4.0,both
,HIDDEN,,GROUP_CENTRAL_EAST,GROUP_ADMIN,,H19,default,,,anonymous,2016-07-11T16:01:59.017000000,COMPLETE,new_row,,,-13.67128647,33.77589939,Dowa,temperate,DAVID KANYERERE,both,17.0,grid,10.0,1000-0018,Mtengowanthenga,faithbased,50553.0,hospital,not_available,more_than_16,not_available,Central,Central East,yes,yes,delivery,1.0,4.0,collected
,HIDDEN,,GROUP_CENTRAL_EAST,GROUP_ADMIN,,H20,default,,,anonymous,2016-07-11T16:01:59.019000000,COMPLETE,new_row,,,-13.66138864,33.8704702,Dowa,temperate,SARA MAHWAYO,both,7.0,grid,100.0,1000-0019,Dzaleka,public,38723.0,community_hospital,not_available,more_than_16,not_available,Central,Central East,yes,yes,delivery,1.0,4.0,collected
,HIDDEN,,GROUP_CENTRAL_EAST,GROUP_ADMIN,,H21,default,,,anonymous,2016-07-11T16:01:59.022000000,COMPLETE,new_row,,,-13.7256062,34.03737451,Dowa,temperate,BRIGHT KAJAWA,both,15.0,grid,100.0,1000-0020,Chezi,private,27925.0,community_hospital,not_available,more_than_16,not_available,Central,Central East,yes,yes,delivery,1.0,4.0,both
,HIDDEN,,GROUP_CENTRAL_EAST,GROUP_ADMIN,,H22,default,,,anonymous,2016-07-11T16:01:59.023000000,COMPLETE,new_row,,,-13.76494694,34.01472016,Dowa,temperate,KENUS MKANDA,both,25.0,none,100.0,1000-0021,Chankhungu,public,18403.0,community_hospital,not_available,none,unknown,Central,Central East,yes,yes,delivery,1.0,4.0,delivered
,HIDDEN,,GROUP_CENTRAL_EAST,GROUP_ADMIN,,H23,default,,,anonymous,2016-07-11T16:01:59.025000000,COMPLETE,new_row,,,-13.72634946,34.23719945,Dowa,temperate,AMOS CHIMZINDA,both,50.0,none,100.0,1000-0022,Thonje,public,18527.0,community_hospital,not_available,none,irregular,Central,Central East,yes,yes,delivery,1.0,4.0,delivered
,HIDDEN,,GROUP_CENTRAL_EAST,GROUP_ADMIN,,H24,default,,,anonymous,2016-07-11T16:01:59.027000000,COMPLETE,new_row,,,-13.77889882,34.14027255,Dowa,temperate,CHIKAYIKO BANDA,both,36.0,grid,100.0,1000-0023,Mvera Army,public,11315.0,health_center,not_available,more_than_16,not_available,Central,Central East,yes,yes,delivery,1.0,4.0,both
,HIDDEN,,GROUP_CENTRAL_EAST,GROUP_ADMIN,,H25,default,,,anonymous,2016-07-11T16:01:59.029000000,COMPLETE,new_row,,,-13.73669867,34.12819378,Dowa,temperate,CONNEX MAKIYI,both,38.0,grid,100.0,1000-0024,Mvera Mission,faithbased,17954.0,community_hospital,not_available,more_than_16,not_available,Central,Central East,yes,yes,delivery,1.0,4.0,delivered
,HIDDEN,,GROUP_CENTRAL_EAST,GROUP_ADMIN,,H26,default,,,anonymous,2016-07-11T16:01:59.031000000,COMPLETE,new_row,,,-13.64052823,34.06374614,Dowa,temperate,ALICK KAMTEPA,both,22.0,none,100.0,1000-0025,Nalunga,public,11667.0,community_hospital,not_available,none,unknown,Central,Central East,yes,yes,delivery,1.0,4.0,delivered
,HIDDEN,,GROUP_CENTRAL_EAST,GROUP_ADMIN,,H27,default,,,anonymous,2016-07-11T16:01:59.033000000,COMPLETE,new_row,,,-13.48742423,33.92341279,Dowa,temperate,JUSTICE YONA,both,27.0,grid,100.0,1000-0026,Mwangala,public,8211.0,community_hospital,not_available,more_than_16,not_available,Central,Central East,yes,yes,delivery,1.0,4.0,delivered
,HIDDEN,,GROUP_CENTRAL_EAST,GROUP_ADMIN,,H28,default,,,anonymous,2016-07-11T16:01:59.035000000,COMPLETE,new_row,,,-12.56333503,33.50028963,Kasungu,temperate,S. MWALE,both,64.0,grid,10.0,1001-0000,Nkhamenya,faithbased,42451.0,hospital,not_available,fewer_than_4,not_available,Central,Central East,yes,yes,delivery,1.0,4.0,delivered
,HIDDEN,,GROUP_CENTRAL_EAST,GROUP_ADMIN,,H29,default,,,anonymous,2016-07-11T16:01:59.040000000,COMPLETE,new_row,,,-12.50852142,33.45239007,Kasungu,temperate,H.MPHANDE,both,14.0,none,100.0,1001-0001,Kamdidi Health Post,public,5702.0,dispensary,not_available,none,irregular,Central,Central East,yes,yes,delivery,1.0,4.0,delivered
,HIDDEN,,GROUP_CENTRAL_EAST,GROUP_ADMIN,,H30,default,,,anonymous,2016-07-11T16:01:59.042000000,COMPLETE,new_row,,,-12.6798671,33.39308544,Kasungu,temperate,S.MTENGAVUMBA,both,20.0,none,100.0,1001-0002,Thupa,public,8640.0,dispensary,not_available,none,available,Central,Central East,yes,yes,delivery,1.0,4.0,delivered
,HIDDEN,,GROUP_CENTRAL_EAST,GROUP_ADMIN,,H31,default,,,anonymous,2016-07-11T16:01:59.044000000,COMPLETE,new_row,,,-12.61939789,33.32611829,Kasungu,temperate,E. PHIRI,both,75.0,none,100.0,1001-0003,Mpepa,public,14127.0,health_center,not_available,none,irregular,Central,Central East,yes,yes,delivery,1.0,4.0,delivered
,HIDDEN,,GROUP_CENTRAL_EAST,GROUP_ADMIN,,H32,default,,,anonymous,2016-07-11T16:01:59.047000000,COMPLETE,new_row,,,-12.58060396,33.38097503,Kasungu,temperate,V. KAKWESA,both,72.0,none,100.0,1001-0004,Newa,faithbased,5601.0,community_hospital,not_available,none,not_available,Central,Central East,yes,yes,delivery,1.0,4.0,delivered
,HIDDEN,,GROUP_CENTRAL_EAST,GROUP_ADMIN,,H33,default,,,anonymous,2016-07-11T16:01:59.049000000,COMPLETE,new_row,,,-12.57830322,33.5179848,Kasungu,temperate,R. MTONGA,both,62.0,grid,10.0,1001-0005,Kaluluma,public,32645.0,district_hospital,not_available,fewer_than_4,not_available,Central,Central East,yes,yes,delivery,1.0,4.0,delivered
,HIDDEN,,GROUP_CENTRAL_EAST,GROUP_ADMIN,,H34,default,,,anonymous,2016-07-11T16:01:59.051000000,COMPLETE,new_row,,,-12.69776859,33.48764752,Kasungu,temperate,G. KACHALE,both,44.0,none,100.0,1001-0006,Chatoloma,public,10793.0,dispensary,not_available,none,irregular,Central,Central East,yes,yes,delivery,1.0,4.0,delivered
,HIDDEN,,GROUP_CENTRAL_EAST,GROUP_ADMIN,,H35,default,,,anonymous,2016-07-11T16:01:59.016000000,COMPLETE,new_row,,,-12.73809216,33.67576035,Kasungu,temperate,C. MENDE,both,69.0,none,100.0,1001-0007,Simulemba,public,29400.0,community_hospital,not_available,none,not_available,Central,Central East,yes,yes,delivery,1.0,4.0,delivered
,HIDDEN,,GROUP_CENTRAL_EAST,GROUP_ADMIN,,H36,default,,,anonymous,2016-07-11T16:01:59.017000000,COMPLETE,new_row,,,-12.7314933,33.76789998,Kasungu,temperate,J.M.G. SAKA,both,86.0,none,100.0,1001-0008,Manjondo,public,4295.0,dispensary,not_available,none,available,Central,Central East,yes,yes,delivery,1.0,4.0,delivered
,HIDDEN,,GROUP_CENTRAL_EAST,GROUP_ADMIN,,H37,default,,,anonymous,2016-07-11T16:01:59.019000000,COMPLETE,new_row,,,-12.77665515,33.54811626,Kasungu,temperate,H. KAUNDA,both,57.0,none,100.0,1001-0009,Offesi,public,14140.0,health_center,available,none,unknown,Central,Central East,yes,yes,delivery,1.0,4.0,delivered
,HIDDEN,,GROUP_CENTRAL_EAST,GROUP_ADMIN,,H38,default,,,anonymous,2016-07-11T16:01:59.022000000,COMPLETE,new_row,,,-12.81918446,33.30735404,Kasungu,temperate,C.CHUNDA,both,46.0,grid,100.0,1001-0010,Chulu,public,35249.0,community_hospital,not_available,fewer_than_4,not_available,Central,Central East,yes,yes,delivery,1.0,4.0,delivered
,HIDDEN,,GROUP_CENTRAL_EAST,GROUP_ADMIN,,H39,default,,,anonymous,2016-07-11T16:01:59.023000000,COMPLETE,new_row,,,-12.81121204,33.43357356,Kasungu,temperate,F. SATHEKA,both,30.0,grid,100.0,1001-0011,Mphomwa,public,4786.0,dispensary,not_available,more_than_16,not_available,Central,Central East,yes,yes,delivery,1.0,4.0,delivered
,HIDDEN,,GROUP_CENTRAL_EAST,GROUP_ADMIN,,H40,default,,,anonymous,2016-07-11T16:01:59.025000000,COMPLETE,new_row,,,-12.87865475,33.45312758,Kasungu,temperate,S.W. BANDA,both,15.0,none,100.0,1001-0012,Dwangwa,public,21669.0,health_center,not_available,none,available,Central,Central East,yes,yes,delivery,1.0,4.0,delivered
,HIDDEN,,GROUP_CENTRAL_EAST,GROUP_ADMIN,,H41,default,,,anonymous,2016-07-11T16:01:59.027000000,COMPLETE,new_row,,,-12.92059948,33.44467606,Kasungu,temperate,A. ZEPHANIA,both,15.0,grid,100.0,1001-0013,Estate 81,private,7065.0,community_hospital,not_available,fewer_than_4,not_available,Central,Central East,yes,yes,delivery,1.0,4.0,collected
,HIDDEN,,GROUP_CENTRAL_EAST,GROUP_ADMIN,,H42,default,,,anonymous,2016-07-11T16:01:59.029000000,COMPLETE,new_row,,,-12.88508422,33.56048058,Kasungu,temperate,K. BANDA,both,26.0,grid,100.0,1001-0014,Gogode,public,16242.0,health_center,not_available,fewer_than_4,not_available,Central,Central East,yes,yes,delivery,1.0,4.0,delivered
,HIDDEN,,GROUP_CENTRAL_EAST,GROUP_ADMIN,,H43,default,,,anonymous,2016-07-11T16:01:59.031000000,COMPLETE,new_row,,,-13.46437403,33.39304503,Kasungu,temperate,G.MOYO,both,52.0,grid,100.0,1001-0015,Santhe,public,32471.0,community_hospital,not_available,fewer_than_4,not_available,Central,Central East,yes,yes,delivery,1.0,4.0,delivered
,HIDDEN,,GROUP_CENTRAL_EAST,GROUP_ADMIN,,H44,default,,,anonymous,2016-07-11T16:01:59.033000000,COMPLETE,new_row,,,-13.56383076,33.34258566,Kasungu,temperate,E.GAUSI,both,75.0,grid,100.0,1001-0016,Mkhota,public,22980.0,community_hospital,not_available,fewer_than_4,not_available,Central,Central East,yes,yes,delivery,1.0,4.0,delivered
,HIDDEN,,GROUP_CENTRAL_EAST,GROUP_ADMIN,,H45,default,,,anonymous,2016-07-11T16:01:59.035000000,COMPLETE,new_row,,,-13.34172455,33.31578636,Kasungu,temperate,G. NYIRENDA,both,74.0,none,100.0,1001-0017,Khola,public,37487.0,community_hospital,not_available,none,available,Central,Central East,yes,yes,delivery,1.0,4.0,delivered
,HIDDEN,,GROUP_CENTRAL_EAST,GROUP_ADMIN,,H46,default,,,anonymous,2016-07-11T16:01:59.040000000,COMPLETE,new_row,,,-13.41080825,33.39284695,Kasungu,temperate,A. MWALE,both,52.0,grid,100.0,1001-0018,Chizinga,private,4730.0,community_hospital,not_available,fewer_than_4,not_available,Central,Central East,yes,yes,delivery,1.0,4.0,delivered
,HIDDEN,,GROUP_CENTRAL_EAST,GROUP_ADMIN,,H47,default,,,anonymous,2016-07-11T16:01:59.042000000,COMPLETE,new_row,,,-13.29300216,33.33851797,Kasungu,temperate,W. CHIMPHAKO,both,43.0,none,100.0,1001-0019,Kawamba,public,24310.0,community_hospital,not_available,none,available,Central,Central East,yes,yes,delivery,1.0,4.0,delivered
,HIDDEN,,GROUP_CENTRAL_EAST,GROUP_ADMIN,,H48,default,,,anonymous,2016-07-11T16:01:59.044000000,COMPLETE,new_row,,,-13.30491799,33.18127997,Kasungu,temperate,C. CHAPO,both,57.0,none,100.0,1001-0020,Kamboni,public,27298.0,community_hospital,irregular,none,not_available,Central,Central East,yes,yes,delivery,1.0,4.0,delivered
,HIDDEN,,GROUP_CENTRAL_EAST,GROUP_ADMIN,,H49,default,,,anonymous,2016-07-11T16:01:59.047000000,COMPLETE,new_row,,,-13.14115583,33.29960271,Kasungu,temperate,S. KAZEMBE,both,40.0,none,100.0,1001-0021,Linyangwa,public,24051.0,community_hospital,available,none,available,Central,Central East,yes,yes,delivery,1.0,4.0,delivered
,HIDDEN,,GROUP_CENTRAL_EAST,GROUP_ADMIN,,H50,default,,,anonymous,2016-07-11T16:01:59.049000000,COMPLETE,new_row,,,-13.27674257,33.50348406,Kasungu,temperate,P. CHALUNGAMA,both,25.0,none,100.0,1001-0022,Mziza,faithbased,16919.0,community_hospital,not_available,none,available,Central,Central East,yes,yes,delivery,1.0,4.0,delivered
,HIDDEN,,GROUP_CENTRAL_EAST,GROUP_ADMIN,,H51,default,,,anonymous,2016-07-11T16:01:59.051000000,COMPLETE,new_row,,,-13.29129371,33.53774675,Kasungu,temperate,A. MPINGANJIRA,both,78.4,grid,100.0,1001-0023,Bua,public,30809.0,community_hospital,not_available,fewer_than_4,not_available,Central,Central East,yes,yes,delivery,1.0,4.0,delivered
,HIDDEN,,GROUP_CENTRAL_EAST,GROUP_ADMIN,,H52,default,,,anonymous,2016-07-11T16:01:59.016000000,COMPLETE,new_row,,,-12.99033477,33.85112687,Kasungu,temperate,K. NYASULU,both,57.0,none,100.0,1001-0024,Mdunga,public,17846.0,community_hospital,not_available,none,irregular,Central,Central East,yes,yes,delivery,1.0,4.0,delivered
,HIDDEN,,GROUP_CENTRAL_EAST,GROUP_ADMIN,,H53,default,,,anonymous,2016-07-11T16:01:59.017000000,COMPLETE,new_row,,,-12.87499752,33.87018185,Kasungu,temperate,J. GOMANI,both,72.0,none,100.0,1001-0025,Kapelura,public,22963.0,community_hospital,not_available,none,available,Central,Central East,yes,yes,delivery,1.0,4.0,delivered
,HIDDEN,,GROUP_CENTRAL_EAST,GROUP_ADMIN,,H54,default,,,anonymous,2016-07-11T16:01:59.019000000,COMPLETE,new_row,,,-12.89717138,33.9347757,Kasungu,temperate,A. DANIEL,both,20.0,none,100.0,1001-0026,Kapichila Health Post,public,9366.0,dispensary,not_available,none,irregular,Central,Central East,yes,yes,delivery,1.0,4.0,both
,HIDDEN,,GROUP_CENTRAL_EAST,GROUP_ADMIN,,H55,default,,,anonymous,2016-07-11T16:01:59.022000000,COMPLETE,new_row,,,-12.8212324,33.78763154,Kasungu,temperate,J. BANDA,both,43.0,none,100.0,1001-0027,Kapyanga,public,15366.0,dispensary,not_available,none,available,Central,Central East,yes,yes,delivery,1.0,4.0,delivered
,HIDDEN,,GROUP_CENTRAL_EAST,GROUP_ADMIN,,H56,default,,,anonymous,2016-07-11T16:01:59.023000000,COMPLETE,new_row,,,-12.82444321,33.72768337,Kasungu,temperate,P. MASIGALE,both,100.0,none,100.0,1001-0028,Kasiya,public,4334.0,dispensary,not_available,none,available,Central,Central East,yes,yes,delivery,1.0,4.0,delivered
,HIDDEN,,GROUP_CENTRAL_EAST,GROUP_ADMIN,,H57,default,,,anonymous,2016-07-11T16:01:59.025000000,COMPLETE,new_row,,,-12.89081849,33.67836124,Kasungu,temperate,E. NGWATA,both,54.0,none,100.0,1001-0029,Livwezi,public,15232.0,dispensary,not_available,none,available,Central,Central East,yes,yes,delivery,1.0,4.0,delivered
,HIDDEN,,GROUP_CENTRAL_EAST,GROUP_ADMIN,,H58,default,,,anonymous,2016-07-11T16:01:59.027000000,COMPLETE,new_row,,,-12.94964751,33.70208409,Kasungu,temperate,J. MWALE,both,6.0,grid,100.0,1001-0030,Estate 17,private,2584.0,community_hospital,not_available,fewer_than_4,not_available,Central,Central East,yes,yes,delivery,1.0,4.0,both
,HIDDEN,,GROUP_CENTRAL_EAST,GROUP_ADMIN,,H59,default,,,anonymous,2016-07-11T16:01:59.029000000,COMPLETE,new_row,,,-13.03016048,33.67058628,Kasungu,temperate,J.CHANGAYA PHIRI,static,3.0,grid,10.0,1001-0031,St Andrews,faithbased,960.0,hospital,not_available,fewer_than_4,not_available,Central,Central East,yes,yes,delivery,1.0,4.0,collected
,HIDDEN,,GROUP_CENTRAL_EAST,GROUP_ADMIN,,H60,default,,,anonymous,2016-07-11T16:01:59.031000000,COMPLETE,new_row,,,-13.02878469,33.68151994,Kasungu,temperate,L. BANDA,both,21.0,grid,100.0,1001-0032,Mtunthama,public,35646.0,community_hospital,not_available,fewer_than_4,not_available,Central,Central East,yes,yes,delivery,1.0,4.0,delivered
,HIDDEN,,GROUP_CENTRAL_EAST,GROUP_ADMIN,,H61,default,,,anonymous,2016-07-11T16:01:59.033000000,COMPLETE,new_row,,,-13.10486527,33.68477289,Kasungu,temperate,MR W. KAWELAMA,both,35.0,none,100.0,1001-0033,Chamwabvi,public,27418.0,community_hospital,not_available,none,available,Central,Central East,yes,yes,delivery,1.0,4.0,delivered
,HIDDEN,,GROUP_CENTRAL_EAST,GROUP_ADMIN,,H62,default,,,anonymous,2016-07-11T16:01:59.035000000,COMPLETE,new_row,,,-13.13760378,33.73174107,Kasungu,temperate,G.C. PHIRI,both,42.0,none,100.0,1001-0034,Mitula Health Post,public,2476.0,dispensary,not_available,none,available,Central,Central East,yes,yes,delivery,1.0,4.0,delivered
,HIDDEN,,GROUP_CENTRAL_EAST,GROUP_ADMIN,,H63,default,,,anonymous,2016-07-11T16:01:59.040000000,COMPLETE,new_row,,,-12.41617375,33.52864712,Kasungu,temperate,M. NHEMA,both,78.0,none,100.0,1001-0035,Lojwa,public,7173.0,health_center,not_available,none,available,Central,Central East,yes,yes,delivery,1.0,4.0,delivered
,HIDDEN,,GROUP_CENTRAL_EAST,GROUP_ADMIN,,H64,default,,,anonymous,2016-07-11T16:01:59.042000000,COMPLETE,new_row,,,-13.0328448,33.47964447,Kasungu,temperate,B. FEZA,both,0.0,grid,10.0,1001-0036,Kasungu District Hospital,public,106967.0,central_hospital,not_available,fewer_than_4,not_available,Central,Central East,yes,yes,delivery,1.0,1.0,both
,HIDDEN,,GROUP_CENTRAL_EAST,GROUP_ADMIN,,H65,default,,,anonymous,2016-07-11T16:01:59.044000000,COMPLETE,new_row,,,-12.98829018,33.68641613,Kasungu,temperate,J.BANDA,both,32.0,grid,100.0,1001-0037,Wimbe,public,65980.0,community_hospital,not_available,more_than_16,not_available,Central,Central East,yes,yes,delivery,1.0,4.0,delivered
,HIDDEN,,GROUP_CENTRAL_EAST,GROUP_ADMIN,,H66,default,,,anonymous,2016-07-11T16:01:59.047000000,COMPLETE,new_row,,,-12.92192269,33.77613774,Kasungu,temperate,J.A. KALUWA,both,51.0,none,100.0,1001-0038,Chamama,public,19919.0,dispensary,not_available,none,available,Central,Central East,yes,yes,delivery,1.0,4.0,delivered
,HIDDEN,,GROUP_CENTRAL_EAST,GROUP_ADMIN,,H67,default,,,anonymous,2016-07-11T16:01:59.049000000,COMPLETE,new_row,,,-13.0328448,33.47964447,Kasungu,temperate,W.E. KAZONDE,none,124.0,grid,100.0,1001-0039,Kasungu District Vaccine Store,public,707861.0,regional_vaccine_store,not_available,more_than_16,available,Central,Central East,yes,yes,depot,1.0,4.0,both
,HIDDEN,,GROUP_CENTRAL_EAST,GROUP_ADMIN,,H68,default,,,anonymous,2016-07-11T16:01:59.051000000,COMPLETE,new_row,,,-13.43591038,34.273008,Nkhotakota,temperate,MARY MWALE,both,50.0,none,100.0,1002-0000,Mtosa Heath Centre,public,13250.0,community_hospital,not_available,none,not_available,Central,Central East,yes,yes,delivery,1.0,4.0,both
,HIDDEN,,GROUP_CENTRAL_EAST,GROUP_ADMIN,,H69,default,,,anonymous,2016-07-11T16:01:59.016000000,COMPLETE,new_row,,,-13.38528622,31.74916158,Nkhotakota,temperate,PETROS MUSSA,both,62.0,none,10.0,1002-0001,Alinafe Community Hospita,faithbased,22112.0,hospital,not_available,none,available,Central,Central East,yes,yes,delivery,1.0,4.0,both
,HIDDEN,,GROUP_CENTRAL_EAST,GROUP_ADMIN,,H70,default,,,anonymous,2016-07-11T16:01:59.017000000,COMPLETE,new_row,,,-13.36571882,34.27334051,Nkhotakota,temperate,EBINAZIEL KANDOMO,both,40.0,none,100.0,1002-0002,Benga Health Centre,public,16934.0,community_hospital,not_available,none,available,Central,Central East,yes,yes,delivery,1.0,4.0,both
,HIDDEN,,GROUP_CENTRAL_EAST,GROUP_ADMIN,,H71,default,,,anonymous,2016-07-11T16:01:59.019000000,COMPLETE,new_row,,,-13.30430542,34.1179728,Nkhotakota,temperate,ENEA MFIPA,both,56.0,grid,100.0,1002-0003,Mwansambo Health Centre,public,25467.0,community_hospital,not_available,more_than_16,not_available,Central,Central East,yes,yes,delivery,1.0,4.0,delivered
,HIDDEN,,GROUP_CENTRAL_EAST,GROUP_ADMIN,,H72,default,,,anonymous,2016-07-11T16:01:59.022000000,COMPLETE,new_row,,,-13.17911055,31.75924039,Nkhotakota,temperate,MARIA KAUCHI,both,64.0,none,100.0,1002-0004,Malowa Health Centre,public,15491.0,community_hospital,not_available,none,available,Central,Central East,yes,yes,delivery,1.0,4.0,delivered
,HIDDEN,,GROUP_CENTRAL_EAST,GROUP_ADMIN,,H73,default,,,anonymous,2016-07-11T16:01:59.023000000,COMPLETE,new_row,,,-13.21344187,34.31067402,Nkhotakota,temperate,ELIZABETH HARAWA,both,40.0,none,100.0,1002-0005,Kapiri Health Centre,faithbased,31599.0,community_hospital,not_available,none,available,Central,Central East,yes,yes,delivery,1.0,4.0,delivered
,HIDDEN,,GROUP_CENTRAL_EAST,GROUP_ADMIN,,H74,default,,,anonymous,2016-07-11T16:01:59.025000000,COMPLETE,new_row,,,-13.08307929,34.31401211,Nkhotakota,temperate,PHILLIP CHIMSANGO,both,22.0,none,100.0,1002-0006,Chididi Health Centre,faithbased,13884.0,community_hospital,not_available,none,available,Central,Central East,yes,yes,delivery,1.0,4.0,delivered
,HIDDEN,,GROUP_CENTRAL_EAST,GROUP_ADMIN,,H75,default,,,anonymous,2016-07-11T16:01:59.027000000,COMPLETE,new_row,,,-13.06656508,34.25151055,Nkhotakota,temperate,VICTOR SANI,both,28.0,none,100.0,1002-0007,Mpamantha Dispensary,public,16555.0,health_center,not_available,none,available,Central,Central East,yes,yes,delivery,1.0,4.0,both
,HIDDEN,,GROUP_CENTRAL_EAST,GROUP_ADMIN,,H76,default,,,anonymous,2016-07-11T16:01:59.029000000,COMPLETE,new_row,,,-12.92433117,34.29508456,Nkhotakota,temperate,PATRICK JUMA BANDA,both,1.0,grid,10.0,1002-0008,St Annes Mission Hospital,faithbased,6271.0,rural_hospital,not_available,more_than_16,not_available,Central,Central East,yes,yes,delivery,1.0,4.0,collected
,HIDDEN,,GROUP_CENTRAL_EAST,GROUP_ADMIN,,H77,default,,,anonymous,2016-07-11T16:01:59.031000000,COMPLETE,new_row,,,-12.7939031,34.20892824,Nkhotakota,temperate,ISAAC CHANAICHI KUMWENDA,both,35.0,grid,100.0,1002-0009,Bua Health Centre,public,13577.0,community_hospital,not_available,more_than_16,not_available,Central,Central East,yes,yes,delivery,1.0,4.0,delivered
,HIDDEN,,GROUP_CENTRAL_EAST,GROUP_ADMIN,,H78,default,,,anonymous,2016-07-11T16:01:59.033000000,COMPLETE,new_row,,,-12.72982377,34.16986866,Nkhotakota,temperate,RUTH NKHOMA,both,15.0,none,100.0,1002-0010,Msenjere Health Centre,public,14862.0,community_hospital,available,none,available,Central,Central East,yes,yes,delivery,1.0,4.0,delivered
,HIDDEN,,GROUP_CENTRAL_EAST,GROUP_ADMIN,,H79,default,,,anonymous,2016-07-11T16:01:59.035000000,COMPLETE,new_row,,,-12.75436667,34.21679968,Nkhotakota,temperate,AUSTIN A B MAFIAL,both,39.0,none,100.0,1002-0011,Katimbira Health Centre,public,10457.0,community_hospital,not_available,none,available,Central,Central East,yes,yes,delivery,1.0,4.0,delivered
,HIDDEN,,GROUP_CENTRAL_EAST,GROUP_ADMIN,,H80,default,,,anonymous,2016-07-11T16:01:59.040000000,COMPLETE,new_row,,,-12.61775365,34.16460713,Nkhotakota,temperate,FLORENCE CHIMA,both,30.0,none,100.0,1002-0012,Liwaladzi Health Cente,public,15523.0,community_hospital,not_available,none,available,Central,Central East,yes,yes,delivery,1.0,4.0,delivered
,HIDDEN,,GROUP_CENTRAL_EAST,GROUP_ADMIN,,H81,default,,,anonymous,2016-07-11T16:01:59.042000000,COMPLETE,new_row,,,-12.23132593,33.99118916,Nkhotakota,temperate,PATRICK CHIMBUTO,both,117.0,grid,10.0,1002-0013,Dwambadzi Rural Hospital,public,15177.0,district_hospital,irregular,more_than_16,unknown,Central,Central East,yes,yes,delivery,1.0,4.0,delivered
,HIDDEN,,GROUP_CENTRAL_EAST,GROUP_ADMIN,,H82,default,,,anonymous,2016-07-11T16:01:59.044000000,COMPLETE,new_row,,,-12.30666065,34.03350301,Nkhotakota,temperate,LEMIE NKHOSA,both,14.0,none,100.0,1002-0014,Kasitu Cham Health Centre,faithbased,11478.0,community_hospital,unknown,none,unknown,Central,Central East,no,yes,delivery,1.0,4.0,delivered
,HIDDEN,,GROUP_CENTRAL_EAST,GROUP_ADMIN,,H83,default,,,anonymous,2016-07-11T16:01:59.047000000,COMPLETE,new_row,,,-12.3625362,34.06475357,Nkhotakota,temperate,ANTHONY KAPANDA,both,78.0,grid,100.0,1002-0015,Ngala Health Centre,public,15314.0,community_hospital,not_available,more_than_16,unknown,Central,Central East,yes,yes,delivery,1.0,4.0,delivered
,HIDDEN,,GROUP_CENTRAL_EAST,GROUP_ADMIN,,H84,default,,,anonymous,2016-07-11T16:01:59.049000000,COMPLETE,new_row,,,-12.43371003,34.04916381,Nkhotakota,temperate,FELIX KAMBONA,both,70.0,grid,100.0,1002-0016,Kaongozi Health Centre,public,10709.0,community_hospital,not_available,more_than_16,not_available,Central,Central East,yes,yes,delivery,1.0,4.0,delivered
,HIDDEN,,GROUP_CENTRAL_EAST,GROUP_ADMIN,,H85,default,,,anonymous,2016-07-11T16:01:59.051000000,COMPLETE,new_row,,,-12.47746415,34.10765697,Nkhotakota,temperate,WILMOT CHIBWAIRA,both,65.0,grid,100.0,1002-0017,Nkhunga Health Centre,public,29519.0,community_hospital,not_available,more_than_16,unknown,Central,Central East,yes,yes,delivery,1.0,4.0,delivered
,HIDDEN,,GROUP_CENTRAL_EAST,GROUP_ADMIN,,H86,default,,,anonymous,2016-07-11T16:01:59.016000000,COMPLETE,new_row,,,-12.49605746,34.15411276,Nkhotakota,temperate,F CHIDZAYE,static,60.0,grid,100.0,1002-0018,Matiki Health Centre Dwangwa,public,19762.0,community_hospital,not_available,more_than_16,unknown,Central,Central East,yes,yes,delivery,1.0,4.0,collected
,HIDDEN,,GROUP_CENTRAL_EAST,GROUP_ADMIN,,H87,default,,,anonymous,2016-07-11T16:01:59.017000000,COMPLETE,new_row,,,-12.3159053,33.77883822,Nkhotakota,temperate,PRECIOUS RABSON,both,260.0,none,100.0,1002-0019,Lupachi Health Post,public,8195.0,dispensary,irregular,none,available,Central,Central East,yes,yes,delivery,3.0,12.0,delivered
,HIDDEN,,GROUP_CENTRAL_EAST,GROUP_ADMIN,,H88,default,,,anonymous,2016-07-11T16:01:59.019000000,COMPLETE,new_row,,,-12.92174145,34.2775597,Nkhotakota,temperate,MICHEAL E G LOJANI,both,0.01,grid,10.0,1002-0020,Nkhotakota District Hospital,public,67405.0,central_hospital,unknown,more_than_16,unknown,Central,Central East,yes,yes,delivery,1.0,4.0,collected
,HIDDEN,,GROUP_CENTRAL_EAST,GROUP_ADMIN,,H89,default,,,anonymous,2016-07-11T16:01:59.022000000,COMPLETE,new_row,,,-12.51849533,34.11839626,Nkhotakota,temperate,SYMON L. CHIMNDOZI,both,60.0,grid,100.0,1002-0021,Dwangwa Cane Growers Clinic,private,7582.0,community_hospital,not_available,more_than_16,not_available,Central,Central East,yes,yes,delivery,1.0,4.0,both
,HIDDEN,,GROUP_CENTRAL_EAST,GROUP_ADMIN,,H90,default,,,anonymous,2016-07-11T16:01:59.023000000,COMPLETE,new_row,,,-12.92174145,34.2775597,Nkhotakota,temperate,MICHEAL EC LOJANI,none,207.0,grid,100.0,1002-0022,Nkhotakota District Hospital Vaccine Store,public,334856.0,regional_vaccine_store,not_available,more_than_16,not_available,Central,Central East,yes,yes,depot,1.0,4.0,collected
,HIDDEN,,GROUP_CENTRAL_EAST,GROUP_ADMIN,,H91,default,,,anonymous,2016-07-11T16:01:59.025000000,COMPLETE,new_row,,,-13.36066671,33.91026851,Ntchisi,temperate,E . MAUNDA,both,0.0,grid,10.0,1003-0000,Ntchisi District Hospital,public,46527.0,central_hospital,not_available,fewer_than_4,not_available,Central,Central East,yes,yes,delivery,1.0,4.0,both
,HIDDEN,,GROUP_CENTRAL_EAST,GROUP_ADMIN,,H92,default,,,anonymous,2016-07-11T16:01:59.027000000,COMPLETE,new_row,,,-13.36066671,33.91026851,Ntchisi,temperate,CHINSINGA,none,97.0,grid,100.0,1003-0001,Ntchisi District Vaccine Store,public,244878.0,regional_vaccine_store,not_available,more_than_16,not_available,Central,Central East,yes,yes,depot,1.0,4.0,collected
,HIDDEN,,GROUP_CENTRAL_EAST,GROUP_ADMIN,,H93,default,,,anonymous,2016-07-11T16:01:59.029000000,COMPLETE,new_row,,,-13.34697972,33.98244117,Ntchisi,temperate,B CHABWERA,both,16.0,none,100.0,1003-0002,Sambakusi Health Centre,public,3500.0,community_hospital,not_available,none,available,Central,Central East,yes,yes,delivery,1.0,4.0,delivered
,HIDDEN,,GROUP_CENTRAL_EAST,GROUP_ADMIN,,H94,default,,,anonymous,2016-07-11T16:01:59.031000000,COMPLETE,new_row,,,-13.14585819,33.8385958,Ntchisi,temperate,G. KATERA,both,40.0,grid,100.0,1003-0003,Malomo Health Centre,public,42794.0,community_hospital,not_available,fewer_than_4,not_available,Central,Central East,yes,yes,delivery,1.0,4.0,delivered
,HIDDEN,,GROUP_CENTRAL_EAST,GROUP_ADMIN,,H95,default,,,anonymous,2016-07-11T16:01:59.033000000,COMPLETE,new_row,,,-13.25855497,33.86801893,Ntchisi,temperate,E. JELEAM,both,15.0,none,100.0,1003-0004,Chinguluwe Health Centre,public,22039.0,community_hospital,not_available,none,irregular,Central,Central East,yes,yes,delivery,1.0,4.0,both
,HIDDEN,,GROUP_CENTRAL_EAST,GROUP_ADMIN,,H96,default,,,anonymous,2016-07-11T16:01:59.035000000,COMPLETE,new_row,,,-13.48644348,34.0269194,Ntchisi,temperate,J. K. BANDA,both,35.0,none,100.0,1003-0005,Mzandu Health Centre,public,17141.0,community_hospital,not_available,none,irregular,Central,Central East,yes,yes,delivery,1.0,4.0,both
,HIDDEN,,GROUP_CENTRAL_EAST,GROUP_ADMIN,,H97,default,,,anonymous,2016-07-11T16:01:59.040000000,COMPLETE,new_row,,,-13.43066889,33.97458784,Ntchisi,temperate,J. MCHERE,both,60.0,grid,100.0,1003-0006,Chinthembwe Health Centre,faithbased,12444.0,community_hospital,not_available,fewer_than_4,not_available,Central,Central East,yes,yes,delivery,1.0,4.0,delivered
,HIDDEN,,GROUP_CENTRAL_EAST,GROUP_ADMIN,,H98,default,,,anonymous,2016-07-11T16:01:59.042000000,COMPLETE,new_row,,,-13.36767408,34.06968487,Ntchisi,temperate,M. BANDA,both,42.0,none,100.0,1003-0007,Kangolwa Health Centre,public,15095.0,community_hospital,irregular,none,not_available,Central,Central East,yes,yes,delivery,1.0,4.0,both
,HIDDEN,,GROUP_CENTRAL_EAST,GROUP_ADMIN,,H99,default,,,anonymous,2016-07-11T16:01:59.044000000,COMPLETE,new_row,,,-13.24439649,34.00578476,Ntchisi,temperate,M. KASALIKA,both,72.0,none,100.0,1003-0008,Nthondo Health Centre,public,19590.0,community_hospital,not_available,none,available,Central,Central East,yes,yes,delivery,1.0,4.0,delivered
,HIDDEN,,GROUP_CENTRAL_EAST,GROUP_ADMIN,,H100,default,,,anonymous,2016-07-11T16:01:59.047000000,COMPLETE,new_row,,,-13.24468176,34.05603976,Ntchisi,temperate,G. LAMBULIRA,both,32.0,none,100.0,1003-0009,Mndinda Dispensary,public,7346.0,health_center,not_available,none,available,Central,Central East,yes,yes,delivery,1.0,4.0,both
,HIDDEN,,GROUP_CENTRAL_EAST,GROUP_ADMIN,,H101,default,,,anonymous,2016-07-11T16:01:59.049000000,COMPLETE,new_row,,,-13.42901487,33.83327868,Ntchisi,temperate,R. MTUPANYAMA,both,15.0,grid,100.0,1003-0010,Khuwi Health Centre,public,24488.0,community_hospital,not_available,fewer_than_4,not_available,Central,Central East,yes,yes,delivery,1.0,4.0,delivered
,HIDDEN,,GROUP_CENTRAL_EAST,GROUP_ADMIN,,H102,default,,,anonymous,2016-07-11T16:01:59.051000000,COMPLETE,new_row,,,-13.27135875,33.79863933,Ntchisi,temperate,B. NKHAMBULE,both,22.0,none,100.0,1003-0011,Kamsonga Health Centre,public,17585.0,community_hospital,irregular,none,not_available,Central,Central East,yes,yes,delivery,1.0,4.0,delivered
,HIDDEN,,GROUP_CENTRAL_EAST,GROUP_ADMIN,,H103,default,,,anonymous,2016-07-11T16:01:59.016000000,COMPLETE,new_row,,,-13.21034934,33.76161825,Ntchisi,temperate,SR V.F. NKHONYO,both,32.0,none,100.0,1003-0012,Malambo Health Centre,faithbased,8340.0,community_hospital,not_available,none,unknown,Central,Central East,yes,yes,delivery,1.0,4.0,both
,HIDDEN,,GROUP_CENTRAL_EAST,GROUP_ADMIN,,H104,default,,,anonymous,2016-07-11T16:01:59.017000000,COMPLETE,new_row,,,-13.36366378,33.77592986,Ntchisi,temperate,D. SAYANJANA,both,22.0,none,100.0,1003-0013,Mkuzi Health Centre,public,17141.0,community_hospital,not_available,none,irregular,Central,Central East,yes,yes,delivery,1.0,4.0,delivered
,HIDDEN,,GROUP_CENTRAL_EAST,GROUP_ADMIN,,H105,default,,,anonymous,2016-07-11T16:01:59.019000000,COMPLETE,new_row,,,-13.7593218,34.42110805,Salima,temperate,VICTOR PHIRI,both,100.0,grid,10.0,1004-0000,Salima Hospital,public,56153.0,central_hospital,not_available,more_than_16,not_available,Central,Central East,yes,yes,delivery,1.0,1.0,collected
,HIDDEN,,GROUP_CENTRAL_EAST,GROUP_ADMIN,,H106,default,,,anonymous,2016-07-11T16:01:59.022000000,COMPLETE,new_row,,,-13.7593218,34.42110805,Salima,temperate,VICTOR PHIRI,both,1.0,grid,100.0,1004-0001,Salima District Vaccine Store,public,371938.0,regional_vaccine_store,unknown,more_than_16,unknown,Central,Central East,yes,yes,depot,1.0,4.0,collected
,HIDDEN,,GROUP_CENTRAL_EAST,GROUP_ADMIN,,H107,default,,,anonymous,2016-07-11T16:01:59.023000000,COMPLETE,new_row,,,-13.66891811,34.27078197,Salima,temperate,MATHEWS FISI,both,29.0,grid,100.0,1004-0002,Chitala Health Centre,faithbased,10098.0,community_hospital,unknown,more_than_16,unknown,Central,Central East,yes,yes,delivery,1.0,4.0,delivered
,HIDDEN,,GROUP_CENTRAL_EAST,GROUP_ADMIN,,H108,default,,,anonymous,2016-07-11T16:01:59.025000000,COMPLETE,new_row,,,-13.76002658,34.38303805,Salima,temperate,COLLINS KAFUNSO,both,7.0,grid,100.0,1004-0003,Kaphatenga Health Centre,faithbased,21624.0,community_hospital,not_available,more_than_16,not_available,Central,Central East,yes,yes,delivery,1.0,4.0,both
,HIDDEN,,GROUP_CENTRAL_EAST,GROUP_ADMIN,,H109,default,,,anonymous,2016-07-11T16:01:59.027000000,COMPLETE,new_row,,,-13.66197329,34.38429461,Salima,temperate,ISAAC E. MANDALA,both,15.0,none,100.0,1004-0004,Chinguluwe Health Centre,public,13344.0,community_hospital,not_available,none,not_available,Central,Central East,yes,yes,delivery,1.0,4.0,delivered
,HIDDEN,,GROUP_CENTRAL_EAST,GROUP_ADMIN,,H110,default,,,anonymous,2016-07-11T16:01:59.029000000,COMPLETE,new_row,,,-13.71049438,34.31736707,Salima,temperate,MWALILINO,both,22.0,none,100.0,1004-0005,Katawa Health Centre,private,8068.0,community_hospital,irregular,none,not_available,Central,Central East,yes,yes,delivery,1.0,4.0,delivered
,HIDDEN,,GROUP_CENTRAL_EAST,GROUP_ADMIN,,H111,default,,,anonymous,2016-07-11T16:01:59.031000000,COMPLETE,new_row,,,-13.59405717,34.31061209,Salima,temperate,SAMUEL CHIMWAZA,both,29.0,grid,100.0,1004-0006,Khombeza Health Centre,public,51535.0,community_hospital,not_available,more_than_16,not_available,Central,Central East,yes,yes,delivery,1.0,4.0,delivered
,HIDDEN,,GROUP_CENTRAL_EAST,GROUP_ADMIN,,H112,default,,,anonymous,2016-07-11T16:01:59.033000000,COMPLETE,new_row,,,-13.58323191,34.19634426,Salima,temperate,VINCCENT CHAUMA,both,50.0,none,100.0,1004-0007,Makiyoni Health Centre,public,22911.0,community_hospital,irregular,none,not_available,Central,Central East,yes,yes,delivery,1.0,4.0,delivered
,HIDDEN,,GROUP_CENTRAL_EAST,GROUP_ADMIN,,H113,default,,,anonymous,2016-07-11T16:01:59.035000000,COMPLETE,new_row,,,-13.49530536,34.26054562,Salima,temperate,CHANCY O.W. KADZUWA,both,50.0,none,100.0,1004-0008,Thavite Health Centre,public,22890.0,community_hospital,irregular,none,not_available,Central,Central East,yes,yes,delivery,1.0,5.0,delivered
,HIDDEN,,GROUP_CENTRAL_EAST,GROUP_ADMIN,,H114,default,,,anonymous,2016-07-11T16:01:59.040000000,COMPLETE,new_row,,,-13.7821472,34.45814865,Salima,temperate,E. SAKWATA,both,8.0,none,100.0,1004-0009,Salima Admarc Clinic,public,24772.0,health_center,unknown,none,unknown,Central,Central East,yes,yes,delivery,1.0,4.0,collected
,HIDDEN,,GROUP_CENTRAL_EAST,GROUP_ADMIN,,H115,default,,,anonymous,2016-07-11T16:01:59.042000000,COMPLETE,new_row,,,-13.77877448,34.4583127,Salima,temperate,TED KAPONDA,static,8.0,grid,100.0,1004-0010,Blm Clinic,private,1880.0,community_hospital,not_available,more_than_16,unknown,Central,Central East,yes,yes,delivery,1.0,4.0,both
,HIDDEN,,GROUP_CENTRAL_EAST,GROUP_ADMIN,,H116,default,,,anonymous,2016-07-11T16:01:59.044000000,COMPLETE,new_row,,,-13.73850108,34.59454534,Salima,temperate,M.B.P. KANOWA,both,20.0,grid,100.0,1004-0011,Baptist Medical Clinic,faithbased,14280.0,community_hospital,not_available,more_than_16,not_available,Central,Central East,yes,yes,delivery,1.0,4.0,delivered
,HIDDEN,,GROUP_CENTRAL_EAST,GROUP_ADMIN,,H117,default,,,anonymous,2016-07-11T16:01:59.047000000,COMPLETE,new_row,,,-13.73850108,34.59454534,Salima,temperate,JAMESON GOMANI,both,18.0,grid,100.0,1004-0012,Lifuwu Health Centre,public,14494.0,community_hospital,not_available,more_than_16,not_available,Central,Central East,yes,yes,delivery,1.0,4.0,delivered
,HIDDEN,,GROUP_CENTRAL_EAST,GROUP_ADMIN,,H118,default,,,anonymous,2016-07-11T16:01:59.049000000,COMPLETE,new_row,,,-13.78130863,34.60310319,Salima,temperate,M. KAMKWALE,both,20.0,grid,10.0,1004-0013,Mafco Camp Hospital,private,5650.0,rural_hospital,not_available,more_than_16,not_available,Central,Central East,yes,yes,delivery,1.0,4.0,delivered
,HIDDEN,,GROUP_CENTRAL_EAST,GROUP_ADMIN,,H119,default,,,anonymous,2016-07-11T16:01:59.051000000,COMPLETE,new_row,,,-13.74063641,34.58720875,Salima,temperate,ANDREW KANJANGO,static,20.0,grid,10.0,1004-0014,Parachute Clinic,private,2000.0,rural_hospital,not_available,more_than_16,not_available,Central,Central East,yes,yes,delivery,1.0,5.0,both
,HIDDEN,,GROUP_CENTRAL_EAST,GROUP_ADMIN,,H120,default,,,anonymous,2016-07-11T16:01:59.016000000,COMPLETE,new_row,,,-13.8441907,34.5586025,Salima,temperate,MAXWELL CHAPWETEKA,both,23.0,grid,100.0,1004-0015,Maganga Health Centre,public,32757.0,community_hospital,not_available,more_than_16,not_available,Central,Central East,yes,yes,delivery,1.0,4.0,both
,HIDDEN,,GROUP_CENTRAL_EAST,GROUP_ADMIN,,H121,default,,,anonymous,2016-07-11T16:01:59.017000000,COMPLETE,new_row,,,-13.87775471,34.36642095,Salima,temperate,K.Y. MOYO,both,17.0,none,100.0,1004-0016,Chagunda Health Centre,public,14291.0,community_hospital,irregular,none,not_available,Central,Central East,yes,yes,delivery,1.0,4.0,delivered
,HIDDEN,,GROUP_CENTRAL_EAST,GROUP_ADMIN,,H122,default,,,anonymous,2016-07-11T16:01:59.019000000,COMPLETE,new_row,,,-13.92357293,34.48907971,Salima,temperate,MALONIE BANDA,both,21.0,grid,100.0,1004-0017,Mchoka Health Centre,public,26973.0,community_hospital,not_available,more_than_16,not_available,Central,Central East,yes,yes,delivery,1.0,4.0,delivered
,HIDDEN,,GROUP_CENTRAL_EAST,GROUP_ADMIN,,H123,default,,,anonymous,2016-07-11T16:01:59.022000000,COMPLETE,new_row,,,-13.98693299,34.51480354,Salima,temperate,PETER KANDAYA,both,30.0,grid,100.0,1004-0018,Chipoka Health Centre,public,26242.0,community_hospital,not_available,more_than_16,not_available,Central,Central East,yes,yes,delivery,1.0,5.0,both
,HIDDEN,,GROUP_CENTRAL_EAST,GROUP_ADMIN,,H124,default,,,anonymous,2016-07-11T16:01:59.023000000,COMPLETE,new_row,,,-14.08697608,34.51085839,Salima,temperate,ALLI CHALE,both,43.0,none,100.0,1004-0019,Ngodzi Health Centre,faithbased,9045.0,community_hospital,irregular,none,not_available,Central,Central East,yes,yes,delivery,1.0,4.0,delivered
,HIDDEN,,GROUP_CENTRAL_EAST,GROUP_ADMIN,,H125,default,,,anonymous,2016-07-11T16:01:59.025000000,COMPLETE,new_row,,,-14.08899796,34.54412688,Salima,temperate,KILIANA JONAS,both,45.0,grid,100.0,1004-0020,Lifeline Health Centre,private,7318.0,community_hospital,unknown,more_than_16,unknown,Central,Central East,yes,yes,delivery,1.0,5.0,delivered
,HIDDEN,,GROUP_CENTRAL_EAST,GROUP_ADMIN,,H126,default,,,anonymous,2016-07-11T16:01:59.027000000,COMPLETE,new_row,,,-13.46780213,34.35145086,Salima,temperate,ALBERT MAPEMBA,both,30.0,none,100.0,1004-0021,Makho Health Post,public,1792.0,dispensary,irregular,none,not_available,Central,Central East,yes,yes,delivery,1.0,8.0,collected
,HIDDEN,,GROUP_CENTRAL_WEST,GROUP_ADMIN,,H127,default,,,anonymous,2016-07-11T16:01:59.029000000,COMPLETE,new_row,,,-14.40566431,34.11590717,Dedza,temperate,KALIVUTE MBEDZA,both,35.0,none,100.0,1005-0001,Maonde Health Centre,public,16359.0,community_hospital,available,none,available,Central,Central West,yes,yes,delivery,1.0,4.0,delivered
,HIDDEN,,GROUP_CENTRAL_WEST,GROUP_ADMIN,,H128,default,,,anonymous,2016-07-11T16:01:59.031000000,COMPLETE,new_row,,,-14.45504448,34.07645643,Dedza,temperate,FRORENCE CHIKUSE,both,54.0,none,100.0,1005-0002,Mphati Health Centre,public,10032.0,community_hospital,not_available,none,available,Central,Central West,yes,yes,delivery,1.0,4.0,delivered
,HIDDEN,,GROUP_CENTRAL_WEST,GROUP_ADMIN,,H129,default,,,anonymous,2016-07-11T16:01:59.033000000,COMPLETE,new_row,,,-14.44271746,34.0102262,Dedza,temperate,PETER MZENGO,both,60.0,none,100.0,1005-0003,Chimoto Health Centre,public,29931.0,community_hospital,available,none,available,Central,Central West,no,yes,delivery,1.0,4.0,delivered
,HIDDEN,,GROUP_CENTRAL_WEST,GROUP_ADMIN,,H130,default,,,anonymous,2016-07-11T16:01:59.035000000,COMPLETE,new_row,,,-14.44714153,33.93949911,Dedza,temperate,RABECCA CHIKATI,both,75.0,none,100.0,1005-0004,Mikonde Health  Centre,faithbased,16959.0,community_hospital,available,none,irregular,Central,Central West,yes,yes,delivery,1.0,4.0,delivered
,HIDDEN,,GROUP_CENTRAL_WEST,GROUP_ADMIN,,H131,default,,,anonymous,2016-07-11T16:01:59.040000000,COMPLETE,new_row,,,-14.37255188,33.9058742,Dedza,temperate,HARDWEL KABAMBE,both,84.0,none,100.0,1005-0005,Matumba Health Centre,faithbased,32994.0,community_hospital,available,none,available,Central,Central West,no,yes,delivery,1.0,4.0,delivered
,HIDDEN,,GROUP_CENTRAL_WEST,GROUP_ADMIN,,H132,default,,,anonymous,2016-07-11T16:01:59.042000000,COMPLETE,new_row,,,-14.22570972,34.03961649,Dedza,temperate,ANDERSON KAMWANA,both,57.0,none,100.0,1005-0006,Chitowe,public,29555.0,community_hospital,not_available,none,available,Central,Central West,yes,yes,delivery,1.0,4.0,delivered
,HIDDEN,,GROUP_CENTRAL_WEST,GROUP_ADMIN,,H133,default,,,anonymous,2016-07-11T16:01:59.044000000,COMPLETE,new_row,,,-14.23513416,33.96760787,Dedza,temperate,KINGS MWANJU,both,67.0,none,100.0,1005-0007,Mbeza Health Centre,public,12238.0,community_hospital,not_available,none,available,Central,Central West,yes,yes,delivery,1.0,4.0,delivered
,HIDDEN,,GROUP_CENTRAL_WEST,GROUP_ADMIN,,H134,default,,,anonymous,2016-07-11T16:01:59.047000000,COMPLETE,new_row,,,-14.31389251,33.95288712,Dedza,temperate,TELEZA C. PHIRI,both,81.0,none,100.0,1005-0008,Kanyezi Health Centre,public,25841.0,community_hospital,not_available,none,available,Central,Central West,yes,yes,delivery,1.0,4.0,delivered
,HIDDEN,,GROUP_CENTRAL_WEST,GROUP_ADMIN,,H135,default,,,anonymous,2016-07-11T16:01:59.049000000,COMPLETE,new_row,,,-14.43172005,33.71765464,Dedza,temperate,ADREW G.MBABA,both,110.0,none,100.0,1005-0009,Kafere Health Centre,public,10137.0,community_hospital,not_available,none,available,Central,Central West,no,yes,delivery,1.0,4.0,delivered
,HIDDEN,,GROUP_CENTRAL_WEST,GROUP_ADMIN,,H136,default,,,anonymous,2016-07-11T16:01:59.051000000,COMPLETE,new_row,,,-14.39031923,34.07179593,Dedza,temperate,JEAN PARANJETA,both,35.0,grid,100.0,1005-0010,Lobi Health Centre,public,18521.0,community_hospital,not_available,more_than_16,not_available,Central,Central West,yes,yes,delivery,1.0,4.0,delivered
,HIDDEN,,GROUP_CENTRAL_WEST,GROUP_ADMIN,,H137,default,,,anonymous,2016-07-11T16:01:59.016000000,COMPLETE,new_row,,,-14.22765412,34.51472618,Dedza,temperate,YOSEK KALOWA,both,60.0,grid,100.0,1005-0011,Mtakataka,public,19632.0,community_hospital,not_available,more_than_16,not_available,Central,Central West,yes,yes,delivery,1.0,4.0,delivered
,HIDDEN,,GROUP_CENTRAL_WEST,GROUP_ADMIN,,H138,default,,,anonymous,2016-07-11T16:01:59.017000000,COMPLETE,new_row,,,-14.20031973,34.54867727,Dedza,temperate,ALFRED MASANDA,both,67.0,none,100.0,1005-0012,Nakalazi Health Centre,faithbased,17425.0,community_hospital,not_available,none,available,Central,Central West,yes,yes,delivery,1.0,4.0,delivered
,HIDDEN,,GROUP_CENTRAL_WEST,GROUP_ADMIN,,H139,default,,,anonymous,2016-07-11T16:01:59.019000000,COMPLETE,new_row,,,-14.28335393,34.51023204,Dedza,temperate,PHILIMON MAGAWA,both,71.0,grid,10.0,1005-0013,Mua Health Centre,faithbased,19417.0,hospital,not_available,more_than_16,not_available,Central,Central West,yes,yes,delivery,1.0,4.0,delivered
,HIDDEN,,GROUP_CENTRAL_WEST,GROUP_ADMIN,,H140,default,,,anonymous,2016-07-11T16:01:59.022000000,COMPLETE,new_row,,,-14.29347409,34.62860731,Dedza,temperate,CHARLSE NTAPANDULA,both,76.0,none,100.0,1005-0014,Kaundu Healthcentre,faithbased,19678.0,community_hospital,not_available,none,available,Central,Central West,yes,yes,delivery,1.0,4.0,delivered
,HIDDEN,,GROUP_CENTRAL_WEST,GROUP_ADMIN,,H141,default,,,anonymous,2016-07-11T16:01:59.023000000,COMPLETE,new_row,,,-14.42058273,34.5229955,Dedza,temperate,NAKUPETA ELISHA,both,37.0,none,100.0,1005-0015,Mganja  Health Centre,public,4692.0,community_hospital,not_available,none,available,Central,Central West,yes,yes,delivery,1.0,4.0,delivered
,HIDDEN,,GROUP_CENTRAL_WEST,GROUP_ADMIN,,H142,default,,,anonymous,2016-07-11T16:01:59.025000000,COMPLETE,new_row,,,-14.4128464,34.60074095,Dedza,temperate,RAWRANCE J.ZOMBEYA,both,45.0,grid,100.0,1005-0016,Golomoti Health Centre,public,25509.0,community_hospital,not_available,more_than_16,available,Central,Central West,yes,yes,delivery,1.0,4.0,delivered
,HIDDEN,,GROUP_CENTRAL_WEST,GROUP_ADMIN,,H143,default,,,anonymous,2016-07-11T16:01:59.027000000,COMPLETE,new_row,,,-14.35803142,34.42453071,Dedza,temperate,ZENASI PHILIP,both,17.0,grid,100.0,1005-0017,Bembeke Health Centre,faithbased,26172.0,community_hospital,not_available,more_than_16,not_available,Central,Central West,yes,yes,delivery,1.0,4.0,delivered
,HIDDEN,,GROUP_CENTRAL_WEST,GROUP_ADMIN,,H144,default,,,anonymous,2016-07-11T16:01:59.029000000,COMPLETE,new_row,,,-14.14301721,34.13137347,Dedza,temperate,JAPHET LEMTON,both,48.0,grid,100.0,1005-0018,Kasina Health Centre,faithbased,25189.0,community_hospital,not_available,more_than_16,not_available,Central,Central West,yes,yes,delivery,1.0,4.0,delivered
,HIDDEN,,GROUP_CENTRAL_WEST,GROUP_ADMIN,,H145,default,,,anonymous,2016-07-11T16:01:59.031000000,COMPLETE,new_row,,,-14.08101172,34.1613347,Dedza,temperate,PRECIOUS MANDALASI,both,45.0,none,100.0,1005-0019,Tsoyo Health Centre,public,19704.0,community_hospital,not_available,none,available,Central,Central West,yes,yes,delivery,1.0,4.0,delivered
,HIDDEN,,GROUP_CENTRAL_WEST,GROUP_ADMIN,,H146,default,,,anonymous,2016-07-11T16:01:59.033000000,COMPLETE,new_row,,,9.45e+15,-4.42e+17,Dedza,temperate,,both,20.0,none,100.0,1005-0020,Kalulu Health Centre,public,10206.0,community_hospital,not_available,none,not_available,Central,Central West,yes,yes,delivery,1.0,4.0,delivered
,HIDDEN,,GROUP_CENTRAL_WEST,GROUP_ADMIN,,H147,default,,,anonymous,2016-07-11T16:01:59.035000000,COMPLETE,new_row,,,-14.09699336,34.24319092,Dedza,temperate,JOSEPHY KUMIMBA,both,55.0,grid,100.0,1005-0021,Mayani Health Centre,public,26900.0,community_hospital,not_available,more_than_16,not_available,Central,Central West,yes,yes,delivery,1.0,4.0,delivered
,HIDDEN,,GROUP_CENTRAL_WEST,GROUP_ADMIN,,H148,default,,,anonymous,2016-07-11T16:01:59.040000000,COMPLETE,new_row,,,-41.07065456,34.5393797,Dedza,temperate,W.B MTOSO,both,70.0,none,100.0,1005-0022,Kalulu,public,10206.0,community_hospital,irregular,none,available,Central,Central West,no,yes,delivery,1.0,4.0,delivered
,HIDDEN,,GROUP_CENTRAL_WEST,GROUP_ADMIN,,H149,default,,,anonymous,2016-07-11T16:01:59.042000000,COMPLETE,new_row,,,-14.07637348,34.25879553,Dedza,temperate,MISS KACHERE,both,48.0,none,100.0,1005-0023,Chiphwaya Health Centre,faithbased,11511.0,community_hospital,unknown,none,available,Central,Central West,yes,yes,delivery,1.0,4.0,delivered
,HIDDEN,,GROUP_CENTRAL_WEST,GROUP_ADMIN,,H150,default,,,anonymous,2016-07-11T16:01:59.044000000,COMPLETE,new_row,,,-14.04439395,34.23875822,Dedza,temperate,L.TAMBALIKA,both,52.0,none,100.0,1005-0024,Mtini Health Centre,public,16923.0,community_hospital,not_available,none,available,Central,Central West,yes,yes,delivery,1.0,4.0,delivered
,HIDDEN,,GROUP_CENTRAL_WEST,GROUP_ADMIN,,H151,default,,,anonymous,2016-07-11T16:01:59.047000000,COMPLETE,new_row,,,-14.15977019,34.18908345,Dedza,temperate,CHARITY KALIMA,both,66.0,none,100.0,1005-0025,Kaphuka Health Centre,public,33385.0,community_hospital,not_available,none,available,Central,Central West,yes,yes,delivery,1.0,4.0,delivered
,HIDDEN,,GROUP_CENTRAL_WEST,GROUP_ADMIN,,H152,default,,,anonymous,2016-07-11T16:01:59.049000000,COMPLETE,new_row,,,-14.20010067,34.36009551,Dedza,temperate,FATIMA JAMES,both,25.0,none,100.0,1005-0026,Dzindevu Health Centre,public,27367.0,community_hospital,not_available,none,available,Central,Central West,yes,yes,delivery,1.0,4.0,delivered
,HIDDEN,,GROUP_CENTRAL_WEST,GROUP_ADMIN,,H153,default,,,anonymous,2016-07-11T16:01:59.051000000,COMPLETE,new_row,,,-14.15055106,34.3185853,Dedza,temperate,COSMAS AORON,both,34.0,none,100.0,1005-0027,Chikuse,public,26246.0,community_hospital,not_available,none,available,Central,Central West,yes,yes,delivery,1.0,4.0,delivered
,HIDDEN,,GROUP_CENTRAL_WEST,GROUP_ADMIN,,H154,default,,,anonymous,2016-07-11T16:01:59.016000000,COMPLETE,new_row,,,-14.23960973,34.32362323,Dedza,temperate,J. U JUMA,both,26.0,none,100.0,1005-0028,Kanyama Health Centre,faithbased,2561.0,community_hospital,not_available,none,available,Central,Central West,yes,yes,delivery,1.0,4.0,delivered
,HIDDEN,,GROUP_CENTRAL_WEST,GROUP_ADMIN,,H155,default,,,anonymous,2016-07-11T16:01:59.017000000,COMPLETE,new_row,,,-14.31996611,34.2667244,Dedza,temperate,S .K NJAZI,both,12.0,none,100.0,1005-0029,Chingoni,public,20534.0,community_hospital,not_available,none,available,Central,Central West,yes,yes,delivery,1.0,4.0,delivered
,HIDDEN,,GROUP_CENTRAL_WEST,GROUP_ADMIN,,H156,default,,,anonymous,2016-07-11T16:01:59.019000000,COMPLETE,new_row,,,-14.41313349,34.27279523,Dedza,temperate,A. MPHANDE,both,12.0,none,100.0,1005-0030,Mlangali Health Centre,public,16369.0,community_hospital,not_available,none,available,Central,Central West,yes,yes,delivery,1.0,4.0,delivered
,HIDDEN,,GROUP_CENTRAL_WEST,GROUP_ADMIN,,H157,default,,,anonymous,2016-07-11T16:01:59.022000000,COMPLETE,new_row,,,-14.37857393,34.17504147,Dedza,temperate,F.S DROBENI,both,27.0,none,100.0,1005-0031,Mphunzi Health,faithbased,17932.0,community_hospital,not_available,none,available,Central,Central West,yes,yes,delivery,1.0,4.0,delivered
,HIDDEN,,GROUP_CENTRAL_WEST,GROUP_ADMIN,,H158,default,,,anonymous,2016-07-11T16:01:59.023000000,COMPLETE,new_row,,,-14.32209,34.09401071,Dedza,temperate,FLETCHER TEMBO,both,31.0,grid,10.0,1005-0032,Mtendere Health Centre,faithbased,59536.0,hospital,not_available,more_than_16,not_available,Central,Central West,no,yes,delivery,1.0,2.0,delivered
,HIDDEN,,GROUP_CENTRAL_WEST,GROUP_ADMIN,,H159,default,,,anonymous,2016-07-11T16:01:59.025000000,COMPLETE,new_row,,,-14.38577766,34.3353947,Dedza,temperate,J. A. LANJENI,none,20.0,grid,100.0,1005-0033,Dedza Health Centre,public,671137.0,regional_vaccine_store,not_available,more_than_16,not_available,Central,Central West,yes,yes,depot,1.0,4.0,delivered
,HIDDEN,,GROUP_CENTRAL_WEST,GROUP_ADMIN,,H160,default,,,anonymous,2016-07-11T16:01:59.027000000,COMPLETE,new_row,,,-14.38577766,34.3353947,Dedza,temperate,J .A. LANJENI,both,110.0,grid,10.0,1005-0034,Dedza Health Centre,public,31384.0,central_hospital,unknown,more_than_16,not_available,Central,Central West,yes,yes,delivery,1.0,4.0,delivered
,HIDDEN,,GROUP_CENTRAL_WEST,GROUP_ADMIN,,H161,default,,,anonymous,2016-07-11T16:01:59.029000000,COMPLETE,new_row,,,-13.98982914,33.77411298,Lilongwe,temperate,LLOYD MSOSA,none,3.0,grid,100.0,1006-0000,Lilongwe Dho,public,2105030.0,regional_vaccine_store,not_available,more_than_16,available,Central,Central West,yes,yes,depot,1.0,4.0,collected
,HIDDEN,,GROUP_CENTRAL_WEST,GROUP_ADMIN,,H162,default,,,anonymous,2016-07-11T16:01:59.031000000,COMPLETE,new_row,,,-13.98896869,33.77459156,Lilongwe,temperate,JEAN KAMWENDO,static,0.5,grid,10.0,1006-0001,Bwaila Rural Hospital,public,124800.0,district_hospital,not_available,more_than_16,not_available,Central,Central West,yes,yes,delivery,1.0,4.0,collected
,HIDDEN,,GROUP_CENTRAL_WEST,GROUP_ADMIN,,H163,default,,,anonymous,2016-07-11T16:01:59.033000000,COMPLETE,new_row,,,-13.98929402,33.79698054,Lilongwe,temperate,HELLEN LONJE,both,3.0,grid,100.0,1006-0002,Kawale Health Centre,public,246838.0,community_hospital,not_available,more_than_16,not_available,Central,Central West,yes,yes,delivery,1.0,4.0,collected
,HIDDEN,,GROUP_CENTRAL_WEST,GROUP_ADMIN,,H164,default,,,anonymous,2016-07-11T16:01:59.035000000,COMPLETE,new_row,,,-13.97907157,33.82046167,Lilongwe,temperate,EM CHAUMA,static,20.0,grid,100.0,1006-0003,Kamuzu Barracks,public,5214.0,community_hospital,not_available,more_than_16,not_available,Central,Central West,yes,yes,delivery,1.0,4.0,collected
,HIDDEN,,GROUP_CENTRAL_WEST,GROUP_ADMIN,,H165,default,,,anonymous,2016-07-11T16:01:59.040000000,COMPLETE,new_row,,,-13.86746633,33.84968976,Lilongwe,temperate,BENALITA KAPUSA,static,13.0,grid,100.0,1006-0004,New State House,public,9000.0,community_hospital,not_available,more_than_16,not_available,Central,Central West,yes,yes,delivery,1.0,4.0,collected
,HIDDEN,,GROUP_CENTRAL_WEST,GROUP_ADMIN,,H166,default,,,anonymous,2016-07-11T16:01:59.042000000,COMPLETE,new_row,,,-13.97522307,33.88153331,Lilongwe,temperate,GIBSON BANDA,both,30.0,grid,100.0,1006-0005,Kangoma Health Centre,public,20582.0,community_hospital,not_available,more_than_16,not_available,Central,Central West,yes,yes,delivery,1.0,4.0,collected
,HIDDEN,,GROUP_CENTRAL_WEST,GROUP_ADMIN,,H167,default,,,anonymous,2016-07-11T16:01:59.044000000,COMPLETE,new_row,,,-14.00489614,33.81690504,Lilongwe,temperate,CHIFUNDO BINALI,static,5.0,grid,100.0,1006-0006,Muloza Seventh Day Adventist,faithbased,17000.0,community_hospital,irregular,more_than_16,not_available,Central,Central West,yes,yes,delivery,1.0,4.0,collected
,HIDDEN,,GROUP_CENTRAL_WEST,GROUP_ADMIN,,H168,default,,,anonymous,2016-07-11T16:01:59.047000000,COMPLETE,new_row,,,-14.00459779,33.82491336,Lilongwe,temperate,CHARITY F. SALIMA,static,7.0,grid,100.0,1006-0007,Achikondi Women Community Drindly Services,private,25000.0,community_hospital,not_available,fewer_than_4,not_available,Central,Central West,yes,no,delivery,1.0,4.0,collected
,HIDDEN,,GROUP_CENTRAL_WEST,GROUP_ADMIN,,H169,default,,,anonymous,2016-07-11T16:01:59.049000000,COMPLETE,new_row,,,-14.0241616,33.70821109,Lilongwe,temperate,LUCY KALIPENI,static,7.0,grid,10.0,1006-0008,Likuni Hospital,faithbased,52695.0,rural_hospital,not_available,more_than_16,not_available,Central,Central West,yes,yes,delivery,1.0,4.0,collected
,HIDDEN,,GROUP_CENTRAL_WEST,GROUP_ADMIN,,H170,default,,,anonymous,2016-07-11T16:01:59.051000000,COMPLETE,new_row,,,-14.00984184,33.70450029,Lilongwe,temperate,E MATABWA,static,2.0,grid,100.0,1006-0009,Nkhalango Private Clinic,private,3235.0,community_hospital,not_available,fewer_than_4,not_available,Central,Central West,yes,yes,delivery,1.0,4.0,collected
,HIDDEN,,GROUP_CENTRAL_WEST,GROUP_ADMIN,,H171,default,,,anonymous,2016-07-11T16:01:59.016000000,COMPLETE,new_row,,,-13.93859223,33.77975523,Lilongwe,temperate,BANDAWE D MALENDO,both,8.0,grid,100.0,1006-0010,Area 18 Health Centre,public,180870.0,community_hospital,not_available,more_than_16,not_available,Central,Central West,yes,yes,delivery,1.0,4.0,collected
,HIDDEN,,GROUP_CENTRAL_WEST,GROUP_ADMIN,,H172,default,,,anonymous,2016-07-11T16:01:59.017000000,COMPLETE,new_row,,,-13.92510034,33.7832829,Lilongwe,temperate,M. CHIGUMULA,static,10.0,grid,100.0,1006-0011,Area 30 Police Dispensary,public,3500.0,health_center,not_available,more_than_16,not_available,Central,Central West,yes,yes,delivery,1.0,4.0,collected
,HIDDEN,,GROUP_CENTRAL_WEST,GROUP_ADMIN,,H173,default,,,anonymous,2016-07-11T16:01:59.019000000,COMPLETE,new_row,,,-13.88971817,33.77302978,Lilongwe,temperate,HETIMULIA A SAIDI,both,26.0,grid,100.0,1006-0012,Area 25 Health Centre,public,22345.0,community_hospital,not_available,more_than_16,not_available,Central,Central West,yes,yes,delivery,1.0,4.0,collected
,HIDDEN,,GROUP_CENTRAL_WEST,GROUP_ADMIN,,H174,default,,,anonymous,2016-07-11T16:01:59.022000000,COMPLETE,new_row,,,-13.85436903,33.92843363,Lilongwe,temperate,MALISEN KAFUNDU,both,41.0,none,100.0,1006-0013,Chiwamba Health Centre,public,70000.0,community_hospital,not_available,none,available,Central,Central West,yes,yes,delivery,1.0,4.0,collected
,HIDDEN,,GROUP_CENTRAL_WEST,GROUP_ADMIN,,H175,default,,,anonymous,2016-07-11T16:01:59.023000000,COMPLETE,new_row,,,-13.76802072,33.8041987,Lilongwe,temperate,FRACKSON BANDA,both,35.0,grid,100.0,1006-0014,Lumbadzi Health Centre,public,77137.0,community_hospital,not_available,more_than_16,not_available,Central,Central West,yes,yes,delivery,1.0,4.0,collected
,HIDDEN,,GROUP_CENTRAL_WEST,GROUP_ADMIN,,H176,default,,,anonymous,2016-07-11T16:01:59.025000000,COMPLETE,new_row,,,-13.7338705,33.71330537,Lilongwe,temperate,MADALITSO CHADEWA,both,60.0,none,100.0,1006-0015,Mbangombe,public,15427.0,community_hospital,not_available,none,not_available,Central,Central West,yes,yes,delivery,1.0,4.0,collected
,HIDDEN,,GROUP_CENTRAL_WEST,GROUP_ADMIN,,H177,default,,,anonymous,2016-07-11T16:01:59.027000000,COMPLETE,new_row,,,-13.72145988,33.55723628,Lilongwe,temperate,ITUPATRICK KAMZ,both,21.0,none,10.0,1006-0016,Nambuma Parish,faithbased,8130.0,hospital,not_available,none,available,Central,Central West,yes,yes,delivery,1.0,4.0,collected
,HIDDEN,,GROUP_CENTRAL_WEST,GROUP_ADMIN,,H178,default,,,anonymous,2016-07-11T16:01:59.029000000,COMPLETE,new_row,,,-13.77236434,33.63945542,Lilongwe,temperate,WILLY E. NKHOSA,both,50.0,none,100.0,1006-0017,Ngoni Health Centre,public,33039.0,community_hospital,not_available,none,available,Central,Central West,yes,yes,delivery,1.0,4.0,collected
,HIDDEN,,GROUP_CENTRAL_WEST,GROUP_ADMIN,,H179,default,,,anonymous,2016-07-11T16:01:59.031000000,COMPLETE,new_row,,,-13.82295989,33.60068636,Lilongwe,temperate,REX DUDU,both,28.0,none,100.0,1006-0018,Ukwe Health Centre,public,33672.0,community_hospital,not_available,none,available,Central,Central West,yes,yes,delivery,1.0,4.0,collected
,HIDDEN,,GROUP_CENTRAL_WEST,GROUP_ADMIN,,H180,default,,,anonymous,2016-07-11T16:01:59.033000000,COMPLETE,new_row,,,-13.79272637,33.53734781,Lilongwe,temperate,BM MANGANI,both,13.0,none,100.0,1006-0019,Nsanama Health Post,public,33672.0,dispensary,not_available,none,irregular,Central,Central West,yes,yes,delivery,1.0,4.0,collected
,HIDDEN,,GROUP_CENTRAL_WEST,GROUP_ADMIN,,H181,default,,,anonymous,2016-07-11T16:01:59.035000000,COMPLETE,new_row,,,-13.88276389,33.50354228,Lilongwe,temperate,HASTINGS ACTONSO,both,9.2,grid,100.0,1006-0020,Nsalu,public,49709.0,community_hospital,not_available,more_than_16,not_available,Central,Central West,yes,yes,delivery,1.0,4.0,collected
,HIDDEN,,GROUP_CENTRAL_WEST,GROUP_ADMIN,,H182,default,,,anonymous,2016-07-11T16:01:59.040000000,COMPLETE,new_row,,,-13.81669511,33.44772788,Lilongwe,temperate,KAWECHE TJ MATIKITI,both,30.0,grid,10.0,1006-0021,Kabudula Community Hospital,public,33831.0,district_hospital,not_available,more_than_16,not_available,Central,Central West,yes,yes,delivery,1.0,4.0,collected
,HIDDEN,,GROUP_CENTRAL_WEST,GROUP_ADMIN,,H183,default,,,anonymous,2016-07-11T16:01:59.042000000,COMPLETE,new_row,,,-13.925338,33.67022597,Lilongwe,temperate,MARY NUMDWE,both,15.0,grid,100.0,1006-0022,Mbabvi Health Centre,public,32252.0,community_hospital,not_available,more_than_16,not_available,Central,Central West,no,yes,delivery,1.0,4.0,collected
,HIDDEN,,GROUP_CENTRAL_WEST,GROUP_ADMIN,,H184,default,,,anonymous,2016-07-11T16:01:59.044000000,COMPLETE,new_row,,,-13.87355402,33.74625909,Lilongwe,temperate,EDITH LOWE,both,10.0,grid,100.0,1006-0023,Dzenza Health Centre,faithbased,26447.0,community_hospital,not_available,more_than_16,not_available,Central,Central West,yes,yes,delivery,1.0,4.0,collected
,HIDDEN,,GROUP_CENTRAL_WEST,GROUP_ADMIN,,H185,default,,,anonymous,2016-07-11T16:01:59.047000000,COMPLETE,new_row,,,-13.87354658,33.80833659,Lilongwe,temperate,M. KANSONGO,both,6.0,grid,10.0,1006-0024,Daeyang Luke Hospital,faithbased,40050.0,rural_hospital,not_available,more_than_16,not_available,Central,Central West,yes,yes,delivery,1.0,4.0,collected
,HIDDEN,,GROUP_CENTRAL_WEST,GROUP_ADMIN,,H186,default,,,anonymous,2016-07-11T16:01:59.049000000,COMPLETE,new_row,,,-13.98648779,33.77003721,Lilongwe,temperate,OLIVE KWAPATA,none,3.0,grid,100.0,1006-0025,Lilongwe City Clinic,other,783388.0,health_center,not_available,more_than_16,not_available,Central,Central West,yes,yes,delivery,1.0,4.0,collected
,HIDDEN,,GROUP_CENTRAL_WEST,GROUP_ADMIN,,H187,default,,,anonymous,2016-07-11T16:01:59.051000000,COMPLETE,new_row,,,-14.0169856,33.79197378,Lilongwe,temperate,WL CHAWEZA,static,3.0,grid,100.0,1006-0026,Sos Clinic,faithbased,692.0,community_hospital,not_available,more_than_16,not_available,Central,Central West,yes,yes,delivery,1.0,4.0,collected
,HIDDEN,,GROUP_CENTRAL_WEST,GROUP_ADMIN,,H188,default,,,anonymous,2016-07-11T16:01:59.016000000,COMPLETE,new_row,,,-14.13161473,34.08084784,Lilongwe,temperate,MM PEZEMMAWA,both,20.0,grid,100.0,1006-0027,Diamphwe Health Centre,public,15310.0,community_hospital,not_available,more_than_16,not_available,Central,Central West,yes,yes,delivery,1.0,4.0,collected
,HIDDEN,,GROUP_CENTRAL_WEST,GROUP_ADMIN,,H189,default,,,anonymous,2016-07-11T16:01:59.017000000,COMPLETE,new_row,,,-14.10613401,34.00466029,Lilongwe,temperate,FK MBUNA,both,16.0,grid,100.0,1006-0028,Mtenthera Health Centre,public,52699.0,community_hospital,not_available,more_than_16,not_available,Central,Central West,yes,yes,delivery,1.0,4.0,collected
,HIDDEN,,GROUP_CENTRAL_WEST,GROUP_ADMIN,,H190,default,,,anonymous,2016-07-11T16:01:59.019000000,COMPLETE,new_row,,,-13.96597241,34.09536395,Lilongwe,temperate,AARON JACKSON,both,35.0,grid,100.0,1006-0029,Chitekwere Health Post,public,9180.0,dispensary,not_available,more_than_16,not_available,Central,Central West,yes,yes,delivery,1.0,4.0,collected
,HIDDEN,,GROUP_CENTRAL_WEST,GROUP_ADMIN,,H191,default,,,anonymous,2016-07-11T16:01:59.022000000,COMPLETE,new_row,,,-13.9336605,34.12335852,Lilongwe,temperate,MCDONALD KATSATENI,both,41.0,none,100.0,1006-0030,Chimbalanga Health Centre,public,24477.0,community_hospital,not_available,none,irregular,Central,Central West,yes,yes,delivery,1.0,4.0,collected
,HIDDEN,,GROUP_CENTRAL_WEST,GROUP_ADMIN,,H192,default,,,anonymous,2016-07-11T16:01:59.023000000,COMPLETE,new_row,,,-14.04113744,34.10285977,Lilongwe,temperate,BEATRICE KABOTA,both,32.0,grid,10.0,1006-0031,Nkhoma Ccap Hospital,faithbased,52390.0,rural_hospital,not_available,more_than_16,not_available,Central,Central West,yes,yes,delivery,1.0,4.0,collected
,HIDDEN,,GROUP_CENTRAL_WEST,GROUP_ADMIN,,H193,default,,,anonymous,2016-07-11T16:01:59.025000000,COMPLETE,new_row,,,-14.00841891,33.97439175,Lilongwe,temperate,NYADANI MWALE,both,18.0,grid,100.0,1006-0032,Matapila Health Centre,public,25367.0,community_hospital,not_available,more_than_16,not_available,Central,Central West,yes,yes,delivery,1.0,4.0,collected
,HIDDEN,,GROUP_CENTRAL_WEST,GROUP_ADMIN,,H194,default,,,anonymous,2016-07-11T16:01:59.027000000,COMPLETE,new_row,,,-14.0822452,33.90740448,Lilongwe,temperate,TIMOTHY SYMON,both,15.0,grid,100.0,1006-0033,Nanthenje Health Centre,public,58705.0,community_hospital,not_available,more_than_16,not_available,Central,Central West,yes,yes,delivery,1.0,4.0,collected
,HIDDEN,,GROUP_CENTRAL_WEST,GROUP_ADMIN,,H195,default,,,anonymous,2016-07-11T16:01:59.029000000,COMPLETE,new_row,,,-14.14468871,33.84087007,Lilongwe,temperate,FRAZER MANDWE,both,15.0,none,100.0,1006-0034,Chanza Health Centre,public,44646.0,community_hospital,not_available,none,available,Central,Central West,yes,yes,delivery,1.0,4.0,collected
,HIDDEN,,GROUP_CENTRAL_WEST,GROUP_ADMIN,,H196,default,,,anonymous,2016-07-11T16:01:59.031000000,COMPLETE,new_row,,,-14.26020774,33.87291538,Lilongwe,temperate,CATHERINE MWAIPINGA,both,19.0,none,100.0,1006-0035,Maluwa Health Centre,public,22039.0,community_hospital,not_available,none,irregular,Central,Central West,no,yes,delivery,1.0,4.0,collected
,HIDDEN,,GROUP_CENTRAL_WEST,GROUP_ADMIN,,H197,default,,,anonymous,2016-07-11T16:01:59.033000000,COMPLETE,new_row,,,-14.28092832,33.9070733,Lilongwe,temperate,FS MASINA,both,21.0,none,100.0,1006-0036,Kachale Health Centre,public,19835.0,community_hospital,not_available,none,irregular,Central,Central West,yes,yes,delivery,1.0,4.0,collected
,HIDDEN,,GROUP_CENTRAL_WEST,GROUP_ADMIN,,H198,default,,,anonymous,2016-07-11T16:01:59.035000000,COMPLETE,new_row,,,-14.17767624,33.7747182,Lilongwe,temperate,ROSE SHONGA,both,6.0,grid,100.0,1006-0037,Bunda College Health Centre,public,4632.0,community_hospital,not_available,more_than_16,not_available,Central,Central West,yes,yes,delivery,1.0,4.0,collected
,HIDDEN,,GROUP_CENTRAL_WEST,GROUP_ADMIN,,H199,default,,,anonymous,2016-07-11T16:01:59.040000000,COMPLETE,new_row,,,-14.17485147,33.74747473,Lilongwe,temperate,THKOZANI JULIAS,both,15.0,none,100.0,1006-0038,Mkwinda Health Post,public,27314.0,dispensary,not_available,none,irregular,Central,Central West,yes,yes,delivery,1.0,4.0,collected
,HIDDEN,,GROUP_CENTRAL_WEST,GROUP_ADMIN,,H200,default,,,anonymous,2016-07-11T16:01:59.042000000,COMPLETE,new_row,,,-14.22744643,33.75530311,Lilongwe,temperate,JOYLET ZULU,both,6.0,grid,10.0,1006-0039,Mlale Rural Hospital,faithbased,44247.0,rural_hospital,not_available,more_than_16,not_available,Central,Central West,yes,yes,delivery,1.0,4.0,collected
,HIDDEN,,GROUP_CENTRAL_WEST,GROUP_ADMIN,,H201,default,,,anonymous,2016-07-11T16:01:59.044000000,COMPLETE,new_row,,,-14.24570475,33.7737262,Lilongwe,temperate,JOHN K. KAMPULAZI,both,36.0,grid,10.0,1006-0040,Mitundu Rural Hospital,public,112399.0,district_hospital,not_available,more_than_16,unknown,Central,Central West,yes,yes,delivery,1.0,4.0,collected
,HIDDEN,,GROUP_CENTRAL_WEST,GROUP_ADMIN,,H202,default,,,anonymous,2016-07-11T16:01:59.047000000,COMPLETE,new_row,,,-14.35160197,33.71034151,Lilongwe,temperate,JACKSON MSONTHE,both,10.0,none,100.0,1006-0041,Kambanizinthe Health Post,public,13000.0,dispensary,not_available,none,not_available,Central,Central West,yes,yes,delivery,1.0,4.0,collected
,HIDDEN,,GROUP_CENTRAL_WEST,GROUP_ADMIN,,H203,default,,,anonymous,2016-07-11T16:01:59.049000000,COMPLETE,new_row,,,-14.40284409,33.66790868,Lilongwe,temperate,BM MAMTO,both,31.0,none,100.0,1006-0042,Chiunjiza Health Centre,public,35263.0,community_hospital,not_available,none,irregular,Central,Central West,yes,yes,delivery,1.0,4.0,collected
,HIDDEN,,GROUP_CENTRAL_WEST,GROUP_ADMIN,,H204,default,,,anonymous,2016-07-11T16:01:59.051000000,COMPLETE,new_row,,,-14.26373634,33.65807855,Lilongwe,temperate,REK MTSOTSOLO,both,17.0,grid,100.0,1006-0043,Dickson Health Centre,public,40000.0,community_hospital,irregular,fewer_than_4,not_available,Central,Central West,yes,yes,delivery,1.0,4.0,collected
,HIDDEN,,GROUP_CENTRAL_WEST,GROUP_ADMIN,,H205,default,,,anonymous,2016-07-11T16:01:59.016000000,COMPLETE,new_row,,,-14.1658983,33.63876294,Lilongwe,temperate,JAMES CHADZA,both,30.0,grid,100.0,1006-0044,Mikolongwe Health Centre,faithbased,67125.0,community_hospital,not_available,fewer_than_4,not_available,Central,Central West,yes,yes,delivery,1.0,4.0,collected
,HIDDEN,,GROUP_CENTRAL_WEST,GROUP_ADMIN,,H206,default,,,anonymous,2016-07-11T16:01:59.017000000,COMPLETE,new_row,,,-13.68352186,33.505973,Lilongwe,temperate,MAYAMIKO CHIKOTI,both,22.0,none,100.0,1006-0045,Ndaula,public,31867.0,community_hospital,not_available,none,irregular,Central,Central West,yes,yes,delivery,1.0,4.0,collected
,HIDDEN,,GROUP_CENTRAL_WEST,GROUP_ADMIN,,H207,default,,,anonymous,2016-07-11T16:01:59.019000000,COMPLETE,new_row,,,-14.16685686,33.37853606,Lilongwe,temperate,PAUL CHIBAKUWA,both,22.0,none,100.0,1006-0046,Mbang'Ombe 2,public,19835.0,community_hospital,not_available,none,available,Central,Central West,yes,yes,delivery,1.0,4.0,collected
,HIDDEN,,GROUP_CENTRAL_WEST,GROUP_ADMIN,,H208,default,,,anonymous,2016-07-11T16:01:59.022000000,COMPLETE,new_row,,,-14.07204477,33.44751652,Lilongwe,temperate,,both,10.0,none,100.0,1006-0047,Ming'Ongo,public,23415.0,community_hospital,not_available,none,available,Central,Central West,yes,yes,delivery,1.0,4.0,collected
,HIDDEN,,GROUP_CENTRAL_WEST,GROUP_ADMIN,,H209,default,,,anonymous,2016-07-11T16:01:59.023000000,COMPLETE,new_row,,,-14.02898758,33.44781259,Lilongwe,temperate,JASSON PHILLIP,static,7.0,none,100.0,1006-0048,Nthondo,public,38912.0,community_hospital,not_available,none,not_available,Central,Central West,yes,yes,delivery,1.0,4.0,collected
,HIDDEN,,GROUP_CENTRAL_WEST,GROUP_ADMIN,,H210,default,,,anonymous,2016-07-11T16:01:59.025000000,COMPLETE,new_row,,,-13.98155154,33.35065745,Lilongwe,temperate,DENIS KAMWANI,both,15.0,grid,10.0,1006-0049,Gabriel Mission Hospital,faithbased,15427.0,rural_hospital,not_available,more_than_16,not_available,Central,Central West,yes,yes,delivery,1.0,4.0,delivered
,HIDDEN,,GROUP_CENTRAL_WEST,GROUP_ADMIN,,H211,default,,,anonymous,2016-07-11T16:01:59.027000000,COMPLETE,new_row,,,-14.01820987,33.38463465,Lilongwe,temperate,TINA MALAKA,both,52.0,grid,100.0,1006-0050,Chileka,public,31690.0,community_hospital,not_available,more_than_16,not_available,Central,Central West,yes,no,delivery,1.0,4.0,collected
,HIDDEN,,GROUP_CENTRAL_WEST,GROUP_ADMIN,,H212,default,,,anonymous,2016-07-11T16:01:59.029000000,COMPLETE,new_row,,,-14.0009376,33.5501065,Lilongwe,temperate,BRIGHTON KHAWENI,both,12.0,none,100.0,1006-0051,Mbwatalika,faithbased,15149.0,community_hospital,not_available,none,available,Central,Central West,yes,yes,delivery,1.0,4.0,collected
,HIDDEN,,GROUP_CENTRAL_WEST,GROUP_ADMIN,,H213,default,,,anonymous,2016-07-11T16:01:59.031000000,COMPLETE,new_row,,,-13.97427587,33.64486018,Lilongwe,temperate,KEZIA KALIMA,both,24.0,grid,100.0,1006-0052,Chitedze,public,51200.0,community_hospital,not_available,more_than_16,not_available,Central,Central West,yes,yes,delivery,1.0,4.0,collected
,HIDDEN,,GROUP_CENTRAL_WEST,GROUP_ADMIN,,H214,default,,,anonymous,2016-07-11T16:01:59.033000000,COMPLETE,new_row,,,-13.88274126,33.29632821,Lilongwe,temperate,CHECKSFORD MOSES,both,19.0,none,100.0,1006-0053,Lemwe,public,19393.0,community_hospital,not_available,none,available,Central,Central West,yes,yes,delivery,1.0,4.0,collected
,HIDDEN,,GROUP_CENTRAL_WEST,GROUP_ADMIN,,H215,default,,,anonymous,2016-07-11T16:01:59.035000000,COMPLETE,new_row,,,-13.85201023,33.37368982,Lilongwe,temperate,INESS KACHINGWALI,both,11.0,none,100.0,1006-0054,Chilobwe,public,9300.0,community_hospital,not_available,none,not_available,Central,Central West,yes,yes,delivery,1.0,4.0,collected
,HIDDEN,,GROUP_CENTRAL_WEST,GROUP_ADMIN,,H216,default,,,anonymous,2016-07-11T16:01:59.040000000,COMPLETE,new_row,,,-13.77189958,33.36691085,Lilongwe,temperate,CHARLES MKWAMBA,both,9.0,none,100.0,1006-0055,Khongoni,public,25800.0,community_hospital,not_available,none,available,Central,Central West,yes,yes,delivery,1.0,4.0,collected
,HIDDEN,,GROUP_CENTRAL_WEST,GROUP_ADMIN,,H217,default,,,anonymous,2016-07-11T16:01:59.042000000,COMPLETE,new_row,,,-13.61739667,33.41383816,Lilongwe,temperate,BICKSON NKHATA,both,27.0,none,100.0,1006-0056,Malembo,public,25033.0,community_hospital,not_available,none,available,Central,Central West,yes,yes,delivery,1.0,4.0,collected
,HIDDEN,,GROUP_CENTRAL_WEST,GROUP_ADMIN,,H218,default,,,anonymous,2016-07-11T16:01:59.044000000,COMPLETE,new_row,,,-13.72674636,33.45745312,Lilongwe,temperate,N.P. KAMLOTA,both,13.0,none,100.0,1006-0057,Chikowa,public,57302.0,community_hospital,not_available,none,irregular,Central,Central West,yes,yes,delivery,1.0,4.0,collected
,HIDDEN,,GROUP_CENTRAL_WEST,GROUP_ADMIN,,H219,default,,,anonymous,2016-07-11T16:01:59.047000000,COMPLETE,new_row,,,-13.90485898,33.39737743,Lilongwe,temperate,BONNY SANDKIM,both,13.0,none,100.0,1006-0058,Chiwe,faithbased,13392.0,community_hospital,not_available,none,irregular,Central,Central West,yes,yes,delivery,1.0,4.0,collected
,HIDDEN,,GROUP_CENTRAL_WEST,GROUP_ADMIN,,H220,default,,,anonymous,2016-07-11T16:01:59.049000000,COMPLETE,new_row,,,-14.04856339,33.79293424,Lilongwe,temperate,MCKINGLEY KAPULULA,both,11.0,grid,100.0,1006-0059,Chimwala Clinic,faithbased,30601.0,community_hospital,not_available,more_than_16,not_available,Central,Central West,yes,yes,delivery,1.0,4.0,collected
,HIDDEN,,GROUP_CENTRAL_WEST,GROUP_ADMIN,,H221,default,,,anonymous,2016-07-11T16:01:59.051000000,COMPLETE,new_row,,,-13.96585682,33.74053755,Lilongwe,temperate,ALICE CHIPHWANYA,both,7.0,grid,10.0,1006-0060,African Bible College,faithbased,6840.0,rural_hospital,not_available,more_than_16,not_available,Central,Central West,yes,yes,delivery,1.0,4.0,collected
,HIDDEN,,GROUP_CENTRAL_WEST,GROUP_ADMIN,,H222,default,,,anonymous,2016-07-11T16:01:59.016000000,COMPLETE,new_row,,,-13.97890109,33.78728824,Lilongwe,temperate,NELSON KADAMMANJA,static,4.0,grid,100.0,1006-0061,Dr David Livingstone Memorial Private Clinic,private,3200.0,community_hospital,not_available,more_than_16,not_available,Central,Central West,yes,yes,delivery,1.0,4.0,collected
,HIDDEN,,GROUP_CENTRAL_WEST,GROUP_ADMIN,,H223,default,,,anonymous,2016-07-11T16:01:59.017000000,COMPLETE,new_row,,,-13.9741,33.78455,Lilongwe,temperate,A.O. KANGULU,static,4.0,grid,10.0,1006-0062,Kamuzu Central Hospital,public,42000.0,district_vaccine_store,not_available,more_than_16,not_available,Central,Central West,yes,no,delivery,1.0,4.0,collected
,HIDDEN,,GROUP_CENTRAL_WEST,GROUP_ADMIN,,H224,default,,,anonymous,2016-07-11T16:01:59.019000000,COMPLETE,new_row,,,-13.99345387,33.75718104,Lilongwe,temperate,D. MWANZA,none,0.0,grid,100.0,1006-0063,National Vaccine Store,public,14205245.0,national_vaccine_store,unknown,more_than_16,unknown,Central,Central West,yes,yes,depot,8.0,24.0,delivered
,HIDDEN,,GROUP_CENTRAL_WEST,GROUP_ADMIN,,H225,default,,,anonymous,2016-07-11T16:01:59.022000000,COMPLETE,new_row,,,-13.99345387,33.75718104,Lilongwe,temperate,ECN SOKO,none,0.0,grid,100.0,1006-0064,Central Regional Vaccine Store,public,6014324.0,national_vaccine_store,unknown,more_than_16,not_available,Central,Central West,yes,yes,depot,1.0,4.0,collected
,HIDDEN,,GROUP_CENTRAL_WEST,GROUP_ADMIN,,H226,default,,,anonymous,2016-07-11T16:01:59.023000000,COMPLETE,new_row,,,-13.6241232,32.92765616,Mchinji,temperate,S. M. KUWANI,both,23.0,none,100.0,1007-0000,Kaigwazanga Health Centre,public,23543.0,community_hospital,unknown,none,available,Central,Central West,yes,yes,delivery,1.0,4.0,delivered
,HIDDEN,,GROUP_CENTRAL_WEST,GROUP_ADMIN,,H227,default,,,anonymous,2016-07-11T16:01:59.025000000,COMPLETE,new_row,,,-13.75249705,33.25873756,Mchinji,temperate,F . NTHANI,both,12.0,none,100.0,1007-0001,Mphanga Health Post,public,4673.0,dispensary,unknown,none,available,Central,Central West,yes,yes,delivery,1.0,4.0,collected
,HIDDEN,,GROUP_CENTRAL_WEST,GROUP_ADMIN,,H228,default,,,anonymous,2016-07-11T16:01:59.027000000,COMPLETE,new_row,,,-13.70626682,33.25671699,Mchinji,temperate,T. KACHERE,both,14.0,none,100.0,1007-0002,Kazila Health Post,public,8910.0,dispensary,irregular,none,not_available,Central,Central West,yes,yes,delivery,1.0,4.0,delivered
,HIDDEN,,GROUP_CENTRAL_WEST,GROUP_ADMIN,,H229,default,,,anonymous,2016-07-11T16:01:59.029000000,COMPLETE,new_row,,,-13.70521351,33.13743085,Mchinji,temperate,C. K. NG'OMA,both,47.0,none,100.0,1007-0003,Mikundi Health Centre,public,51636.0,community_hospital,not_available,none,available,Central,Central West,yes,yes,delivery,1.0,4.0,delivered
,HIDDEN,,GROUP_CENTRAL_WEST,GROUP_ADMIN,,H230,default,,,anonymous,2016-07-11T16:01:59.031000000,COMPLETE,new_row,,,-13.41855881,33.1106443,Mchinji,temperate,A. S. K. MOYONSANA,both,71.0,none,100.0,1007-0004,Gumba Dispensary,public,12680.0,health_center,unknown,none,available,Central,Central West,yes,yes,delivery,1.0,4.0,delivered
,HIDDEN,,GROUP_CENTRAL_WEST,GROUP_ADMIN,,H231,default,,,anonymous,2016-07-11T16:01:59.033000000,COMPLETE,new_row,,,-13.54718248,33.02512041,Mchinji,temperate,S. KAOMBE,both,25.0,none,100.0,1007-0005,Peter Health Post,public,1445.0,dispensary,not_available,none,available,Central,Central West,yes,yes,delivery,1.0,4.0,collected
,HIDDEN,,GROUP_CENTRAL_WEST,GROUP_ADMIN,,H232,default,,,anonymous,2016-07-11T16:01:59.035000000,COMPLETE,new_row,,,-13.57278122,32.86320031,Mchinji,temperate,M. MANKHWAZI,both,36.0,none,100.0,1007-0006,Kazyozyo Dispensary,public,15233.0,health_center,not_available,none,available,Central,Central West,yes,yes,delivery,1.0,4.0,delivered
,HIDDEN,,GROUP_CENTRAL_WEST,GROUP_ADMIN,,H233,default,,,anonymous,2016-07-11T16:01:59.040000000,COMPLETE,new_row,,,-13.80008691,32.88632867,Mchinji,temperate,P.Y.T. MWALWANDA,none,110.0,grid,100.0,1007-0007,Mchinji District Vaccine Store,public,506194.0,regional_vaccine_store,not_available,more_than_16,available,Central,Central West,yes,yes,depot,1.0,4.0,collected
,HIDDEN,,GROUP_CENTRAL_WEST,GROUP_ADMIN,,H234,default,,,anonymous,2016-07-11T16:01:59.042000000,COMPLETE,new_row,,,-13.92093766,33.22583066,Mchinji,temperate,M. NAMKUMBA,both,45.0,none,100.0,1007-0008,Nkhwazi Health Centre,public,45040.0,community_hospital,not_available,none,available,Central,Central West,yes,yes,delivery,1.0,4.0,delivered
,HIDDEN,,GROUP_CENTRAL_WEST,GROUP_ADMIN,,H235,default,,,anonymous,2016-07-11T16:01:59.044000000,COMPLETE,new_row,,,-13.80008691,32.88632867,Mchinji,temperate,L. PHIRI,both,0.2,grid,10.0,1007-0009,Mchinji District Hospital,public,49405.0,central_hospital,not_available,8_to_16,not_available,Central,Central West,yes,yes,delivery,1.0,1.0,collected
,HIDDEN,,GROUP_CENTRAL_WEST,GROUP_ADMIN,,H236,default,,,anonymous,2016-07-11T16:01:59.047000000,COMPLETE,new_row,,,-13.46842838,33.14467663,Mchinji,temperate,K.M. CHIMBATATA,both,13.0,none,100.0,1007-0010,Tsekwe Health Post,public,5526.0,dispensary,irregular,none,not_available,Central,Central West,yes,yes,delivery,1.0,4.0,collected
,HIDDEN,,GROUP_CENTRAL_WEST,GROUP_ADMIN,,H237,default,,,anonymous,2016-07-11T16:01:59.049000000,COMPLETE,new_row,,,-13.89832991,33.06140426,Mchinji,temperate,,both,26.0,grid,100.0,1007-0011,Tembwe Health Centre,public,35799.0,community_hospital,not_available,fewer_than_4,not_available,Central,Central West,yes,yes,delivery,1.0,4.0,delivered
,HIDDEN,,GROUP_CENTRAL_WEST,GROUP_ADMIN,,H238,default,,,anonymous,2016-07-11T16:01:59.051000000,COMPLETE,new_row,,,-13.75582456,32.99195218,Mchinji,temperate,P. CHIKHASU,both,16.0,grid,10.0,1007-0012,Ludzi Community Hospital,faithbased,28487.0,hospital,not_available,fewer_than_4,not_available,Central,Central West,yes,yes,delivery,1.0,4.0,delivered
,HIDDEN,,GROUP_CENTRAL_WEST,GROUP_ADMIN,,H239,default,,,anonymous,2016-07-11T16:01:59.016000000,COMPLETE,new_row,,,-13.51167126,32.95993159,Mchinji,temperate,F .M. B. KATOLE,both,42.0,none,100.0,1007-0013,Mkanda Health Centre,public,42528.0,community_hospital,not_available,none,available,Central,Central West,yes,yes,delivery,1.0,4.0,delivered
,HIDDEN,,GROUP_CENTRAL_WEST,GROUP_ADMIN,,H240,default,,,anonymous,2016-07-11T16:01:59.017000000,COMPLETE,new_row,,,-13.40197203,32.99276769,Mchinji,temperate,A . NACHONGO,both,55.0,none,100.0,1007-0014,Chimwankango Dispensary,public,9210.0,health_center,irregular,none,not_available,Central,Central West,yes,yes,delivery,1.0,4.0,delivered
,HIDDEN,,GROUP_CENTRAL_WEST,GROUP_ADMIN,,H241,default,,,anonymous,2016-07-11T16:01:59.019000000,COMPLETE,new_row,,,-13.62256546,33.08040514,Mchinji,temperate,J. N. GESMAN,both,47.0,grid,100.0,1007-0015,Chipumi Health Centre,public,23481.0,community_hospital,not_available,fewer_than_4,not_available,Central,Central West,yes,no,delivery,1.0,4.0,delivered
,HIDDEN,,GROUP_CENTRAL_WEST,GROUP_ADMIN,,H242,default,,,anonymous,2016-07-11T16:01:59.022000000,COMPLETE,new_row,,,-13.55948483,33.17279234,Mchinji,temperate,S. M. KACHULE,both,57.0,grid,10.0,1007-0016,Kapiri Our Lady Of Mount Carmel Community Hospital,faithbased,47771.0,hospital,not_available,fewer_than_4,not_available,Central,Central West,yes,yes,delivery,1.0,4.0,delivered
,HIDDEN,,GROUP_CENTRAL_WEST,GROUP_ADMIN,,H243,default,,,anonymous,2016-07-11T16:01:59.023000000,COMPLETE,new_row,,,-13.79328769,33.17459123,Mchinji,temperate,E. KAMUNGOLA,both,25.0,none,100.0,1007-0017,Chioshya Health Centre,public,26323.0,community_hospital,irregular,none,available,Central,Central West,yes,yes,delivery,1.0,4.0,delivered
,HIDDEN,,GROUP_CENTRAL_WEST,GROUP_ADMIN,,H244,default,,,anonymous,2016-07-11T16:01:59.025000000,COMPLETE,new_row,,,-13.77970126,33.0432406,Mchinji,temperate,,both,24.5,grid,10.0,1007-0018,Kochilira Rural Hospital,public,37800.0,district_hospital,not_available,fewer_than_4,not_available,Central,Central West,yes,yes,delivery,1.0,4.0,delivered
,HIDDEN,,GROUP_CENTRAL_WEST,GROUP_ADMIN,,H245,default,,,anonymous,2016-07-11T16:01:59.027000000,COMPLETE,new_row,,,-13.88727677,33.07477562,Mchinji,temperate,T. CHIKALIPO,both,28.0,grid,10.0,1007-0019,St Michael Guillem Community Hospital,faithbased,14370.0,hospital,not_available,fewer_than_4,not_available,Central,Central West,yes,yes,delivery,1.0,4.0,delivered
,HIDDEN,,GROUP_CENTRAL_WEST,GROUP_ADMIN,,H246,default,,,anonymous,2016-07-11T16:01:59.029000000,COMPLETE,new_row,,,-14.05722991,33.30533198,Mchinji,temperate,MARY NYONI,both,61.0,none,100.0,1007-0020,Kapanga Health Centre,public,39449.0,community_hospital,not_available,none,available,Central,Central West,yes,yes,delivery,1.0,4.0,delivered
,HIDDEN,,GROUP_CENTRAL_WEST,GROUP_ADMIN,,H247,default,,,anonymous,2016-07-11T16:01:59.031000000,COMPLETE,new_row,,,-13.96826151,33.27180912,Mchinji,temperate,A. KACHEPA,none,50.0,none,100.0,1007-0021,Waliranji Health Post,public,2329.0,dispensary,irregular,none,not_available,Central,Central West,yes,yes,delivery,1.0,4.0,delivered
,HIDDEN,,GROUP_CENTRAL_WEST,GROUP_ADMIN,,H248,default,,,anonymous,2016-07-11T16:01:59.033000000,COMPLETE,new_row,,,-14.81436529,34.63735666,Ntcheu,temperate,R. FELESI,both,0.02,grid,10.0,1008-0000,Ntcheu  Hospital,public,33567.0,central_hospital,not_available,more_than_16,unknown,Central,Central West,yes,yes,delivery,1.0,2.0,collected
,HIDDEN,,GROUP_CENTRAL_WEST,GROUP_ADMIN,,H249,default,,,anonymous,2016-07-11T16:01:59.035000000,COMPLETE,new_row,,,-14.79657694,34.64894659,Ntcheu,temperate,E. CHIKOTI,both,5.0,grid,100.0,1008-0001,Chiole Health Centre,faithbased,5840.0,community_hospital,not_available,more_than_16,not_available,Central,Central West,yes,yes,delivery,1.0,4.0,collected
,HIDDEN,,GROUP_CENTRAL_WEST,GROUP_ADMIN,,H250,default,,,anonymous,2016-07-11T16:01:59.040000000,COMPLETE,new_row,,,-14.94567217,34.64219657,Ntcheu,temperate,ROBERT MAKHAMBERA,both,23.0,none,100.0,1008-0002,Dzonzi Mvai Dispensary,public,4457.0,health_center,not_available,none,irregular,Central,Central West,yes,yes,delivery,1.0,6.0,both
,HIDDEN,,GROUP_CENTRAL_WEST,GROUP_ADMIN,,H251,default,,,anonymous,2016-07-11T16:01:59.042000000,COMPLETE,new_row,,,-14.86167083,34.75126307,Ntcheu,temperate,DAVE PATSANJE,both,16.0,grid,100.0,1008-0003,Nsipe Health Centre,faithbased,20120.0,community_hospital,not_available,more_than_16,not_available,Central,Central West,yes,yes,delivery,1.0,4.0,delivered
,HIDDEN,,GROUP_CENTRAL_WEST,GROUP_ADMIN,,H252,default,,,anonymous,2016-07-11T16:01:59.044000000,COMPLETE,new_row,,,-14.80508065,34.73524777,Ntcheu,temperate,THANDIE MTALIMANJA,both,12.0,none,100.0,1008-0004,Dzunje Health Centre,public,30405.0,community_hospital,irregular,none,irregular,Central,Central West,yes,yes,delivery,1.0,5.0,delivered
,HIDDEN,,GROUP_CENTRAL_WEST,GROUP_ADMIN,,H253,default,,,anonymous,2016-07-11T16:01:59.047000000,COMPLETE,new_row,,,-14.77017083,34.90673739,Ntcheu,temperate,ROSE KAKHOME,both,50.0,none,100.0,1008-0005,Chikande Health Centre,public,15592.0,community_hospital,unknown,none,available,Central,Central West,yes,yes,delivery,1.0,4.0,delivered
,HIDDEN,,GROUP_CENTRAL_WEST,GROUP_ADMIN,,H254,default,,,anonymous,2016-07-11T16:01:59.049000000,COMPLETE,new_row,,,-14.82215817,34.85058977,Ntcheu,temperate,ROSE R. MORRIS,both,42.0,none,100.0,1008-0006,Bilira Health Centre,public,43789.0,community_hospital,unknown,none,not_available,Central,Central West,yes,yes,delivery,1.0,4.0,delivered
,HIDDEN,,GROUP_CENTRAL_WEST,GROUP_ADMIN,,H255,default,,,anonymous,2016-07-11T16:01:59.051000000,COMPLETE,new_row,,,-14.64617478,34.7740089,Ntcheu,temperate,EMILY MAKINA,both,60.0,none,100.0,1008-0007,Bwanje Health Centre,public,26527.0,community_hospital,unknown,none,available,Central,Central West,yes,yes,delivery,1.0,4.0,delivered
,HIDDEN,,GROUP_CENTRAL_WEST,GROUP_ADMIN,,H256,default,,,anonymous,2016-07-11T16:01:59.016000000,COMPLETE,new_row,,,-14.89979926,34.73122721,Ntcheu,temperate,JONAH J.L. CHILEWANI,both,15.0,none,100.0,1008-0008,Champiti Health Centre,public,10999.0,community_hospital,irregular,none,available,Central,Central West,yes,yes,delivery,1.0,5.0,delivered
,HIDDEN,,GROUP_CENTRAL_WEST,GROUP_ADMIN,,H257,default,,,anonymous,2016-07-11T16:01:59.017000000,COMPLETE,new_row,,,-15.0021511,34.76997481,Ntcheu,temperate,FRANCIS BINGALASON,both,35.0,none,100.0,1008-0009,Kapeni Health Centre,public,11598.0,community_hospital,not_available,none,available,Central,Central West,yes,yes,delivery,1.0,4.0,delivered
,HIDDEN,,GROUP_CENTRAL_WEST,GROUP_ADMIN,,H258,default,,,anonymous,2016-07-11T16:01:59.019000000,COMPLETE,new_row,,,-14.34225605,34.71938302,Ntcheu,temperate,JOHN HAWA,both,130.0,none,100.0,1008-0010,Phanga Health Centre,public,3351.0,community_hospital,irregular,none,available,Central,Central West,yes,yes,delivery,1.0,4.0,delivered
,HIDDEN,,GROUP_CENTRAL_WEST,GROUP_ADMIN,,H259,default,,,anonymous,2016-07-11T16:01:59.022000000,COMPLETE,new_row,,,-15.00548024,34.8591035,Ntcheu,temperate,PATRICK KABAMBE,both,46.0,none,100.0,1008-0011,Manjawira Health Centre,public,5921.0,community_hospital,not_available,none,irregular,Central,Central West,yes,yes,delivery,1.0,4.0,delivered
,HIDDEN,,GROUP_CENTRAL_WEST,GROUP_ADMIN,,H260,default,,,anonymous,2016-07-11T16:01:59.023000000,COMPLETE,new_row,,,-14.99630533,34.82700421,Ntcheu,temperate,CLEMENT MAFULA,both,58.0,grid,10.0,1008-0012,Sister Tereza Community Hospital,faithbased,4832.0,hospital,not_available,more_than_16,not_available,Central,Central West,yes,yes,delivery,1.0,5.0,delivered
,HIDDEN,,GROUP_CENTRAL_WEST,GROUP_ADMIN,,H261,default,,,anonymous,2016-07-11T16:01:59.025000000,COMPLETE,new_row,,,-15.07584084,34.85712786,Ntcheu,temperate,ALINAFE GOLOMBE,both,58.0,grid,100.0,1008-0013,Senzani Health Centre,faithbased,12805.0,community_hospital,not_available,more_than_16,not_available,Central,Central West,yes,yes,delivery,1.0,4.0,delivered
,HIDDEN,,GROUP_CENTRAL_WEST,GROUP_ADMIN,,H262,default,,,anonymous,2016-07-11T16:01:59.027000000,COMPLETE,new_row,,,-15.20388898,34.84688152,Ntcheu,temperate,DAVID GA BLIERE LAMBOLEN,both,76.0,none,100.0,1008-0014,Machereza Health Post,public,6440.0,dispensary,not_available,none,irregular,Central,Central West,yes,yes,delivery,1.0,4.0,both
,HIDDEN,,GROUP_CENTRAL_WEST,GROUP_ADMIN,,H263,default,,,anonymous,2016-07-11T16:01:59.029000000,COMPLETE,new_row,,,-15.08071189,34.78056631,Ntcheu,temperate,L. JUSTEN,both,48.0,none,100.0,1008-0015,Namisu Health Centre,public,4800.0,community_hospital,irregular,none,irregular,Central,Central West,yes,yes,delivery,1.0,5.0,delivered
,HIDDEN,,GROUP_CENTRAL_WEST,GROUP_ADMIN,,H264,default,,,anonymous,2016-07-11T16:01:59.031000000,COMPLETE,new_row,,,-15.10752117,34.8287153,Ntcheu,temperate,LISTEN JASTEN,both,57.0,none,100.0,1008-0016,Likudzi Health Post,public,1400.0,dispensary,not_available,none,irregular,Central,Central West,yes,yes,delivery,1.0,4.0,delivered
,HIDDEN,,GROUP_CENTRAL_WEST,GROUP_ADMIN,,H265,default,,,anonymous,2016-07-11T16:01:59.033000000,COMPLETE,new_row,,,-14.8908418,34.58521863,Ntcheu,temperate,LEYA BANDA,both,24.0,none,100.0,1008-0017,Nzama Health Centre,faithbased,10813.0,community_hospital,not_available,none,not_available,Central,Central West,yes,yes,delivery,1.0,5.0,delivered
,HIDDEN,,GROUP_CENTRAL_WEST,GROUP_ADMIN,,H266,default,,,anonymous,2016-07-11T16:01:59.035000000,COMPLETE,new_row,,,-14.93391579,34.87345056,Ntcheu,temperate,M. H. KANGUWO,both,14.0,grid,100.0,1008-0018,Nsiyaludzu Health Centre,public,28161.0,community_hospital,unknown,more_than_16,unknown,Central,Central West,yes,yes,delivery,1.0,4.0,both
,HIDDEN,,GROUP_CENTRAL_WEST,GROUP_ADMIN,,H267,default,,,anonymous,2016-07-11T16:01:59.040000000,COMPLETE,new_row,,,-15.03078782,34.64027923,Ntcheu,temperate,LOVEMORE MWENYE,both,59.0,none,100.0,1008-0019,Katsekera Health Centre,public,15422.0,community_hospital,not_available,none,available,Central,Central West,yes,yes,delivery,1.0,4.0,delivered
,HIDDEN,,GROUP_CENTRAL_WEST,GROUP_ADMIN,,H268,default,,,anonymous,2016-07-11T16:01:59.042000000,COMPLETE,new_row,,,-15.07956232,34.59003162,Ntcheu,temperate,BONIFACE MANGANI,both,65.0,none,100.0,1008-0020,Doviko Health Centre,public,7480.0,community_hospital,not_available,none,available,Central,Central West,yes,yes,delivery,1.0,4.0,delivered
,HIDDEN,,GROUP_CENTRAL_WEST,GROUP_ADMIN,,H269,default,,,anonymous,2016-07-11T16:01:59.044000000,COMPLETE,new_row,,,-15.10264748,34.66763106,Ntcheu,temperate,FRACKSON E. MADZIAKATAYIKA,both,69.0,none,100.0,1008-0021,Matanda Health Centre,faithbased,7166.0,community_hospital,not_available,none,irregular,Central,Central West,yes,yes,delivery,1.0,5.0,delivered
,HIDDEN,,GROUP_CENTRAL_WEST,GROUP_ADMIN,,H270,default,,,anonymous,2016-07-11T16:01:59.047000000,COMPLETE,new_row,,,-14.59630163,34.58608631,Ntcheu,temperate,CHARLES H.M. SINGANO,both,20.0,none,100.0,1008-0022,Kampanje Health Centre,public,9310.0,community_hospital,not_available,none,irregular,Central,Central West,yes,yes,delivery,1.0,5.0,delivered
,HIDDEN,,GROUP_CENTRAL_WEST,GROUP_ADMIN,,H271,default,,,anonymous,2016-07-11T16:01:59.049000000,COMPLETE,new_row,,,-14.60039236,34.61561216,Ntcheu,temperate,EVANCE BARTON,both,30.0,none,100.0,1008-0023,Kandeu Health Centre,public,19479.0,community_hospital,not_available,none,irregular,Central,Central West,yes,yes,delivery,1.0,4.0,delivered
,HIDDEN,,GROUP_CENTRAL_WEST,GROUP_ADMIN,,H272,default,,,anonymous,2016-07-11T16:01:59.051000000,COMPLETE,new_row,,,-14.69634604,34.58907158,Ntcheu,temperate,DAMBOMANUEL DICKSON,both,25.0,none,100.0,1008-0024,Gowa Health Centre,faithbased,12250.0,community_hospital,irregular,none,unknown,Central,Central West,yes,yes,delivery,1.0,5.0,delivered
,HIDDEN,,GROUP_CENTRAL_WEST,GROUP_ADMIN,,H273,default,,,anonymous,2016-07-11T16:01:59.016000000,COMPLETE,new_row,,,-14.71720176,34.63267339,Ntcheu,temperate,CHRISTOPHER CHIZUNGUWIRE,both,19.0,none,100.0,1008-0025,Muluma Health Centre,faithbased,5267.0,community_hospital,not_available,none,available,Central,Central West,yes,yes,delivery,1.0,4.0,delivered
,HIDDEN,,GROUP_CENTRAL_WEST,GROUP_ADMIN,,H274,default,,,anonymous,2016-07-11T16:01:59.017000000,COMPLETE,new_row,,,-14.73323633,34.66051416,Ntcheu,temperate,,both,11.0,none,100.0,1008-0026,Mphepozinayi Dispensary,public,25741.0,health_center,not_available,none,unknown,Central,Central West,no,yes,delivery,1.0,4.0,delivered
,HIDDEN,,GROUP_CENTRAL_WEST,GROUP_ADMIN,,H275,default,,,anonymous,2016-07-11T16:01:59.019000000,COMPLETE,new_row,,,-14.43062464,34.42167999,Ntcheu,temperate,CHISOMO KUNKUMBIRA,both,57.0,none,100.0,1008-0027,Masasa Dispensary,public,6380.0,health_center,irregular,none,available,Central,Central West,yes,yes,delivery,1.0,5.0,both
,HIDDEN,,GROUP_CENTRAL_WEST,GROUP_ADMIN,,H276,default,,,anonymous,2016-07-11T16:01:59.022000000,COMPLETE,new_row,,,-14.47614259,34.45914186,Ntcheu,temperate,TORIA HAUYA,both,57.0,grid,100.0,1008-0028,Mlanda Health Centre,faithbased,7775.0,community_hospital,unknown,more_than_16,not_available,Central,Central West,yes,yes,delivery,1.0,4.0,delivered
,HIDDEN,,GROUP_CENTRAL_WEST,GROUP_ADMIN,,H277,default,,,anonymous,2016-07-11T16:01:59.023000000,COMPLETE,new_row,,,-14.58979443,36.42403696,Ntcheu,temperate,B. KAMCHEWERE,both,75.0,none,100.0,1008-0029,Shapevally Health Centre,faithbased,23816.0,community_hospital,not_available,none,irregular,Central,Central West,yes,yes,delivery,1.0,4.0,delivered
,HIDDEN,,GROUP_CENTRAL_WEST,GROUP_ADMIN,,H278,default,,,anonymous,2016-07-11T16:01:59.025000000,COMPLETE,new_row,,,-14.51506452,34.46497294,Ntcheu,temperate,STEWARO CHAIMA,both,54.0,grid,100.0,1008-0030,Luzulu Health Centre,public,19902.0,community_hospital,not_available,more_than_16,not_available,Central,Central West,yes,yes,delivery,1.0,4.0,both
,HIDDEN,,GROUP_CENTRAL_WEST,GROUP_ADMIN,,H279,default,,,anonymous,2016-07-11T16:01:59.027000000,COMPLETE,new_row,,,-14.63945867,34.55282785,Ntcheu,temperate,LIMBIKANI KATANGA,both,25.0,grid,100.0,1008-0031,Lake View Health Centre,faithbased,7167.0,community_hospital,not_available,more_than_16,not_available,Central,Central West,yes,yes,delivery,1.0,4.0,both
,HIDDEN,,GROUP_CENTRAL_WEST,GROUP_ADMIN,,H280,default,,,anonymous,2016-07-11T16:01:59.029000000,COMPLETE,new_row,,,-14.67391708,34.53601448,Ntcheu,temperate,STIVEN CHANZI,both,21.0,grid,100.0,1008-0032,Mlangeni Health Centre,public,6986.0,community_hospital,irregular,more_than_16,not_available,Central,Central West,yes,yes,delivery,1.0,4.0,both
,HIDDEN,,GROUP_CENTRAL_WEST,GROUP_ADMIN,,H281,default,,,anonymous,2016-07-11T16:01:59.031000000,COMPLETE,new_row,,,-14.81436529,34.63735666,Ntcheu,temperate,RAMSY KASAMBA,both,120.0,grid,100.0,1008-0033,Ntcheu District Vaccine Store,public,471589.0,regional_vaccine_store,not_available,more_than_16,not_available,Central,Central West,yes,yes,depot,1.0,4.0,collected
,HIDDEN,,GROUP_CENTRAL_WEST,GROUP_ADMIN,,H282,default,,,anonymous,2016-07-11T16:01:59.033000000,COMPLETE,new_row,,,-15.1711377,34.61021058,Ntcheu,temperate,DAMALEKANI GWEDEZA,both,72.0,grid,100.0,1008-0034,Tsangano Health Centre,faithbased,24102.0,community_hospital,not_available,more_than_16,not_available,Central,Central West,yes,yes,delivery,1.0,5.0,delivered
,HIDDEN,,GROUP_CENTRAL_WEST,GROUP_ADMIN,,H283,default,,,anonymous,2016-07-11T16:01:59.035000000,COMPLETE,new_row,,,-14.75804396,34.55693556,Ntcheu,temperate,DOROTHY MPINGANJIRA,both,12.0,grid,100.0,1008-0035,Biriwiri Health Centre,public,11296.0,community_hospital,irregular,more_than_16,unknown,Central,Central West,yes,yes,delivery,1.0,4.0,both
,HIDDEN,,GROUP_CENTRAL_WEST,GROUP_ADMIN,,H284,default,,,anonymous,2016-07-11T16:01:59.040000000,COMPLETE,new_row,,,-14.48920921,34.54046788,Ntcheu,temperate,ALFRED CHIDOKOWE,both,56.0,none,100.0,1008-0036,Chigodi Health Centre,faithbased,10888.0,community_hospital,not_available,none,available,Central,Central West,yes,yes,delivery,1.0,4.0,delivered
,HIDDEN,,GROUP_CENTRAL_WEST,GROUP_ADMIN,,H285,default,,,anonymous,2016-07-11T16:01:59.042000000,COMPLETE,new_row,,,-14.52067671,34.67570049,Ntcheu,temperate,C.S. KATHYOLE,both,81.0,none,100.0,1008-0037,Kasinje Health Centre,public,49866.0,community_hospital,not_available,none,available,Central,Central West,yes,yes,delivery,1.0,5.0,delivered
,HIDDEN,,GROUP_CENTRAL_WEST,GROUP_ADMIN,,H286,default,,,anonymous,2016-07-11T16:01:59.044000000,COMPLETE,new_row,,,-15.01786297,34.75185099,Ntcheu,temperate,BOSTON GONANI,both,20.0,grid,10.0,1008-0038,Ntonda Community Hospital,faithbased,10369.0,hospital,not_available,more_than_16,irregular,Central,Central West,yes,yes,delivery,1.0,4.0,delivered
,HIDDEN,,GROUP_NORTH,GROUP_ADMIN,,H287,default,,,anonymous,2016-07-11T16:01:59.047000000,COMPLETE,new_row,,,-9.94115074,33.39738723,Chitipa,temperate,BOYCE NYIRONGO,both,42.0,none,100.0,1009-0002,Chambo,faithbased,14603.0,community_hospital,not_available,none,not_available,North,North,no,yes,delivery,1.0,4.0,both
,HIDDEN,,GROUP_NORTH,GROUP_ADMIN,,H288,default,,,anonymous,2016-07-11T16:01:59.049000000,COMPLETE,new_row,,,-10.11018366,33.5628694,Chitipa,temperate,JOHN MBENE,both,82.0,grid,100.0,1009-0003,Wenya,public,12178.0,community_hospital,irregular,more_than_16,not_available,North,North,yes,yes,delivery,1.0,4.0,both
,HIDDEN,,GROUP_NORTH,GROUP_ADMIN,,H289,default,,,anonymous,2016-07-11T16:01:59.051000000,COMPLETE,new_row,,,-10.27235667,33.57092515,Chitipa,temperate,L.W. MWAKALAGHO,both,28.0,none,100.0,1009-0004,Kavukuku,public,3243.0,dispensary,available,none,not_available,North,North,yes,yes,delivery,1.0,4.0,collected
,HIDDEN,,GROUP_NORTH,GROUP_ADMIN,,H290,default,,,anonymous,2016-07-11T16:01:59.016000000,COMPLETE,new_row,,,-10.18045772,33.68964828,Chitipa,temperate,VINCENT NG'AMBI,both,32.0,none,100.0,1009-0005,Mahowe,public,2264.0,dispensary,available,none,not_available,North,North,yes,yes,delivery,1.0,4.0,both
