_conflict_type,_default_access,_form_id,_group_modify,_group_privileged,_group_read_only,_id,_locale,_row_etag,_row_owner,_savepoint_creator,_savepoint_timestamp,_savepoint_type,_sync_state,Location_accuracy,Location_altitude,Location_latitude,Location_longitude,admin_region,climate_zone,contact_name,delivery_type,distance_to_supply,electricity_source,facility_coverage,facility_id,facility_name,facility_ownership,facility_population,facility_type,gas_availability,grid_power_availability,kerosene_availability,regionLevel1,regionLevel2,solar_suitable_climate,solar_suitable_site,storage_type,vaccine_reserve_stock_requirement,vaccine_supply_interval,vaccine_supply_mode
,HIDDEN,,GROUP_REGION_SOUTH_EAST,GROUP_ADMIN,GROUP_REGION_SOUTH,H627,default,uuid:388fbbda-fe2a-427c-ba39-6c3936e7ff4c,,anonymous,2016-07-11T16:01:59.047000000,COMPLETE,synced,,,-17.94621661,35.45179818,Zomba,temperate,MARY PHAMOYO,both,33.0,none,100.0,1021-0024,Machinjiri,public,9218.0,community_hospital,not_available,none,available,South,South East,yes,yes,delivery,1.0,4.0,delivered
,HIDDEN,,GROUP_REGION_SOUTH_WEST,GROUP_ADMIN,GROUP_REGION_SOUTH,H765,default,uuid:2651929d-207d-47ac-93ff-14afb7e6d233,,anonymous,2016-07-11T16:01:59.051000000,COMPLETE,synced,,,-17.11219343,35.15607796,Nsanje,temperate,HOMESTONE MKANDA,both,46.0,none,100.0,1027-0006,Nkhande Health Post,public,6000.0,dispensary,not_available,none,available,South,South West,no,yes,delivery,1.0,4.0,both
,HIDDEN,,GROUP_REGION_SOUTH_WEST,GROUP_ADMIN,GROUP_REGION_SOUTH,H763,default,uuid:d30c6a4c-7125-4d86-a4a0-04d129ffc011,,anonymous,2016-07-11T16:01:59.047000000,COMPLETE,synced,,,-17.0930658,35.21822205,Nsanje,temperate,DANIEL M.B. MURAPHI,both,27.0,grid,100.0,1027-0004,Ndamera Health Centre,public,19084.0,community_hospital,available,more_than_16,not_available,South,South West,no,yes,delivery,1.0,2.0,both
,HIDDEN,,GROUP_REGION_SOUTH_WEST,GROUP_ADMIN,GROUP_REGION_SOUTH,H766,default,uuid:13e52bde-a200-4fdc-83ef-32ff83ba355a,,anonymous,2016-07-11T16:01:59.016000000,COMPLETE,synced,,,-17.08482596,35.1134829,Nsanje,temperate,PATRICK SEDA,both,55.0,none,100.0,1027-0007,Lulwe Health Centre,faithbased,6437.0,community_hospital,not_available,none,available,South,South West,no,yes,delivery,1.0,4.0,delivered
,HIDDEN,,GROUP_REGION_SOUTH_WEST,GROUP_ADMIN,GROUP_REGION_SOUTH,H764,default,uuid:5da610ae-2706-4793-8dc6-37a23fbae51e,,anonymous,2016-07-11T16:01:59.049000000,COMPLETE,synced,,,-17.04402068,35.21577358,Nsanje,temperate,ANDERSON DILIRO,both,12.0,none,100.0,1027-0005,Kamphata Health Post,public,7796.0,dispensary,not_available,none,available,South,South West,no,yes,delivery,1.0,4.0,both
,HIDDEN,,GROUP_REGION_SOUTH_WEST,GROUP_ADMIN,GROUP_REGION_SOUTH,H767,default,uuid:a4b0240c-f4d4-4c52-ac71-b53e43da2d25,,anonymous,2016-07-11T16:01:59.017000000,COMPLETE,synced,,,-16.99647655,35.10846194,Nsanje,temperate,AUSTINE THOMSON,both,69.0,none,100.0,1027-0008,Chingoma Health Post,public,6893.0,dispensary,not_available,none,available,South,South West,no,yes,delivery,1.0,4.0,collected
,HIDDEN,,GROUP_REGION_SOUTH_WEST,GROUP_ADMIN,GROUP_REGION_SOUTH,H762,default,uuid:6191bc8e-2e6f-4766-bc20-f38a1c3f9a0a,,anonymous,2016-07-11T16:01:59.044000000,COMPLETE,synced,,,-16.99228322,35.21995279,Nsanje,temperate,GEORGE KADULIRA,both,14.0,grid,100.0,1027-0003,Mbenje Health Centre,public,21309.0,community_hospital,available,more_than_16,unknown,South,South West,yes,yes,delivery,1.0,2.0,both
,HIDDEN,,GROUP_REGION_SOUTH_WEST,GROUP_ADMIN,GROUP_REGION_SOUTH,H760,default,uuid:7ad902a5-d3cb-4e36-9260-76a51e63b249,,anonymous,2016-07-11T16:01:59.040000000,COMPLETE,synced,,,-16.91482306,35.25902098,Nsanje,temperate,STANLEY MZAYA,both,0.0,grid,10.0,1027-0001,Nsanje District Hospital,public,35525.0,central_hospital,not_available,more_than_16,not_available,South,South West,yes,yes,delivery,1.0,1.0,collected
,HIDDEN,,GROUP_REGION_SOUTH_WEST,GROUP_ADMIN,GROUP_REGION_SOUTH,H768,default,uuid:e051278b-584b-4343-bbff-1ff6c5cad870,,anonymous,2016-07-11T16:01:59.019000000,COMPLETE,synced,,,-16.91227157,35.17268179,Nsanje,temperate,FADOWICK MADENGU,both,22.0,none,100.0,1027-0009,Chididi Health Centre,faithbased,10585.0,community_hospital,not_available,none,available,South,South West,yes,yes,delivery,1.0,4.0,delivered
,HIDDEN,,GROUP_REGION_SOUTH_WEST,GROUP_ADMIN,GROUP_REGION_SOUTH,H769,default,uuid:2cc991da-001c-4f97-b7e7-ee32d1b1bed7,,anonymous,2016-07-11T16:01:59.022000000,COMPLETE,synced,,,-16.82221141,35.30352408,Nsanje,temperate,AFACHI FREDSON,both,12.0,none,100.0,1027-0010,Mkango Health Centre,public,9994.0,dispensary,not_available,none,available,South,South West,yes,yes,delivery,1.0,4.0,both
,HIDDEN,,GROUP_REGION_SOUTH_WEST,GROUP_ADMIN,GROUP_REGION_SOUTH,H775,default,uuid:97eb4b3c-6fe9-4168-b20d-c6bfe2ab73a9,,anonymous,2016-07-11T16:01:59.033000000,COMPLETE,synced,,,-16.75990586,35.04674866,Nsanje,temperate,DEVIS MOSES MTHYOLA,both,79.0,none,100.0,1027-0016,Mitsamvu Health Centre,public,4114.0,dispensary,available,none,not_available,South,South West,yes,yes,delivery,1.0,4.0,both
,HIDDEN,,GROUP_REGION_SOUTH_WEST,GROUP_ADMIN,GROUP_REGION_SOUTH,H770,default,uuid:ae82e1ec-0d3a-4d63-abd7-61fad7829de9,,anonymous,2016-07-11T16:01:59.023000000,COMPLETE,synced,,,-16.73003648,35.26971316,Nsanje,temperate,TELEZA BISENTI,both,22.0,grid,100.0,1027-0011,Tengani Health Centre,public,24027.0,community_hospital,not_available,more_than_16,not_available,South,South West,yes,yes,delivery,3.0,12.0,both
,HIDDEN,,GROUP_REGION_SOUTH_WEST,GROUP_ADMIN,GROUP_REGION_SOUTH,H776,default,uuid:ba52b3ab-4850-4f80-97b0-f18f8adb2e14,,anonymous,2016-07-11T16:01:59.035000000,COMPLETE,synced,,,-16.6919109,34.96642285,Nsanje,temperate,HOREACE CHIMWANZA,both,71.0,none,100.0,1027-0017,Kanyimbi,public,4144.0,dispensary,not_available,none,available,South,South West,yes,yes,delivery,1.0,4.0,both
,HIDDEN,,GROUP_REGION_SOUTH_WEST,GROUP_ADMIN,GROUP_REGION_SOUTH,H771,default,uuid:2b44f2c4-2eef-43df-9a41-1276c80cdbc6,,anonymous,2016-07-11T16:01:59.025000000,COMPLETE,synced,,,-16.67971118,35.19749995,Nsanje,temperate,PETER AMOSI,both,25.0,grid,100.0,1027-0012,Nyamithuthu Health Centre,public,8403.0,community_hospital,not_available,more_than_16,not_available,South,South West,yes,yes,delivery,1.0,4.0,both
,HIDDEN,,GROUP_REGION_SOUTH_WEST,GROUP_ADMIN,GROUP_REGION_SOUTH,H692,default,uuid:2318be8c-b13d-4c07-9d21-88e5a7b9919d,,anonymous,2016-07-11T16:01:59.040000000,COMPLETE,synced,,,-16.66752934,34.87925916,Chikwawa,temperate,KONDWANI MANDEYA,both,50.0,none,100.0,1023-0004,Thendo Health Post,public,2978.0,dispensary,not_available,none,available,South,South West,yes,yes,delivery,1.0,4.0,delivered
,HIDDEN,,GROUP_REGION_SOUTH_WEST,GROUP_ADMIN,GROUP_REGION_SOUTH,H772,default,uuid:aace51dd-973b-4bd0-a6a8-1e010debffd4,,anonymous,2016-07-11T16:01:59.027000000,COMPLETE,synced,,,-16.62592519,35.15575899,Nsanje,temperate,JOSEPHY LUMBE,both,35.0,grid,100.0,1027-0013,Phokera Health Centre,public,9366.0,community_hospital,not_available,more_than_16,not_available,South,South West,yes,yes,delivery,1.0,4.0,both
,HIDDEN,,GROUP_REGION_SOUTH_WEST,GROUP_ADMIN,GROUP_REGION_SOUTH,H773,default,uuid:f7a066b3-76e1-43bf-bb64-b8be69ed2564,,anonymous,2016-07-11T16:01:59.029000000,COMPLETE,synced,,,-16.57303935,35.11057645,Nsanje,temperate,AZANI BASIKOLO,both,48.0,grid,10.0,1027-0014,Kalemba Community Hospital,faithbased,23304.0,hospital,not_available,more_than_16,not_available,South,South West,yes,yes,delivery,1.0,4.0,both
,HIDDEN,,GROUP_REGION_SOUTH_WEST,GROUP_ADMIN,GROUP_REGION_SOUTH,H691,default,uuid:a02f0eb5-592d-4ddb-a066-c22ea923e42f,,anonymous,2016-07-11T16:01:59.035000000,COMPLETE,synced,,,-16.55087721,34.92383272,Chikwawa,temperate,LAWRENCE CHAIMA,both,74.0,none,100.0,1023-0003,Dolo Health Centre,public,37924.0,community_hospital,not_available,none,available,South,South West,yes,yes,delivery,1.0,4.0,delivered
,HIDDEN,,GROUP_REGION_SOUTH_WEST,GROUP_ADMIN,GROUP_REGION_SOUTH,H774,default,uuid:0e3c6540-b4ff-4a6b-a698-8ec2af21bbd3,,anonymous,2016-07-11T16:01:59.031000000,COMPLETE,synced,,,-16.54012701,35.01076857,Nsanje,temperate,CAROL CHIGWALE,both,69.0,grid,100.0,1027-0015,Sorgin Health Centre,public,14236.0,community_hospital,not_available,more_than_16,not_available,South,South West,yes,yes,delivery,1.0,4.0,both
,HIDDEN,,GROUP_REGION_SOUTH_WEST,GROUP_ADMIN,GROUP_REGION_SOUTH,H693,default,uuid:d87a5f77-c6fa-4beb-a808-f91bf2970598,,anonymous,2016-07-11T16:01:59.042000000,COMPLETE,synced,,,-16.52238567,34.98106173,Chikwawa,temperate,DAVIS PHIRI,both,12.0,grid,100.0,1023-0005,Konzere Health Post,public,3827.0,dispensary,not_available,more_than_16,not_available,South,South West,yes,yes,delivery,1.0,4.0,collected
,HIDDEN,,GROUP_REGION_SOUTH_WEST,GROUP_ADMIN,GROUP_REGION_SOUTH,H777,default,uuid:a2f65ec2-93be-4016-b39d-3d0c7c998e9d,,anonymous,2016-07-11T16:01:59.040000000,COMPLETE,synced,,,-16.51904244,35.172729,Nsanje,temperate,DAVID JEKE,both,15.0,grid,100.0,1027-0018,Makhanga,public,14165.0,community_hospital,irregular,more_than_16,not_available,South,South West,no,yes,delivery,1.0,4.0,collected
,HIDDEN,,GROUP_REGION_SOUTH_WEST,GROUP_ADMIN,GROUP_REGION_SOUTH,H779,default,uuid:8f50accd-d078-4640-a2db-d0db08bec509,,anonymous,2016-07-11T16:01:59.044000000,COMPLETE,synced,,,-16.48874605,35.15913115,Nsanje,temperate,BOSTON NYAKAMERA,both,13.0,none,100.0,1027-0020,Mchacha Health Centre,public,6168.0,dispensary,not_available,none,available,South,South West,yes,yes,delivery,1.0,4.0,collected
,HIDDEN,,GROUP_REGION_SOUTH_WEST,GROUP_ADMIN,GROUP_REGION_SOUTH,H724,default,uuid:4426df50-ea9b-4738-a35c-7dc3918228db,,anonymous,2016-07-11T16:01:59.033000000,COMPLETE,synced,,,-16.48311878,34.81979888,Chikwawa,temperate,RICHARD KATUNGA,both,7.0,none,100.0,1023-0036,Saopa Health Post,public,5406.0,dispensary,not_available,none,available,South,South West,yes,yes,delivery,1.0,4.0,collected
,HIDDEN,,GROUP_REGION_SOUTH_WEST,GROUP_ADMIN,GROUP_REGION_SOUTH,H715,default,uuid:d42611bb-faec-449e-9913-f4bd397c594b,,anonymous,2016-07-11T16:01:59.016000000,COMPLETE,synced,,,-16.47685689,34.72370871,Chikwawa,temperate,NICO ELATONI,both,81.0,none,100.0,1023-0027,Mkumaniza Health Centre,public,11518.0,community_hospital,not_available,none,available,South,South West,yes,yes,delivery,1.0,4.0,delivered
,HIDDEN,,GROUP_REGION_SOUTH_WEST,GROUP_ADMIN,GROUP_REGION_SOUTH,H694,default,uuid:4fe88775-e719-4515-af44-1288d1fcfc83,,anonymous,2016-07-11T16:01:59.044000000,COMPLETE,synced,,,-16.45677478,34.89161798,Chikwawa,temperate,MERCY CHIJOTA,both,65.0,grid,10.0,1023-0006,Mgabu Rural Hospital,public,57566.0,district_hospital,not_available,more_than_16,not_available,South,South West,yes,yes,delivery,1.0,4.0,both
,HIDDEN,,GROUP_REGION_SOUTH_WEST,GROUP_ADMIN,GROUP_REGION_SOUTH,H778,default,uuid:2d447297-8308-4a11-ab9a-cbf758ffeb69,,anonymous,2016-07-11T16:01:59.042000000,COMPLETE,synced,,,-16.45414808,35.25811723,Nsanje,temperate,FANUWEL CHANGWA,both,16.0,none,100.0,1027-0019,Sankhulani Health Health Centre,public,6282.0,community_hospital,not_available,none,available,South,South West,yes,yes,delivery,1.0,4.0,collected
,HIDDEN,,GROUP_REGION_SOUTH_WEST,GROUP_ADMIN,GROUP_REGION_SOUTH,H781,default,uuid:68876f1b-f0dc-4548-a120-cc21357f5240,,anonymous,2016-07-11T16:01:59.049000000,COMPLETE,synced,,,-16.41698726,35.15179419,Nsanje,temperate,SYDAY MAKOKA,both,4.0,none,100.0,1027-0022,Mulolo Health Centre,public,7909.0,dispensary,not_available,none,available,South,South West,yes,yes,delivery,1.0,4.0,collected
,HIDDEN,,GROUP_REGION_SOUTH_WEST,GROUP_ADMIN,GROUP_REGION_SOUTH,H780,default,uuid:1da10ba0-40b6-4568-936f-e2f5cd20baee,,anonymous,2016-07-11T16:01:59.047000000,COMPLETE,synced,,,-16.41641273,35.17074296,Nsanje,temperate,ANNA BANDE,both,100.0,grid,10.0,1027-0021,Trinity Mission Hospital,faithbased,19797.0,rural_hospital,not_available,more_than_16,not_available,South,South West,yes,yes,delivery,1.0,4.0,collected
,HIDDEN,,GROUP_REGION_SOUTH_WEST,GROUP_ADMIN,GROUP_REGION_SOUTH,H711,default,uuid:285aa9d3-3bd8-47ae-a1b4-0250a578f567,,anonymous,2016-07-11T16:01:59.044000000,COMPLETE,synced,,,-16.4005869,34.88488656,Chikwawa,temperate,TAULAYI MAPULANGA,static,25.0,grid,100.0,1023-0023,Alimenda Clinic,private,2851.0,community_hospital,not_available,more_than_16,not_available,South,South West,yes,yes,delivery,1.0,4.0,delivered
,HIDDEN,,GROUP_REGION_SOUTH_WEST,GROUP_ADMIN,GROUP_REGION_SOUTH,H713,default,uuid:8cbaf0cc-b9a4-4377-8edd-bce1832a444b,,anonymous,2016-07-11T16:01:59.049000000,COMPLETE,synced,,,-16.39585111,34.77496918,Chikwawa,temperate,LYSON THOM,both,25.0,none,100.0,1023-0025,Chipwaira Health Centre,public,23912.0,community_hospital,not_available,none,available,South,South West,yes,yes,delivery,1.0,4.0,delivered
,HIDDEN,,GROUP_REGION_SOUTH_WEST,GROUP_ADMIN,GROUP_REGION_SOUTH,H810,default,uuid:1c111fc7-c0ed-4345-95b9-0ba8744301a0,,anonymous,2016-07-11T16:01:59.035000000,COMPLETE,synced,,,-16.36979054,35.23071709,Thyolo,temperate,DUNCAN MANANGA,both,10.0,none,100.0,1028-0027,Gombe,public,12731.0,community_hospital,not_available,none,available,South,South West,no,yes,delivery,1.0,4.0,collected
,HIDDEN,,GROUP_REGION_SOUTH_WEST,GROUP_ADMIN,GROUP_REGION_SOUTH,H714,default,uuid:3a517945-2692-4f85-a860-758bef96e803,,anonymous,2016-07-11T16:01:59.051000000,COMPLETE,synced,,,-16.36507158,34.68156678,Chikwawa,temperate,SUMZEY MSAKA,both,13.0,none,100.0,1023-0026,Therere Health Post,public,10758.0,dispensary,not_available,none,available,South,South West,yes,yes,delivery,1.0,4.0,delivered
,HIDDEN,,GROUP_REGION_SOUTH_WEST,GROUP_ADMIN,GROUP_REGION_SOUTH,H809,default,uuid:1bafb129-ecce-4492-bc28-3f37bb7ecfed,,anonymous,2016-07-11T16:01:59.033000000,COMPLETE,synced,,,-16.33667165,35.20054065,Thyolo,temperate,ELLIAS WILSON SABOLA,both,7.0,grid,100.0,1028-0026,Nsabwe,public,7709.0,community_hospital,not_available,more_than_16,not_available,South,South West,no,yes,delivery,1.0,4.0,delivered
,HIDDEN,,GROUP_REGION_SOUTH_WEST,GROUP_ADMIN,GROUP_REGION_SOUTH,H782,default,uuid:3ff40394-bc62-47e9-9530-b8c0a3bd2e99,,anonymous,2016-07-11T16:01:59.051000000,COMPLETE,synced,,,-16.3346029,35.09587224,Nsanje,temperate,STANLEY RANK,both,20.0,none,100.0,1027-0023,Masenjere Health Centre,public,14789.0,community_hospital,not_available,none,available,South,South West,yes,yes,delivery,1.0,4.0,collected
,HIDDEN,,GROUP_REGION_SOUTH_WEST,GROUP_ADMIN,GROUP_REGION_SOUTH,H811,default,uuid:bca17b3d-252d-4dbd-a6e2-5d3ebe4b8bba,,anonymous,2016-07-11T16:01:59.040000000,COMPLETE,synced,,,-16.32129195,35.2631822,Thyolo,temperate,BULANDSON MASTER,both,8.0,none,100.0,1028-0028,Nkhataombere,public,10514.0,dispensary,not_available,none,available,South,South West,no,yes,delivery,1.0,4.0,both
,HIDDEN,,GROUP_REGION_SOUTH_WEST,GROUP_ADMIN,GROUP_REGION_SOUTH,H820,default,uuid:a564e52c-bef1-465c-9609-15c38b36b9c8,,anonymous,2016-07-11T16:01:59.022000000,COMPLETE,synced,,,-16.31830429,35.20662216,Thyolo,temperate,,both,78.0,grid,100.0,1028-0037,Thekerani,public,18515.0,community_hospital,not_available,more_than_16,not_available,South,South West,yes,yes,delivery,1.0,4.0,both
,HIDDEN,,GROUP_REGION_SOUTH_WEST,GROUP_ADMIN,GROUP_REGION_SOUTH,H726,default,uuid:8544c41b-82b0-4c0b-b6b5-966dcde3f368,,anonymous,2016-07-11T16:01:59.040000000,COMPLETE,synced,,,-16.28364048,34.83797875,Chikwawa,temperate,JIA JUSTINE JIA,both,7.0,none,100.0,1023-0038,Mafale Dispensary,public,10304.0,health_center,not_available,none,available,South,South West,yes,yes,delivery,1.0,4.0,collected
,HIDDEN,,GROUP_REGION_SOUTH_WEST,GROUP_ADMIN,GROUP_REGION_SOUTH,H827,default,uuid:e55568d6-606f-4f6e-b0a6-99083cdaeab1,,anonymous,2016-07-11T16:01:59.035000000,COMPLETE,synced,,,-16.27345693,35.19622414,Thyolo,temperate,F. MAHENGE,both,60.0,none,100.0,1028-0044,Mapanga,public,13707.0,community_hospital,not_available,none,available,South,South West,yes,no,delivery,1.0,4.0,delivered
,HIDDEN,,GROUP_REGION_SOUTH_WEST,GROUP_ADMIN,GROUP_REGION_SOUTH,H710,default,uuid:672e2e69-f245-4498-b77c-f91c6415ee5f,,anonymous,2016-07-11T16:01:59.042000000,COMPLETE,synced,,,-16.27332335,34.87989678,Chikwawa,temperate,EVERSON MAGUDA,static,5.0,grid,100.0,1023-0022,Mkombezi Clinic,private,2488.0,community_hospital,not_available,more_than_16,not_available,South,South West,yes,yes,delivery,1.0,4.0,delivered
,HIDDEN,,GROUP_REGION_SOUTH_WEST,GROUP_ADMIN,GROUP_REGION_SOUTH,H725,default,uuid:d360d484-abd4-448d-9fac-5c76e930c0a9,,anonymous,2016-07-11T16:01:59.035000000,COMPLETE,synced,,,-16.26779912,34.86288383,Chikwawa,temperate,PATRICK KHOFI,static,3.0,grid,100.0,1023-0037,Hunger Project Health Post,private,25682.0,community_hospital,not_available,more_than_16,not_available,South,South West,yes,yes,delivery,1.0,4.0,delivered
,HIDDEN,,GROUP_REGION_SOUTH_WEST,GROUP_ADMIN,GROUP_REGION_SOUTH,H721,default,uuid:67d645a8-5957-4548-9557-cea465ccbc48,,anonymous,2016-07-11T16:01:59.027000000,COMPLETE,synced,,,-16.26609104,35.05711113,Chikwawa,temperate,LAIZA MALUNGA,both,45.0,none,100.0,1023-0033,Mitondo Health Post,public,23572.0,dispensary,not_available,none,available,South,South West,yes,yes,delivery,1.0,4.0,delivered
,HIDDEN,,GROUP_REGION_SOUTH_WEST,GROUP_ADMIN,GROUP_REGION_SOUTH,H826,default,uuid:77aa7de8-2a2f-46d6-8c0c-23582b679592,,anonymous,2016-07-11T16:01:59.033000000,COMPLETE,synced,,,-16.25906302,35.2952108,Thyolo,temperate,YONA F. BAMUSI,both,85.0,none,100.0,1028-0043,Chipho,faithbased,8530.0,community_hospital,not_available,none,available,South,South West,no,yes,delivery,1.0,4.0,both
,HIDDEN,,GROUP_REGION_SOUTH_WEST,GROUP_ADMIN,GROUP_REGION_SOUTH,H706,default,uuid:4d41ad99-1a29-4350-ae40-707e7ee56336,,anonymous,2016-07-11T16:01:59.031000000,COMPLETE,synced,,,-16.25561943,34.89131818,Chikwawa,temperate,CHIFUNDO KONDONI,static,35.0,grid,100.0,1023-0018,Illovo Factory,private,1767.0,community_hospital,not_available,more_than_16,not_available,South,South West,yes,yes,delivery,1.0,4.0,both
,HIDDEN,,GROUP_REGION_SOUTH_WEST,GROUP_ADMIN,GROUP_REGION_SOUTH,H695,default,uuid:b16958ad-ace9-4168-9ee4-b679be009121,,anonymous,2016-07-11T16:01:59.047000000,COMPLETE,synced,,,-16.25163522,34.86679113,Chikwawa,temperate,JOSEPHAT MBALE,both,65.0,grid,10.0,1023-0007,Montfort Rural Hospital,faithbased,68993.0,rural_hospital,not_available,more_than_16,not_available,South,South West,yes,yes,delivery,1.0,4.0,both
,HIDDEN,,GROUP_REGION_SOUTH_WEST,GROUP_ADMIN,GROUP_REGION_SOUTH,H819,default,uuid:4860481f-e276-41d7-8126-6fb7d874101f,,anonymous,2016-07-11T16:01:59.019000000,COMPLETE,synced,,,-16.248193,35.16582853,Thyolo,temperate,S. CHIKONJE,both,7.0,none,100.0,1028-0036,Mbalanguzi,public,4517.0,dispensary,not_available,none,available,South,South West,no,yes,delivery,1.0,4.0,both
,HIDDEN,,GROUP_REGION_SOUTH_WEST,GROUP_ADMIN,GROUP_REGION_SOUTH,H707,default,uuid:ef87aea7-e651-4ea0-b8ef-30a106526c3d,,anonymous,2016-07-11T16:01:59.033000000,COMPLETE,synced,,,-16.23899883,34.91083871,Chikwawa,temperate,JOEL KAZEMBE,static,20.0,grid,100.0,1023-0019,Kalulu Clinic,private,3935.0,community_hospital,not_available,more_than_16,not_available,South,South West,yes,yes,delivery,1.0,4.0,delivered
,HIDDEN,,GROUP_REGION_SOUTH_WEST,GROUP_ADMIN,GROUP_REGION_SOUTH,H824,default,uuid:f4a871f7-faf1-47a6-b0cd-3dd21b0e0599,,anonymous,2016-07-11T16:01:59.029000000,COMPLETE,synced,,,-16.23505775,35.19906123,Thyolo,temperate,JOYCE CHIROMO,both,48.0,grid,100.0,1028-0041,Zowa,public,17568.0,community_hospital,available,more_than_16,not_available,South,South West,yes,no,delivery,1.0,4.0,both
,HIDDEN,,GROUP_REGION_SOUTH_WEST,GROUP_ADMIN,GROUP_REGION_SOUTH,H808,default,uuid:f7d3fd88-d08d-4011-9916-024aed4119c6,,anonymous,2016-07-11T16:01:59.031000000,COMPLETE,synced,,,-16.22963055,35.14678172,Thyolo,temperate,MERCY SUPEDI,both,39.0,none,100.0,1028-0025,Changata,public,20600.0,community_hospital,not_available,none,available,South,South West,no,yes,delivery,1.0,4.0,both
,HIDDEN,,GROUP_REGION_SOUTH_WEST,GROUP_ADMIN,GROUP_REGION_SOUTH,H704,default,uuid:0e3ad11e-2e3f-4453-8639-45f255261305,,anonymous,2016-07-11T16:01:59.027000000,COMPLETE,synced,,,-16.22088961,34.68825068,Chikwawa,temperate,GEOFREY TEMBO,both,33.0,none,100.0,1023-0016,Ndakwera Health Centre,public,16354.0,community_hospital,not_available,none,available,South,South West,yes,yes,delivery,1.0,4.0,delivered
,HIDDEN,,GROUP_REGION_SOUTH_WEST,GROUP_ADMIN,GROUP_REGION_SOUTH,H709,default,uuid:d950f76d-d099-42f0-b061-8128c4b5ed33,,anonymous,2016-07-11T16:01:59.040000000,COMPLETE,synced,,,-16.21960806,34.85374142,Chikwawa,temperate,JOSEPH CHIPWA,static,8.0,grid,100.0,1023-0021,Mangulenje Clinic,private,2890.0,community_hospital,not_available,more_than_16,not_available,South,South West,yes,yes,delivery,1.0,4.0,collected
,HIDDEN,,GROUP_REGION_SOUTH_WEST,GROUP_ADMIN,GROUP_REGION_SOUTH,H806,default,uuid:579c62b1-a6e8-4a0c-a969-754c9f3f5220,,anonymous,2016-07-11T16:01:59.027000000,COMPLETE,synced,,,-16.21492295,35.13502701,Thyolo,temperate,WELLINGTON NDILANDE,both,34.0,grid,100.0,1028-0023,St Martins,faithbased,20804.0,community_hospital,not_available,more_than_16,available,South,South West,yes,no,delivery,1.0,4.0,both
,HIDDEN,,GROUP_REGION_SOUTH_WEST,GROUP_ADMIN,GROUP_REGION_SOUTH,H825,default,uuid:8fcf83a5-b012-4124-969b-9a5d60f182ad,,anonymous,2016-07-11T16:01:59.031000000,COMPLETE,synced,,,-16.20424699,35.2949679,Thyolo,temperate,KNOWLWDGE MITEPELA,both,65.0,none,100.0,1028-0042,Sandama,public,8079.0,dispensary,not_available,none,available,South,South West,no,yes,delivery,1.0,4.0,delivered
,HIDDEN,,GROUP_REGION_SOUTH_WEST,GROUP_ADMIN,GROUP_REGION_SOUTH,H712,default,uuid:b8917a37-290f-43bc-a5ec-a5b776cefce3,,anonymous,2016-07-11T16:01:59.047000000,COMPLETE,synced,,,-16.19770547,34.7989318,Chikwawa,temperate,MC MILLAN MAKULUNI,static,30.0,grid,100.0,1023-0024,Lengwe Clinic,private,1507.0,community_hospital,not_available,more_than_16,not_available,South,South West,yes,yes,delivery,1.0,4.0,delivered
,HIDDEN,,GROUP_REGION_SOUTH_WEST,GROUP_ADMIN,GROUP_REGION_SOUTH,H720,default,uuid:fc1e98ae-de32-4482-b32d-fe136564c66e,,anonymous,2016-07-11T16:01:59.025000000,COMPLETE,synced,,,-16.19221117,35.00973126,Chikwawa,temperate,KENNEDY THALA,both,35.0,none,100.0,1023-0032,Makhwira Health Centre,public,56766.0,community_hospital,not_available,none,available,South,South West,yes,yes,delivery,1.0,4.0,delivered
,HIDDEN,,GROUP_REGION_SOUTH_WEST,GROUP_ADMIN,GROUP_REGION_SOUTH,H804,default,uuid:edf8c9ae-ce16-43fd-b8bc-455f43aecaf9,,anonymous,2016-07-11T16:01:59.023000000,COMPLETE,synced,,,-16.19203032,35.10495381,Thyolo,temperate,ANDREW LIKAGWA,static,5.0,grid,100.0,1028-0021,Makwasa,private,1117.0,community_hospital,not_available,more_than_16,not_available,South,South West,yes,no,delivery,1.0,4.0,collected
,HIDDEN,,GROUP_REGION_SOUTH_WEST,GROUP_ADMIN,GROUP_REGION_SOUTH,H708,default,uuid:88147734-1f84-4c39-90f5-d917eecc96e6,,anonymous,2016-07-11T16:01:59.035000000,COMPLETE,synced,,,-16.18664989,34.87982204,Chikwawa,temperate,CHARLES CHILOKOTENI,static,12.0,grid,100.0,1023-0020,Mwanza Clinic,private,3796.0,community_hospital,not_available,more_than_16,not_available,South,South West,yes,yes,delivery,1.0,4.0,delivered
,HIDDEN,,GROUP_REGION_SOUTH_WEST,GROUP_ADMIN,GROUP_REGION_SOUTH,H788,default,uuid:e246a123-cb25-48a1-9c41-7c35c8737191,,anonymous,2016-07-11T16:01:59.025000000,COMPLETE,synced,,,-16.17904207,35.27898952,Thyolo,temperate,CHANCY MBEWE,both,27.0,none,100.0,1028-0005,Makapwa,private,9899.0,community_hospital,not_available,none,available,South,South West,yes,no,delivery,1.0,4.0,both
,HIDDEN,,GROUP_REGION_SOUTH_WEST,GROUP_ADMIN,GROUP_REGION_SOUTH,H807,default,uuid:39a9d612-f197-4592-b4a6-77a09ccf7fbb,,anonymous,2016-07-11T16:01:59.029000000,COMPLETE,synced,,,-16.17856477,35.19028231,Thyolo,temperate,NDY M KAPOMBEZA,both,9.0,none,100.0,1028-0024,Malosa Health Post,public,4154.0,dispensary,not_available,none,not_available,South,South West,no,yes,delivery,1.0,4.0,collected
,HIDDEN,,GROUP_REGION_SOUTH_WEST,GROUP_ADMIN,GROUP_REGION_SOUTH,H805,default,uuid:37db9033-9eb3-4d35-833a-6ce14d44a586,,anonymous,2016-07-11T16:01:59.025000000,COMPLETE,synced,,,-16.1685131,35.10940713,Thyolo,temperate,LUCY MACHEYA,none,20.0,grid,10.0,1028-0022,Malamulo,faithbased,39661.0,rural_hospital,not_available,more_than_16,not_available,South,South West,yes,no,delivery,1.0,4.0,both
,HIDDEN,,GROUP_REGION_SOUTH_EAST,GROUP_ADMIN,GROUP_REGION_SOUTH,H580,default,uuid:589d1b52-a13a-411c-948d-4d1176ef6ab6,,anonymous,2016-07-11T16:01:59.017000000,COMPLETE,synced,,,-16.15390597,35.34007544,Mulanje,temperate,KATOWA KAYANGE,both,40.0,none,100.0,1019-0021,Chinyama Health Centre,public,22834.0,community_hospital,not_available,none,available,South,South East,yes,yes,delivery,1.0,4.0,delivered
,HIDDEN,,GROUP_REGION_SOUTH_WEST,GROUP_ADMIN,GROUP_REGION_SOUTH,H699,default,uuid:676cf248-4084-49c1-8b47-e5b4d8e147ca,,anonymous,2016-07-11T16:01:59.017000000,COMPLETE,synced,,,-16.14924911,34.85302861,Chikwawa,temperate,CHRISPINE KADANGO,both,15.0,none,100.0,1023-0011,Bereu Dispensary,public,16366.0,health_center,not_available,none,available,South,South West,yes,yes,delivery,1.0,4.0,both
,HIDDEN,,GROUP_REGION_SOUTH_WEST,GROUP_ADMIN,GROUP_REGION_SOUTH,H705,default,uuid:063949d0-70a5-43fc-bc72-1f6865f662c6,,anonymous,2016-07-11T16:01:59.029000000,COMPLETE,synced,,,-16.1466513,34.67910188,Chikwawa,temperate,VICTOR CHIPHUKIRE,both,15.0,none,100.0,1023-0017,Mandrade Health Post,public,6673.0,dispensary,not_available,none,available,South,South West,yes,yes,delivery,1.0,4.0,delivered
,HIDDEN,,GROUP_REGION_SOUTH_WEST,GROUP_ADMIN,GROUP_REGION_SOUTH,H719,default,uuid:dbffa860-628d-4f7b-afc5-5533b7ed6271,,anonymous,2016-07-11T16:01:59.023000000,COMPLETE,synced,,,-16.14402624,34.95811724,Chikwawa,temperate,DECKS JAM,both,22.0,none,100.0,1023-0031,Mkhathe Health Post,public,15000.0,dispensary,not_available,none,available,South,South West,yes,yes,delivery,1.0,4.0,delivered
,HIDDEN,,GROUP_REGION_SOUTH_WEST,GROUP_ADMIN,GROUP_REGION_SOUTH,H823,default,uuid:a5ee5518-1702-4129-951c-6685eeb1f5c0,,anonymous,2016-07-11T16:01:59.027000000,COMPLETE,synced,,,-16.1420465,35.18237418,Thyolo,temperate,PATRICK CHILENGA,both,15.0,none,100.0,1028-0040,Namalime,public,8811.0,dispensary,not_available,none,not_available,South,South West,no,yes,delivery,1.0,4.0,delivered
,HIDDEN,,GROUP_REGION_SOUTH_EAST,GROUP_ADMIN,GROUP_REGION_SOUTH,H562,default,uuid:eb02a7ef-d798-40a4-baaa-5f2349584349,,anonymous,2016-07-11T16:01:59.016000000,COMPLETE,synced,,,-16.14115446,35.52411552,Mulanje,temperate,CHRISTOPHER CHIWANDA,both,14.0,grid,100.0,1019-0003,Mpala,public,24386.0,community_hospital,not_available,more_than_16,not_available,South,South East,yes,yes,delivery,1.0,4.0,both
,HIDDEN,,GROUP_REGION_SOUTH_WEST,GROUP_ADMIN,GROUP_REGION_SOUTH,H803,default,uuid:70e4f20b-9193-4412-ba33-fed429268966,,anonymous,2016-07-11T16:01:59.022000000,COMPLETE,synced,,,-16.13713192,35.09774519,Thyolo,temperate,GLADYS CHIMWALA,static,15.0,grid,100.0,1028-0020,Sambankhanga,private,1900.0,community_hospital,not_available,more_than_16,not_available,South,South West,yes,no,delivery,1.0,4.0,both
,HIDDEN,,GROUP_REGION_SOUTH_WEST,GROUP_ADMIN,GROUP_REGION_SOUTH,H802,default,uuid:88ca1f30-ff87-409a-b224-7dfe8b21e7e6,,anonymous,2016-07-11T16:01:59.019000000,COMPLETE,synced,,,-16.12390616,35.08374433,Thyolo,temperate,MICHAEL SABOLA,both,11.0,grid,100.0,1028-0019,Mtambanyama,faithbased,13180.0,community_hospital,not_available,more_than_16,not_available,South,South West,yes,no,delivery,1.0,4.0,delivered
,HIDDEN,,GROUP_REGION_SOUTH_WEST,GROUP_ADMIN,GROUP_REGION_SOUTH,H800,default,uuid:9fe0e86f-948e-423d-9a57-bd4b966878c1,,anonymous,2016-07-11T16:01:59.016000000,COMPLETE,synced,,,-16.11743706,35.09756593,Thyolo,temperate,DICK CHISONI,static,8.0,grid,100.0,1028-0017,Kasembeleka,private,1500.0,community_hospital,not_available,more_than_16,not_available,South,South West,yes,no,delivery,1.0,4.0,collected
,HIDDEN,,GROUP_REGION_SOUTH_EAST,GROUP_ADMIN,GROUP_REGION_SOUTH,H581,default,uuid:ee9203c1-7d28-4b5d-96e3-2d5b0ce24d2d,,anonymous,2016-07-11T16:01:59.019000000,COMPLETE,synced,,,-16.11431366,35.40480135,Mulanje,temperate,STEPHEN NAZOMBE,both,38.0,none,100.0,1019-0022,Dzenje Maternity,public,5811.0,health_post,not_available,none,available,South,South East,yes,yes,delivery,1.0,4.0,both
,HIDDEN,,GROUP_REGION_SOUTH_WEST,GROUP_ADMIN,GROUP_REGION_SOUTH,H821,default,uuid:41ad7152-f624-46f4-ba66-d01d6d23437b,,anonymous,2016-07-11T16:01:59.023000000,COMPLETE,synced,,,-16.11119331,35.13949309,Thyolo,temperate,MEDSON MWANAKHU,static,5.0,grid,100.0,1028-0038,Nchima,private,1804.0,community_hospital,not_available,more_than_16,not_available,South,South West,yes,no,delivery,1.0,4.0,collected
,HIDDEN,,GROUP_REGION_SOUTH_WEST,GROUP_ADMIN,GROUP_REGION_SOUTH,H789,default,uuid:365526ec-3680-4da5-a41d-4c565b2a627b,,anonymous,2016-07-11T16:01:59.027000000,COMPLETE,synced,,,-16.10833348,35.24467695,Thyolo,temperate,MERCY DAIMONI,both,16.0,grid,100.0,1028-0006,Mitengo,faithbased,14053.0,community_hospital,not_available,more_than_16,not_available,South,South West,yes,no,delivery,1.0,4.0,delivered
,HIDDEN,,GROUP_REGION_SOUTH_WEST,GROUP_ADMIN,GROUP_REGION_SOUTH,H718,default,uuid:4c0d9133-2de3-41b5-ad88-8449be293ac7,,anonymous,2016-07-11T16:01:59.022000000,COMPLETE,synced,,,-16.10264537,34.91491197,Chikwawa,temperate,HISTONE ARAN MKONE,both,23.0,grid,100.0,1023-0030,Mapelera Health Health,public,12842.0,community_hospital,not_available,8_to_16,not_available,South,South West,yes,yes,delivery,1.0,4.0,delivered
,HIDDEN,,GROUP_REGION_SOUTH_EAST,GROUP_ADMIN,GROUP_REGION_SOUTH,H561,default,uuid:2da5720d-8039-42c6-91ba-e7130c6151e7,,anonymous,2016-07-11T16:01:59.051000000,COMPLETE,synced,,,-16.09970574,35.47757353,Mulanje,temperate,CHARLES MALEMBA,both,16.0,none,100.0,1019-0002,Milonde,public,16722.0,community_hospital,not_available,none,irregular,South,South East,yes,yes,delivery,1.0,4.0,both
,HIDDEN,,GROUP_REGION_SOUTH_WEST,GROUP_ADMIN,GROUP_REGION_SOUTH,H814,default,uuid:70ab4b6e-2c0d-412f-9040-50126d6dff4b,,anonymous,2016-07-11T16:01:59.047000000,COMPLETE,synced,,,-16.09932326,34.99649395,Thyolo,temperate,MWESIYANI PHIRI,both,17.0,none,100.0,1028-0031,Dzimbiri,public,23000.0,dispensary,not_available,none,available,South,South West,no,yes,delivery,1.0,4.0,delivered
,HIDDEN,,GROUP_REGION_SOUTH_WEST,GROUP_ADMIN,GROUP_REGION_SOUTH,H801,default,uuid:d84f693a-1c4f-4596-9893-907cd93d6c7a,,anonymous,2016-07-11T16:01:59.017000000,COMPLETE,synced,,,-16.09614744,35.07471615,Thyolo,temperate,RICHARD YUDAHRIX,both,9.0,grid,100.0,1028-0018,Mianga,public,1159.0,community_hospital,not_available,more_than_16,not_available,South,South West,yes,no,delivery,1.0,4.0,both
,HIDDEN,,GROUP_REGION_SOUTH_WEST,GROUP_ADMIN,GROUP_REGION_SOUTH,H696,default,uuid:14a66477-bb4b-43f1-9d77-4255db74c57d,,anonymous,2016-07-11T16:01:59.049000000,COMPLETE,synced,,,-16.09571036,34.62286729,Chikwawa,temperate,EMANUEL KAMANGA,both,25.0,grid,100.0,1023-0008,Kakoma Health Centre,public,21835.0,community_hospital,not_available,more_than_16,not_available,South,South West,yes,yes,delivery,1.0,4.0,delivered
,HIDDEN,,GROUP_REGION_SOUTH_WEST,GROUP_ADMIN,GROUP_REGION_SOUTH,H787,default,uuid:bf46ccec-69d8-40d8-9440-5e5641fcb96c,,anonymous,2016-07-11T16:01:59.023000000,COMPLETE,synced,,,-16.09383747,35.27078197,Thyolo,temperate,RODGERS B BENDULO,both,20.0,grid,100.0,1028-0004,Khonjeni,public,29752.0,community_hospital,not_available,more_than_16,available,South,South West,yes,no,delivery,1.0,4.0,both
,HIDDEN,,GROUP_REGION_SOUTH_EAST,GROUP_ADMIN,GROUP_REGION_SOUTH,H579,default,uuid:cba6ddc8-a8df-4393-88fc-ecb931538c29,,anonymous,2016-07-11T16:01:59.016000000,COMPLETE,synced,,,-16.09007748,35.34539058,Mulanje,temperate,MCHONEY KULISEMBA,both,28.0,none,100.0,1019-0020,Mbiza Health Centre,public,35250.0,community_hospital,not_available,none,available,South,South East,yes,yes,delivery,1.0,4.0,both
,HIDDEN,,GROUP_REGION_SOUTH_EAST,GROUP_ADMIN,GROUP_REGION_SOUTH,H564,default,uuid:f6ed740c-dcb3-42e2-ab76-d0c7fd145f54,,anonymous,2016-07-11T16:01:59.019000000,COMPLETE,synced,,,-16.087063,35.66424001,Mulanje,temperate,ON MAFERAWYS,both,24.0,grid,100.0,1019-0005,Rou Estate Dispensary,private,1640.0,community_hospital,not_available,more_than_16,not_available,South,South East,yes,yes,delivery,1.0,4.0,both
,HIDDEN,,GROUP_REGION_SOUTH_EAST,GROUP_ADMIN,GROUP_REGION_SOUTH,H582,default,uuid:d293f1d6-3e13-4608-8788-a1b938930ebf,,anonymous,2016-07-11T16:01:59.022000000,COMPLETE,synced,,,-16.08467893,35.43315659,Mulanje,temperate,ISHMAEL MATOLA,both,20.0,none,100.0,1019-0023,Thembe Dispensary,faithbased,13675.0,community_hospital,not_available,none,irregular,South,South East,yes,yes,delivery,1.0,8.0,both
,HIDDEN,,GROUP_REGION_SOUTH_EAST,GROUP_ADMIN,GROUP_REGION_SOUTH,H563,default,uuid:4f2af947-6315-4cca-97bb-08dfc5653138,,anonymous,2016-07-11T16:01:59.017000000,COMPLETE,synced,,,-16.08309619,35.61168529,Mulanje,temperate,AMES KAUNDA,both,15.0,grid,100.0,1019-0004,Mimosa Dispensary,public,24976.0,health_center,not_available,more_than_16,not_available,South,South East,no,yes,delivery,1.0,4.0,collected
,HIDDEN,,GROUP_REGION_SOUTH_EAST,GROUP_ADMIN,GROUP_REGION_SOUTH,H565,default,uuid:8018dcac-a186-4fe5-bff6-32ba56192a44,,anonymous,2016-07-11T16:01:59.022000000,COMPLETE,synced,,,-16.07765716,35.71478221,Mulanje,temperate,IKELO,both,20.0,grid,100.0,1019-0006,Namasalima Healt Centre,faithbased,21285.0,community_hospital,not_available,more_than_16,not_available,South,South East,yes,yes,delivery,1.0,4.0,both
,HIDDEN,,GROUP_REGION_SOUTH_WEST,GROUP_ADMIN,GROUP_REGION_SOUTH,H796,default,uuid:ff5e987a-7842-4e8a-8f9b-f8b40a5c7700,,anonymous,2016-07-11T16:01:59.044000000,COMPLETE,synced,,,-16.07431917,35.07554551,Thyolo,temperate,ELLEN C GAMA,static,6.0,grid,100.0,1028-0013,Satemwa,private,7860.0,community_hospital,not_available,more_than_16,not_available,South,South West,yes,no,delivery,1.0,4.0,both
,HIDDEN,,GROUP_REGION_SOUTH_WEST,GROUP_ADMIN,GROUP_REGION_SOUTH,H717,default,uuid:7bb2b92c-1938-49da-a5a3-c4fc37e13362,,anonymous,2016-07-11T16:01:59.019000000,COMPLETE,synced,,,-16.0656019,34.86634496,Chikwawa,temperate,GRANT MPEMBELERA,both,17.0,grid,100.0,1023-0029,Mfera Health Centre,public,28099.0,community_hospital,not_available,more_than_16,not_available,South,South West,yes,yes,delivery,1.0,4.0,both
,HIDDEN,,GROUP_REGION_SOUTH_WEST,GROUP_ADMIN,GROUP_REGION_SOUTH,H783,default,uuid:c1da9c8e-3de5-4853-8e66-e972b28aa3c1,,anonymous,2016-07-11T16:01:59.016000000,COMPLETE,synced,,,-16.06538631,35.14668341,Thyolo,temperate,PJ NKHANU,none,35.0,grid,100.0,1028-0000,Thyolo District Hospital Vaccine Store,public,632624.0,regional_vaccine_store,not_available,more_than_16,not_available,South,South West,yes,no,depot,1.0,4.0,collected
,HIDDEN,,GROUP_REGION_SOUTH_WEST,GROUP_ADMIN,GROUP_REGION_SOUTH,H786,default,uuid:f2169cec-7b59-49c8-8997-6e1e02be543d,,anonymous,2016-07-11T16:01:59.022000000,COMPLETE,synced,,,-16.06533414,35.25026718,Thyolo,temperate,JOHN NYEZELELA,both,15.0,grid,100.0,1028-0003,Mafis,private,2298.0,community_hospital,not_available,more_than_16,not_available,South,South West,yes,no,delivery,1.0,4.0,both
,HIDDEN,,GROUP_REGION_SOUTH_EAST,GROUP_ADMIN,GROUP_REGION_SOUTH,H566,default,uuid:d00dda67-7b31-4e85-81df-bf4d72bb500d,,anonymous,2016-07-11T16:01:59.023000000,COMPLETE,synced,,,-16.05985583,35.76136311,Mulanje,temperate,FREDSON PINDANI,both,32.0,none,100.0,1019-0007,Muloza Health Centre,public,43604.0,community_hospital,not_available,none,available,South,South East,yes,yes,delivery,1.0,4.0,collected
,HIDDEN,,GROUP_REGION_SOUTH_WEST,GROUP_ADMIN,GROUP_REGION_SOUTH,H784,default,uuid:df1c48a3-fa3d-4b18-a40a-38ccfd471698,,anonymous,2016-07-11T16:01:59.017000000,COMPLETE,synced,,,-16.05821451,35.77096061,Thyolo,temperate,PJ NKHANU,both,0.0,grid,10.0,1028-0001,Thyolo Dho,public,70000.0,central_hospital,not_available,more_than_16,not_available,South,South West,yes,no,delivery,1.0,4.0,both
,HIDDEN,,GROUP_REGION_SOUTH_WEST,GROUP_ADMIN,GROUP_REGION_SOUTH,H812,default,uuid:f10d39bb-a8f7-45be-b4ad-2d78ddb6d605,,anonymous,2016-07-11T16:01:59.042000000,COMPLETE,synced,,,-16.05449833,35.00605409,Thyolo,temperate,RICHARD PHIRI,both,14.0,grid,100.0,1028-0029,Chisinkha,public,4223.0,dispensary,not_available,more_than_16,not_available,South,South West,yes,no,delivery,1.0,4.0,delivered
,HIDDEN,,GROUP_REGION_SOUTH_WEST,GROUP_ADMIN,GROUP_REGION_SOUTH,H822,default,uuid:064456ab-32b3-4d15-95a6-0273606a0718,,anonymous,2016-07-11T16:01:59.025000000,COMPLETE,synced,,,-16.04807877,35.15354259,Thyolo,temperate,JAMES W PHIRI,both,2.0,grid,100.0,1028-0039,Conforzi,private,5116.0,community_hospital,not_available,more_than_16,not_available,South,South West,yes,no,delivery,1.0,4.0,delivered
,HIDDEN,,GROUP_REGION_SOUTH_EAST,GROUP_ADMIN,GROUP_REGION_SOUTH,H585,default,uuid:f17c4799-fefc-4aa6-bfd4-656d6e9cb70a,,anonymous,2016-07-11T16:01:59.027000000,COMPLETE,synced,,,-16.03997538,35.61319606,Mulanje,temperate,ODGERS NYIRENDA,both,17.0,none,100.0,1019-0026,Bondo Health Centre,public,22324.0,community_hospital,not_available,none,irregular,South,South East,yes,yes,delivery,1.0,4.0,both
,HIDDEN,,GROUP_REGION_SOUTH_EAST,GROUP_ADMIN,GROUP_REGION_SOUTH,H567,default,uuid:87238e4b-a28f-4e66-9198-d6bf2f084485,,anonymous,2016-07-11T16:01:59.025000000,COMPLETE,synced,,,-16.0382418,35.70629046,Mulanje,temperate,MOSES NGAMAME,static,68.0,grid,100.0,1019-0008,Chisambo Dispensary,private,1560.0,community_hospital,not_available,more_than_16,not_available,South,South East,yes,yes,delivery,1.0,4.0,collected
,HIDDEN,,GROUP_REGION_SOUTH_WEST,GROUP_ADMIN,GROUP_REGION_SOUTH,H797,default,uuid:14f06581-3bb5-41b0-806e-16ec707f3111,,anonymous,2016-07-11T16:01:59.047000000,COMPLETE,synced,,,-16.03733091,35.08926072,Thyolo,temperate,JOHN NYEZERERA,both,5.0,grid,100.0,1028-0014,Namingomba,private,6000.0,community_hospital,not_available,more_than_16,not_available,South,South West,yes,no,delivery,1.0,4.0,collected
,HIDDEN,,GROUP_REGION_SOUTH_WEST,GROUP_ADMIN,GROUP_REGION_SOUTH,H697,default,uuid:e4422733-2bcb-4a81-83b2-813a0356fac6,,anonymous,2016-07-11T16:01:59.051000000,COMPLETE,synced,,,-16.03523692,34.53645778,Chikwawa,temperate,DUNCAN NYALUGWE,static,42.0,grid,100.0,1023-0009,Misomali Health Centre,faithbased,7692.0,community_hospital,not_available,more_than_16,not_available,South,South West,yes,yes,delivery,1.0,4.0,delivered
,HIDDEN,,GROUP_REGION_SOUTH_EAST,GROUP_ADMIN,GROUP_REGION_SOUTH,H568,default,uuid:8f12ecda-9b5f-4c07-9f6d-35a0ea19010a,,anonymous,2016-07-11T16:01:59.027000000,COMPLETE,synced,,,-16.03365481,35.67815461,Mulanje,temperate,ANDREW MUMBULU,both,35.0,none,100.0,1019-0009,Naphimba,public,16597.0,community_hospital,not_available,none,available,South,South East,yes,yes,delivery,1.0,4.0,delivered
,HIDDEN,,GROUP_REGION_SOUTH_WEST,GROUP_ADMIN,GROUP_REGION_SOUTH,H815,default,uuid:12813d71-cbba-4ec2-80c1-14728788e74a,,anonymous,2016-07-11T16:01:59.049000000,COMPLETE,synced,,,-16.02602339,34.9782262,Thyolo,temperate,ALEX WILSON BANDA,both,78.0,none,100.0,1028-0032,Thomas,faithbased,21878.0,community_hospital,not_available,none,not_available,South,South West,no,yes,delivery,1.0,4.0,both
,HIDDEN,,GROUP_REGION_SOUTH_WEST,GROUP_ADMIN,GROUP_REGION_SOUTH,H785,default,uuid:bcfa8190-7f06-46b0-b53d-cc8471038eaa,,anonymous,2016-07-11T16:01:59.019000000,COMPLETE,synced,,,-16.02599656,35.26073635,Thyolo,temperate,JANET NISALA,both,19.0,grid,100.0,1028-0002,Mangunda,public,51389.0,community_hospital,not_available,more_than_16,available,South,South West,no,yes,delivery,1.0,4.0,delivered
,HIDDEN,,GROUP_REGION_SOUTH_EAST,GROUP_ADMIN,GROUP_REGION_SOUTH,H569,default,uuid:33de74b2-e61a-4236-af64-95d9203564b1,,anonymous,2016-07-11T16:01:59.029000000,COMPLETE,synced,,,-16.02576856,35.65429062,Mulanje,temperate,HUSSEIN ASIMA,both,25.0,grid,100.0,1019-0010,Lujeri Tea Estate,private,14000.0,community_hospital,not_available,more_than_16,not_available,South,South East,yes,yes,delivery,1.0,4.0,collected
,HIDDEN,,GROUP_REGION_SOUTH_EAST,GROUP_ADMIN,GROUP_REGION_SOUTH,H559,default,uuid:9cf9262d-ce20-4c29-8c24-8b5727f92749,,anonymous,2016-07-11T16:01:59.047000000,COMPLETE,synced,,,-16.02290919,35.50682868,Mulanje,temperate,MC NEVER MWANGO,both,85.0,grid,10.0,1019-0000,Mulanje District Hospital,public,30908.0,central_hospital,irregular,more_than_16,available,South,South East,no,yes,delivery,1.0,4.0,delivered
,HIDDEN,,GROUP_REGION_SOUTH_WEST,GROUP_ADMIN,GROUP_REGION_SOUTH,H688,default,uuid:51b5279a-4d73-4813-8139-8ac4270cb8a1,,anonymous,2016-07-11T16:01:59.029000000,COMPLETE,synced,,,-16.02062886,34.79207577,Chikwawa,temperate,FINLY KALINDO,none,50.0,grid,100.0,1023-0000,Chikhwawa District Vaccine Store,public,467130.0,regional_vaccine_store,not_available,more_than_16,not_available,South,South West,yes,yes,depot,1.0,4.0,collected
,HIDDEN,,GROUP_REGION_SOUTH_EAST,GROUP_ADMIN,GROUP_REGION_SOUTH,H583,default,uuid:9ae90c8a-7994-40fb-a2d2-4c114e74810c,,anonymous,2016-07-11T16:01:59.023000000,COMPLETE,synced,,,-16.01816572,35.46403951,Mulanje,temperate,MINUS MPHANDO,both,7.0,grid,10.0,1019-0024,Mulanje Mission Hospital,faithbased,49296.0,rural_hospital,not_available,more_than_16,not_available,South,South East,yes,yes,delivery,1.0,4.0,both
,HIDDEN,,GROUP_REGION_SOUTH_WEST,GROUP_ADMIN,GROUP_REGION_SOUTH,H816,default,uuid:8cbc77cc-49f1-4f9b-ad38-8724e8342bec,,anonymous,2016-07-11T16:01:59.051000000,COMPLETE,synced,,,-16.015084,35.03111753,Thyolo,temperate,MARGARET T. MNENULA,both,7.0,grid,100.0,1028-0033,Chisunga,private,3500.0,community_hospital,not_available,more_than_16,not_available,South,South West,yes,no,delivery,1.0,4.0,collected
,HIDDEN,,GROUP_REGION_SOUTH_WEST,GROUP_ADMIN,GROUP_REGION_SOUTH,H698,default,uuid:f1a55a44-4103-4c76-8355-9736b3dc9a39,,anonymous,2016-07-11T16:01:59.016000000,COMPLETE,synced,,,-16.00248764,34.4846103,Chikwawa,temperate,HELRICK LOCKIE,both,50.0,none,100.0,1023-0010,Chapananga Health Centre,public,13671.0,community_hospital,not_available,none,available,South,South West,yes,yes,delivery,1.0,4.0,delivered
,HIDDEN,,GROUP_REGION_SOUTH_EAST,GROUP_ADMIN,GROUP_REGION_SOUTH,H584,default,uuid:2a2172e6-e78a-4ce9-b97a-bb16a4474eb6,,anonymous,2016-07-11T16:01:59.025000000,COMPLETE,synced,,,-15.99835962,35.43199663,Mulanje,temperate,JANE MWAFULIRWA,both,10.0,grid,100.0,1019-0025,Chisitu Dispensary,public,2498.0,health_center,not_available,more_than_16,not_available,South,South East,yes,yes,delivery,1.0,4.0,delivered
,HIDDEN,,GROUP_REGION_SOUTH_WEST,GROUP_ADMIN,GROUP_REGION_SOUTH,H798,default,uuid:7366cad1-1965-4890-ae70-9624884bf48b,,anonymous,2016-07-11T16:01:59.049000000,COMPLETE,synced,,,-15.99455739,35.11517567,Thyolo,temperate,RABECCA KAIRA,static,8.0,grid,100.0,1028-0015,Mindali,private,1512.0,community_hospital,not_available,more_than_16,not_available,South,South West,yes,no,delivery,1.0,4.0,collected
,HIDDEN,,GROUP_REGION_SOUTH_EAST,GROUP_ADMIN,GROUP_REGION_SOUTH,H578,default,uuid:8bbaff29-e856-4a21-9673-5f813af0bf94,,anonymous,2016-07-11T16:01:59.051000000,COMPLETE,synced,,,-15.99455584,35.32266085,Mulanje,temperate,LIZZIE MUMBA,both,39.0,grid,100.0,1019-0019,Chonde Health Centre,public,42814.0,community_hospital,not_available,more_than_16,not_available,South,South East,yes,yes,delivery,1.0,4.0,both
,HIDDEN,,GROUP_REGION_SOUTH_WEST,GROUP_ADMIN,GROUP_REGION_SOUTH,H817,default,uuid:44e5376c-b029-46f9-90b8-ded9e4bab7dc,,anonymous,2016-07-11T16:01:59.016000000,COMPLETE,synced,,,-15.98939747,35.03095132,Thyolo,temperate,DEXFORD CHIDULE,both,14.0,grid,100.0,1028-0034,Amalika,public,31432.0,health_center,not_available,more_than_16,not_available,South,South West,no,yes,delivery,1.0,4.0,both
,HIDDEN,,GROUP_REGION_SOUTH_WEST,GROUP_ADMIN,GROUP_REGION_SOUTH,H722,default,uuid:05ce7ee1-7298-41dd-a37e-1cf4a21cf2ab,,anonymous,2016-07-11T16:01:59.029000000,COMPLETE,synced,,,-15.98208633,34.8051936,Chikwawa,temperate,CONNEX MALONDA,both,10.0,none,100.0,1023-0034,Kavalo Health Post,public,4240.0,dispensary,not_available,none,available,South,South West,yes,yes,delivery,1.0,4.0,delivered
,HIDDEN,,GROUP_REGION_SOUTH_WEST,GROUP_ADMIN,GROUP_REGION_SOUTH,H795,default,uuid:38368778-b5d9-4bfc-9f0f-9e6b3d0fa7b1,,anonymous,2016-07-11T16:01:59.042000000,COMPLETE,synced,,,-15.97438547,35.18086473,Thyolo,temperate,PAUL GUDU,both,15.0,none,100.0,1028-0012,Chimaliro,public,42021.0,community_hospital,not_available,none,available,South,South West,no,yes,delivery,1.0,4.0,both
,HIDDEN,,GROUP_REGION_SOUTH_WEST,GROUP_ADMIN,GROUP_REGION_SOUTH,H741,default,uuid:32d9383b-8861-4d46-970e-520189972c23,,anonymous,2016-07-11T16:01:59.033000000,COMPLETE,synced,,,-15.96785671,35.30954954,Chiladzulu,temperate,OTIS SITIMA,both,50.0,none,100.0,1024-0014,Nkalo Health Centre,public,32129.0,community_hospital,not_available,none,available,South,South West,yes,yes,delivery,1.0,4.0,delivered
,HIDDEN,,GROUP_REGION_SOUTH_WEST,GROUP_ADMIN,GROUP_REGION_SOUTH,H650,default,uuid:67226e3f-8d55-4094-80d7-f9f770119963,,anonymous,2016-07-11T16:01:59.022000000,COMPLETE,synced,,,-15.96776905,34.90822548,Blantyre,temperate,JOE DZIMBASEKWA,both,40.0,none,100.0,1022-0007,Madziabango,public,9553.0,community_hospital,not_available,none,available,South,South West,yes,yes,delivery,1.0,4.0,delivered
,HIDDEN,,GROUP_REGION_SOUTH_WEST,GROUP_ADMIN,GROUP_REGION_SOUTH,H791,default,uuid:34687757-6e0c-4224-af64-c70fc2bee641,,anonymous,2016-07-11T16:01:59.031000000,COMPLETE,synced,,,-15.93920924,35.12239192,Thyolo,temperate,SAMUEL R KAMBONA,both,15.0,grid,100.0,1028-0008,Chimvu,public,17037.0,community_hospital,not_available,more_than_16,available,South,South West,no,yes,delivery,1.0,4.0,collected
,HIDDEN,,GROUP_REGION_SOUTH_WEST,GROUP_ADMIN,GROUP_REGION_SOUTH,H794,default,uuid:206f426a-a71b-4d2a-86ad-ec95c99c26d8,,anonymous,2016-07-11T16:01:59.040000000,COMPLETE,synced,,,-15.93907828,35.20827213,Thyolo,temperate,PW TAIBU,static,18.0,grid,10.0,1028-0011,Chitsoka,public,19172.0,district_hospital,not_available,more_than_16,not_available,South,South West,no,yes,delivery,1.0,4.0,delivered
,HIDDEN,,GROUP_REGION_SOUTH_WEST,GROUP_ADMIN,GROUP_REGION_SOUTH,H813,default,uuid:fa285d4f-89a7-407c-84ac-9ca184313f63,,anonymous,2016-07-11T16:01:59.044000000,COMPLETE,synced,,,-15.93718494,35.02570902,Thyolo,temperate,JAMES MALEULE,both,23.0,grid,100.0,1028-0030,Makungwa,public,17195.0,community_hospital,not_available,more_than_16,not_available,South,South West,no,yes,delivery,1.0,4.0,both
,HIDDEN,,GROUP_REGION_SOUTH_EAST,GROUP_ADMIN,GROUP_REGION_SOUTH,H589,default,uuid:05882425-b14d-41e5-9546-2e2a3c900540,,anonymous,2016-07-11T16:01:59.035000000,COMPLETE,synced,,,-15.9302897,35.76565982,Phalombe,temperate,AARON KADZUWA,both,50.0,none,100.0,1020-0003,Sukasanje,faithbased,11269.0,community_hospital,not_available,none,available,South,South East,yes,yes,delivery,1.0,4.0,delivered
,HIDDEN,,GROUP_REGION_SOUTH_WEST,GROUP_ADMIN,GROUP_REGION_SOUTH,H790,default,uuid:e7d7ec4c-5921-4bd9-9288-942e0f795551,,anonymous,2016-07-11T16:01:59.029000000,COMPLETE,synced,,,-15.92566592,35.07686821,Thyolo,temperate,JONATHAN BENESI,both,15.0,grid,100.0,1028-0007,Bvumbwe,public,53836.0,community_hospital,not_available,more_than_16,not_available,South,South West,yes,no,delivery,1.0,4.0,both
,HIDDEN,,GROUP_REGION_SOUTH_EAST,GROUP_ADMIN,GROUP_REGION_SOUTH,H577,default,uuid:a7ec8e00-fc22-4c6f-872b-d75804f3dfc1,,anonymous,2016-07-11T16:01:59.049000000,COMPLETE,synced,,,-15.91640985,35.36104624,Mulanje,temperate,OSCAR STONKEN,both,17.0,none,100.0,1019-0018,Thuchila Health Centre,public,35401.0,community_hospital,not_available,none,available,South,South East,yes,yes,delivery,1.0,4.0,both
,HIDDEN,,GROUP_REGION_SOUTH_WEST,GROUP_ADMIN,GROUP_REGION_SOUTH,H793,default,uuid:092feeb7-6382-4889-a3fd-f48e5b50813a,,anonymous,2016-07-11T16:01:59.035000000,COMPLETE,synced,,,-15.9156277,35.2052707,Thyolo,temperate,RICHARD MALATA,both,20.0,grid,10.0,1028-0010,Chingazi,faithbased,8161.0,hospital,not_available,more_than_16,available,South,South West,no,yes,delivery,1.0,4.0,collected
,HIDDEN,,GROUP_REGION_SOUTH_WEST,GROUP_ADMIN,GROUP_REGION_SOUTH,H651,default,uuid:988ba491-ed7a-41f6-8156-7699a97aee84,,anonymous,2016-07-11T16:01:59.023000000,COMPLETE,synced,,,-15.91427141,34.95006756,Blantyre,temperate,BENJAMIN BIKA,both,18.0,grid,100.0,1022-0008,St Vincent,faithbased,13876.0,community_hospital,not_available,more_than_16,not_available,South,South West,yes,yes,delivery,1.0,4.0,delivered
,HIDDEN,,GROUP_REGION_SOUTH_WEST,GROUP_ADMIN,GROUP_REGION_SOUTH,H723,default,uuid:8ad125e5-ac05-441c-9d4c-2df0fa8fd197,,anonymous,2016-07-11T16:01:59.031000000,COMPLETE,synced,,,-15.90537865,34.39329171,Chikwawa,temperate,ZEX CHIGUDU,both,15.0,none,100.0,1023-0035,Kubalalika Health Post,public,7203.0,dispensary,not_available,none,available,South,South West,yes,yes,delivery,1.0,4.0,delivered
,HIDDEN,,GROUP_REGION_SOUTH_EAST,GROUP_ADMIN,GROUP_REGION_SOUTH,H570,default,uuid:ce0d59ef-69d7-4788-a828-e24f445a2813,,anonymous,2016-07-11T16:01:59.031000000,COMPLETE,synced,,,-15.90049312,35.48966137,Mulanje,temperate,EDSON MLETSENI,both,14.0,none,100.0,1019-0011,Chambe Health Centre,public,45000.0,community_hospital,not_available,none,available,South,South East,yes,yes,delivery,1.0,4.0,delivered
,HIDDEN,,GROUP_REGION_SOUTH_WEST,GROUP_ADMIN,GROUP_REGION_SOUTH,H792,default,uuid:f2cbeaf7-d989-4365-b5d5-af22b648691f,,anonymous,2016-07-11T16:01:59.033000000,COMPLETE,synced,,,-15.89886923,35.18293363,Thyolo,temperate,WEKHA NKOLOKOSA,both,18.0,grid,100.0,1028-0009,Mikolongwe,public,26097.0,community_hospital,not_available,more_than_16,available,South,South West,no,yes,delivery,1.0,4.0,collected
,HIDDEN,,GROUP_REGION_SOUTH_WEST,GROUP_ADMIN,GROUP_REGION_SOUTH,H716,default,uuid:88d60dd3-b269-4eb4-954d-7c1eb87fa777,,anonymous,2016-07-11T16:01:59.017000000,COMPLETE,synced,,,-15.89238887,34.75692804,Chikwawa,temperate,MWAZIONA MALEMBO,both,19.0,grid,100.0,1023-0028,Kapichira  Clinic,private,4040.0,community_hospital,not_available,more_than_16,not_available,South,South West,yes,yes,delivery,1.0,4.0,collected
,HIDDEN,,GROUP_REGION_SOUTH_WEST,GROUP_ADMIN,GROUP_REGION_SOUTH,H703,default,uuid:2fdf5af9-30bf-4b45-99dd-ae2075abe503,,anonymous,2016-07-11T16:01:59.025000000,COMPLETE,synced,,,-15.88132118,34.29851446,Chikwawa,temperate,SCOVA DAVID,both,76.0,none,100.0,1023-0015,Gola Health Centre,public,5996.0,community_hospital,not_available,none,available,South,South West,yes,yes,delivery,1.0,4.0,delivered
,HIDDEN,,GROUP_REGION_SOUTH_WEST,GROUP_ADMIN,GROUP_REGION_SOUTH,H652,default,uuid:0c2e9c98-b0aa-4a17-be7f-17afe9c49101,,anonymous,2016-07-11T16:01:59.025000000,COMPLETE,synced,,,-15.87449488,34.95607021,Blantyre,temperate,TENDAI CHINTENGO,both,12.0,grid,100.0,1022-0009,Mpemba,public,54000.0,community_hospital,not_available,more_than_16,not_available,South,South West,yes,yes,delivery,1.0,4.0,delivered
,HIDDEN,,GROUP_REGION_SOUTH_WEST,GROUP_ADMIN,GROUP_REGION_SOUTH,H818,default,uuid:b4eb7079-4f69-47b7-839f-06a7df5d11f2,,anonymous,2016-07-11T16:01:59.017000000,COMPLETE,synced,,,-15.86318347,35.1246095,Thyolo,temperate,DAN CHIWANDA,both,10.0,none,100.0,1028-0035,Nangumi,public,2169.0,dispensary,not_available,none,not_available,South,South West,no,yes,delivery,1.0,4.0,collected
,HIDDEN,,GROUP_REGION_SOUTH_EAST,GROUP_ADMIN,GROUP_REGION_SOUTH,H576,default,uuid:87e6dc0f-a89b-4ec3-9146-ccff0e71b0c4,,anonymous,2016-07-11T16:01:59.047000000,COMPLETE,synced,,,-15.86290409,35.32663494,Mulanje,temperate,EVANCE MALONJE,both,26.0,grid,100.0,1019-0017,Namulenga Health Centre,faithbased,8820.0,community_hospital,not_available,more_than_16,not_available,South,South East,yes,yes,delivery,1.0,5.0,both
,HIDDEN,,GROUP_REGION_SOUTH_EAST,GROUP_ADMIN,GROUP_REGION_SOUTH,H590,default,uuid:14ada8a3-c6ef-4158-bbcf-ad203ca015f2,,anonymous,2016-07-11T16:01:59.040000000,COMPLETE,synced,,,-15.85791335,35.7513277,Phalombe,temperate,H E KUMBANGA,both,36.0,none,100.0,1020-0004,Nkhulambe Health Centre,public,17149.0,community_hospital,not_available,none,available,South,South East,yes,yes,delivery,1.0,4.0,delivered
,HIDDEN,,GROUP_REGION_SOUTH_WEST,GROUP_ADMIN,GROUP_REGION_SOUTH,H649,default,uuid:199c2523-d733-4337-9a34-ffd617878ab5,,anonymous,2016-07-11T16:01:59.019000000,COMPLETE,synced,,,-15.8573005,35.02765391,Blantyre,temperate,DALITSO CHINSAMBA,both,15.0,grid,100.0,1022-0006,Soche Health Centre,public,14298.0,community_hospital,not_available,more_than_16,not_available,South,South West,yes,yes,delivery,1.0,4.0,delivered
,HIDDEN,,GROUP_REGION_SOUTH_EAST,GROUP_ADMIN,GROUP_REGION_SOUTH,H591,default,uuid:e553deb7-e13a-47a5-9322-c22395f359a0,,anonymous,2016-07-11T16:01:59.042000000,COMPLETE,synced,,,-15.85703154,35.81568673,Phalombe,temperate,CHRISTOPHER CHISAWO,both,47.0,none,100.0,1020-0005,Mulungu Alinafe,public,9875.0,dispensary,not_available,none,available,South,South East,yes,yes,delivery,1.0,4.0,delivered
,HIDDEN,,GROUP_REGION_SOUTH_EAST,GROUP_ADMIN,GROUP_REGION_SOUTH,H571,default,uuid:36a7f369-a874-4e07-9e5e-79c5e9e9e998,,anonymous,2016-07-11T16:01:59.033000000,COMPLETE,synced,,,-15.85047764,35.56310431,Mulanje,temperate,PATRICK KALONGONDA,both,28.0,grid,100.0,1019-0012,Kambenje Health Centre,public,18596.0,community_hospital,not_available,more_than_16,not_available,South,South East,yes,yes,delivery,1.0,4.0,collected
,HIDDEN,,GROUP_REGION_SOUTH_EAST,GROUP_ADMIN,GROUP_REGION_SOUTH,H631,default,uuid:4c543f18-cd36-43b5-8096-fdb7723f15d7,,anonymous,2016-07-11T16:01:59.017000000,COMPLETE,synced,,,-15.84228942,35.32903972,Zomba,temperate,NORRAH AFFOSO,both,3.0,grid,100.0,1021-0028,Zomba City Clinic,public,41264.0,community_hospital,not_available,more_than_16,not_available,South,South East,yes,yes,delivery,1.0,4.0,delivered
,HIDDEN,,GROUP_REGION_SOUTH_WEST,GROUP_ADMIN,GROUP_REGION_SOUTH,H740,default,uuid:443a96f2-91ab-4824-bd69-39ae2db152ad,,anonymous,2016-07-11T16:01:59.031000000,COMPLETE,synced,,,-15.83845834,35.26948165,Chiladzulu,temperate,WILLIAM CHATAIKA,both,50.0,grid,100.0,1024-0013,Namitambo Health Centre,public,36376.0,community_hospital,not_available,more_than_16,not_available,South,South West,yes,yes,delivery,1.0,4.0,delivered
,HIDDEN,,GROUP_REGION_SOUTH_WEST,GROUP_ADMIN,GROUP_REGION_SOUTH,H656,default,uuid:74e87b31-89ea-4601-9017-b4c093312b9d,,anonymous,2016-07-11T16:01:59.033000000,COMPLETE,synced,,,-15.83391128,34.83439619,Blantyre,temperate,FOSTER J.MCHENGA,both,62.0,grid,100.0,1022-0013,Chabvala Health Centre,public,13101.0,community_hospital,not_available,more_than_16,not_available,South,South West,yes,yes,delivery,1.0,4.0,delivered
,HIDDEN,,GROUP_REGION_SOUTH_WEST,GROUP_ADMIN,GROUP_REGION_SOUTH,H685,default,uuid:c2d409ad-49bd-4015-8280-3fafe2ea509f,,anonymous,2016-07-11T16:01:59.023000000,COMPLETE,synced,,,-15.8299173,35.07877094,Blantyre,temperate,JULIUS C. LUNGU,static,9.0,grid,100.0,1022-0042,Lungu Private Clinic,private,9378.0,community_hospital,not_available,more_than_16,not_available,South,South West,yes,yes,delivery,1.0,4.0,both
,HIDDEN,,GROUP_REGION_SOUTH_EAST,GROUP_ADMIN,GROUP_REGION_SOUTH,H588,default,uuid:035fce31-1ca4-44ee-b9d2-c952b753fa49,,anonymous,2016-07-11T16:01:59.033000000,COMPLETE,synced,,,-15.82494053,35.61841841,Phalombe,temperate,M CHINGANDA,both,5.0,grid,100.0,1020-0002,Holy Family Hospital,faithbased,29329.0,community_hospital,not_available,more_than_16,not_available,South,South East,yes,yes,delivery,1.0,4.0,collected
,HIDDEN,,GROUP_REGION_SOUTH_WEST,GROUP_ADMIN,GROUP_REGION_SOUTH,H653,default,uuid:b259466a-6bdc-44ee-adff-410d0ae94d0d,,anonymous,2016-07-11T16:01:59.027000000,COMPLETE,synced,,,-15.82408311,35.08037258,Blantyre,temperate,BEATON MOUNTAIN,both,11.0,grid,100.0,1022-0010,Bangwe,public,195587.0,community_hospital,not_available,more_than_16,not_available,South,South West,yes,yes,delivery,1.0,4.0,delivered
,HIDDEN,,GROUP_REGION_SOUTH_WEST,GROUP_ADMIN,GROUP_REGION_SOUTH,H662,default,uuid:a6382144-04d7-4771-b8c4-60b19fea4ab1,,anonymous,2016-07-11T16:01:59.049000000,COMPLETE,synced,,,-15.82147642,35.01185903,Blantyre,temperate,MASAUKO TSAMBA,both,8.0,grid,100.0,1022-0019,Zingwangwa Health Centre,public,127667.0,community_hospital,not_available,more_than_16,not_available,South,South West,yes,yes,delivery,1.0,4.0,delivered
,HIDDEN,,GROUP_REGION_SOUTH_WEST,GROUP_ADMIN,GROUP_REGION_SOUTH,H683,default,uuid:d6333f37-52e0-41fd-bd40-727c943ca9e2,,anonymous,2016-07-11T16:01:59.019000000,COMPLETE,synced,,,-15.81871522,35.01242904,Blantyre,temperate,H. VINKHUMBO,static,8.0,grid,100.0,1022-0040,Elimu Private Clinic,private,1067.0,community_hospital,not_available,more_than_16,not_available,South,South West,yes,yes,delivery,1.0,4.0,delivered
,HIDDEN,,GROUP_REGION_SOUTH_WEST,GROUP_ADMIN,GROUP_REGION_SOUTH,H654,default,uuid:d13b18b6-ccf6-427e-b2c5-9b57e95dece8,,anonymous,2016-07-11T16:01:59.029000000,COMPLETE,synced,,,-15.81692738,35.05186212,Blantyre,temperate,FABRIOLA CHIMKOOLA,both,7.0,grid,100.0,1022-0011,Limbe Health Centre,public,103702.0,community_hospital,not_available,more_than_16,not_available,South,South West,yes,yes,delivery,1.0,4.0,delivered
,HIDDEN,,GROUP_REGION_SOUTH_WEST,GROUP_ADMIN,GROUP_REGION_SOUTH,H663,default,uuid:406599bd-f21d-4463-a08f-5cde6b956a54,,anonymous,2016-07-11T16:01:59.051000000,COMPLETE,synced,,,-15.81565749,35.0485548,Blantyre,temperate,GETRUDE CHILEMBA,static,8.0,grid,100.0,1022-0020,Kanjedza Police,private,2995.0,community_hospital,not_available,more_than_16,not_available,South,South West,yes,yes,delivery,1.0,4.0,delivered
,HIDDEN,,GROUP_REGION_SOUTH_WEST,GROUP_ADMIN,GROUP_REGION_SOUTH,H675,default,uuid:84802473-2e68-4b86-b0a3-c42a8817bb8c,,anonymous,2016-07-11T16:01:59.040000000,COMPLETE,synced,,,-15.81199475,35.04794863,Blantyre,temperate,NDIDZA MBVUNDULA,static,8.0,grid,100.0,1022-0032,Kanjedza Medical Clinic,private,889.0,community_hospital,not_available,more_than_16,not_available,South,South West,yes,yes,delivery,1.0,4.0,both
,HIDDEN,,GROUP_REGION_SOUTH_WEST,GROUP_ADMIN,GROUP_REGION_SOUTH,H684,default,uuid:f2e94809-7ba9-4116-9ddf-4200fa80416f,,anonymous,2016-07-11T16:01:59.022000000,COMPLETE,synced,,,-15.81060941,34.99389774,Blantyre,temperate,ELLEN GAFOOMA,static,8.0,grid,100.0,1022-0041,Family Health Clinic,private,12444.0,community_hospital,not_available,more_than_16,not_available,South,South West,yes,yes,delivery,1.0,4.0,delivered
,HIDDEN,,GROUP_REGION_SOUTH_WEST,GROUP_ADMIN,GROUP_REGION_SOUTH,H674,default,uuid:945415c0-3788-4c6d-85e6-fc9b7e445fbf,,anonymous,2016-07-11T16:01:59.035000000,COMPLETE,synced,,,-15.80928464,35.01991398,Blantyre,temperate,ELESTINA NKUMBA,static,3.0,grid,100.0,1022-0031,Soche Sda Clinic,faithbased,654.0,community_hospital,not_available,more_than_16,not_available,South,South West,yes,yes,delivery,1.0,4.0,both
,HIDDEN,,GROUP_REGION_SOUTH_WEST,GROUP_ADMIN,GROUP_REGION_SOUTH,H661,default,uuid:25f05a09-3a59-4e45-822a-e973e588477f,,anonymous,2016-07-11T16:01:59.047000000,COMPLETE,synced,,,-15.80769203,34.95701356,Blantyre,temperate,VINCENT MUKWEPERE,both,7.0,none,100.0,1022-0018,Pensulo Health Centre,public,6667.0,community_hospital,not_available,none,available,South,South West,yes,yes,delivery,1.0,4.0,delivered
,HIDDEN,,GROUP_REGION_SOUTH_EAST,GROUP_ADMIN,GROUP_REGION_SOUTH,H586,default,uuid:06b314d8-3dff-4565-bc1f-21eb55b45a08,,anonymous,2016-07-11T16:01:59.029000000,COMPLETE,synced,,,-15.80621884,35.6487303,Phalombe,temperate,CHRISSIE HAPALA,both,0.5,grid,10.0,1020-0000,Phalombe District Hospital,public,25931.0,central_hospital,not_available,more_than_16,not_available,South,South East,yes,yes,delivery,1.0,4.0,collected
,HIDDEN,,GROUP_REGION_SOUTH_WEST,GROUP_ADMIN,GROUP_REGION_SOUTH,H701,default,uuid:1dc95d2e-89a1-444a-99e2-9584e4f6dcb7,,anonymous,2016-07-11T16:01:59.022000000,COMPLETE,synced,,,-15.80409121,34.3641523,Chikwawa,temperate,DEFANCE MKANDAWIRE,both,85.0,none,100.0,1023-0013,Gaga Health Centre,public,16275.0,community_hospital,not_available,none,available,South,South West,yes,yes,delivery,1.0,4.0,delivered
,HIDDEN,,GROUP_REGION_SOUTH_WEST,GROUP_ADMIN,GROUP_REGION_SOUTH,H644,default,uuid:c5a0ccc8-ddf0-45fb-a413-6463ef6334d7,,anonymous,2016-07-11T16:01:59.047000000,COMPLETE,synced,,,-15.80393104,35.01650115,Blantyre,temperate,M.GUWENDE,none,350.0,grid,100.0,1022-0001,South Regional Vaccine Store,public,6319869.0,national_vaccine_store,unknown,more_than_16,unknown,South,South West,yes,yes,depot,3.0,12.0,collected
,HIDDEN,,GROUP_REGION_SOUTH_WEST,GROUP_ADMIN,GROUP_REGION_SOUTH,H686,default,uuid:c63663cc-1dc6-4761-81ff-f4c9845afa0c,,anonymous,2016-07-11T16:01:59.025000000,COMPLETE,synced,,,-15.8036077,35.07481588,Blantyre,temperate,CHIMWEMWE R NYIRENDA,static,8.0,grid,100.0,1022-0043,Malamulo Day Clinic,private,10844.0,community_hospital,not_available,more_than_16,not_available,South,South West,yes,yes,delivery,1.0,4.0,both
,HIDDEN,,GROUP_REGION_SOUTH_WEST,GROUP_ADMIN,GROUP_REGION_SOUTH,H677,default,uuid:64ce4c6c-8571-4c92-80a5-ea0d2d241e48,,anonymous,2016-07-11T16:01:59.044000000,COMPLETE,synced,,,-15.8034746,35.03925846,Blantyre,temperate,EDITH CHAMUTOLO,none,7.0,grid,100.0,1022-0034,Blantyre City Assembly Clinic,private,333511.0,community_hospital,not_available,more_than_16,not_available,South,South West,yes,yes,delivery,1.0,4.0,collected
,HIDDEN,,GROUP_REGION_SOUTH_EAST,GROUP_ADMIN,GROUP_REGION_SOUTH,H587,default,uuid:ae672986-78f0-4731-a886-ff0a26d90d62,,anonymous,2016-07-11T16:01:59.031000000,COMPLETE,synced,,,-15.80333461,35.64748933,Phalombe,temperate,P M CHIWAYA,none,100.0,grid,100.0,1020-0001,Phalombe Dho Vaccine Store,public,343269.0,regional_vaccine_store,unknown,more_than_16,available,South,South East,yes,yes,depot,1.0,4.0,collected
,HIDDEN,,GROUP_REGION_SOUTH_WEST,GROUP_ADMIN,GROUP_REGION_SOUTH,H672,default,uuid:3a3daaa4-dfd7-46bb-8675-3c914f9f0889,,anonymous,2016-07-11T16:01:59.031000000,COMPLETE,synced,,,-15.80214229,35.02132697,Blantyre,temperate,D. KAFOTOKOZA,static,1.0,grid,10.0,1022-0029,Qeen Elizabeth Central Hospital,public,199394.0,district_vaccine_store,not_available,more_than_16,not_available,South,South West,yes,yes,delivery,1.0,4.0,delivered
,HIDDEN,,GROUP_REGION_SOUTH_EAST,GROUP_ADMIN,GROUP_REGION_SOUTH,H575,default,uuid:1a9d8c26-c67f-420c-aa45-67170f92d4f0,,anonymous,2016-07-11T16:01:59.044000000,COMPLETE,synced,,,-15.80149167,35.34828822,Mulanje,temperate,LASTON SAMBANISO,both,40.0,none,100.0,1019-0016,Namphungo Health Centre,public,34461.0,community_hospital,not_available,none,available,South,South East,yes,yes,delivery,1.0,4.0,delivered
,HIDDEN,,GROUP_REGION_SOUTH_WEST,GROUP_ADMIN,GROUP_REGION_SOUTH,H700,default,uuid:badff05c-0a3a-412d-a3e7-19451d7cad2b,,anonymous,2016-07-11T16:01:59.019000000,COMPLETE,synced,,,-15.80113933,34.47561914,Chikwawa,temperate,VINCENT MKOMBEZI,both,115.0,none,100.0,1023-0012,Chithumba Health Centre,public,11383.0,community_hospital,not_available,none,available,South,South West,yes,yes,delivery,1.0,4.0,delivered
,HIDDEN,,GROUP_REGION_SOUTH_WEST,GROUP_ADMIN,GROUP_REGION_SOUTH,H702,default,uuid:52ed78ed-785c-41c0-a09a-2d1f82f6ed6d,,anonymous,2016-07-11T16:01:59.023000000,COMPLETE,synced,,,-15.80011426,34.30831094,Chikwawa,temperate,MAPANDA HELENCE,both,109.0,none,100.0,1023-0014,Chang'Ambika Health Centre,public,7353.0,community_hospital,not_available,none,available,South,South West,yes,yes,delivery,1.0,4.0,delivered
,HIDDEN,,GROUP_REGION_SOUTH_WEST,GROUP_ADMIN,GROUP_REGION_SOUTH,H671,default,uuid:458803fd-5dc0-4abd-b909-e9926f1f8a6f,,anonymous,2016-07-11T16:01:59.029000000,COMPLETE,synced,,,-15.79921347,35.00292255,Blantyre,temperate,BEN MONOMALA,none,4.0,grid,100.0,1022-0028,Blantyre Dho Vaccine Store,public,199394.0,regional_vaccine_store,not_available,more_than_16,available,South,South West,yes,yes,depot,1.0,4.0,collected
,HIDDEN,,GROUP_REGION_SOUTH_WEST,GROUP_ADMIN,GROUP_REGION_SOUTH,H681,default,uuid:a7e6adac-b044-4fe9-9dc7-89805a458f3a,,anonymous,2016-07-11T16:01:59.016000000,COMPLETE,synced,,,-15.79914989,35.00295925,Blantyre,temperate,THOM W.MTUKUMIRA,none,0.0,grid,10.0,1022-0038,Blantyre Dho Mobile Clinic,public,24444.0,central_hospital,not_available,more_than_16,not_available,South,South West,yes,yes,delivery,1.0,4.0,delivered
,HIDDEN,,GROUP_REGION_SOUTH_WEST,GROUP_ADMIN,GROUP_REGION_SOUTH,H729,default,uuid:8a021993-d25b-4810-a4f8-6a4d9b7ab0a1,,anonymous,2016-07-11T16:01:59.047000000,COMPLETE,synced,,,-15.79862769,35.16750407,Chiladzulu,temperate,JONAS MICHONGWE,both,15.0,grid,10.0,1024-0002,St Joseph Mission Hospital,faithbased,44408.0,rural_hospital,not_available,more_than_16,available,South,South West,yes,yes,delivery,1.0,4.0,both
,HIDDEN,,GROUP_REGION_SOUTH_WEST,GROUP_ADMIN,GROUP_REGION_SOUTH,H647,default,uuid:2bc4c0bc-3ebe-423e-a1ee-a9f76fb86344,,anonymous,2016-07-11T16:01:59.016000000,COMPLETE,synced,,,-15.79281225,34.97271676,Blantyre,temperate,LUCY KAWINGA,static,8.0,grid,100.0,1022-0004,Sanjika Dispensary,public,602.0,health_center,not_available,more_than_16,not_available,South,South West,no,yes,delivery,1.0,4.0,delivered
,HIDDEN,,GROUP_REGION_SOUTH_WEST,GROUP_ADMIN,GROUP_REGION_SOUTH,H676,default,uuid:8146ac1c-0549-4868-aac3-c7dfbe08ea91,,anonymous,2016-07-11T16:01:59.042000000,COMPLETE,synced,,,-15.79230235,35.0281163,Blantyre,temperate,CHARITY E MHANGO KAGOMO,static,9.0,grid,100.0,1022-0033,Lafarge Cement Clinic,private,622.0,community_hospital,not_available,more_than_16,not_available,South,South West,yes,yes,delivery,1.0,4.0,both
,HIDDEN,,GROUP_REGION_SOUTH_WEST,GROUP_ADMIN,GROUP_REGION_SOUTH,H687,default,uuid:a065d734-127d-41fc-a042-72391682142c,,anonymous,2016-07-11T16:01:59.027000000,COMPLETE,synced,,,-15.78547622,35.01690639,Blantyre,temperate,MARGARET KAZUNGUZA,static,5.0,grid,10.0,1022-0044,Mwaiwathu Private Hospital,private,9333.0,rural_hospital,not_available,more_than_16,not_available,South,South West,yes,yes,delivery,1.0,4.0,both
,HIDDEN,,GROUP_REGION_SOUTH_WEST,GROUP_ADMIN,GROUP_REGION_SOUTH,H673,default,uuid:ec7bd230-4ece-490f-b28f-fd702bbb9373,,anonymous,2016-07-11T16:01:59.033000000,COMPLETE,synced,,,-15.7823147,35.00311106,Blantyre,temperate,SHYREEN MTHYOKA,static,5.0,grid,10.0,1022-0030,Blantyre Adventist Hospital,private,9155.0,rural_hospital,not_available,more_than_16,not_available,South,South West,yes,yes,delivery,1.0,4.0,both
,HIDDEN,,GROUP_REGION_SOUTH_WEST,GROUP_ADMIN,GROUP_REGION_SOUTH,H648,default,uuid:a960be98-eaad-4fbd-a280-51232bec6a0c,,anonymous,2016-07-11T16:01:59.017000000,COMPLETE,synced,,,-15.77805631,35.0393587,Blantyre,temperate,DANWECK CHALE,both,7.0,grid,100.0,1022-0005,Ndirande Health Centre,public,191252.0,community_hospital,not_available,more_than_16,not_available,South,South West,yes,yes,delivery,1.0,4.0,delivered
,HIDDEN,,GROUP_REGION_SOUTH_WEST,GROUP_ADMIN,GROUP_REGION_SOUTH,H655,default,uuid:d3b62892-b3ca-4e11-bc28-dc97158128a0,,anonymous,2016-07-11T16:01:59.031000000,COMPLETE,synced,,,-15.77752918,34.88544784,Blantyre,temperate,ESTHER NDLOVU,both,39.0,grid,100.0,1022-0012,Chimembe Health Centre,public,19561.0,community_hospital,not_available,more_than_16,available,South,South West,yes,yes,delivery,1.0,4.0,delivered
,HIDDEN,,GROUP_REGION_SOUTH_WEST,GROUP_ADMIN,GROUP_REGION_SOUTH,H646,default,uuid:d2b3baad-6b9f-4c15-91f7-436ec7b8903d,,anonymous,2016-07-11T16:01:59.051000000,COMPLETE,synced,,,-15.77737054,34.96863877,Blantyre,temperate,GRACE MUSSA,static,9.0,grid,100.0,1022-0003,Mitsidi Health Centre,faithbased,72000.0,community_hospital,not_available,more_than_16,not_available,South,South West,no,yes,delivery,1.0,4.0,delivered
,HIDDEN,,GROUP_REGION_SOUTH_EAST,GROUP_ADMIN,GROUP_REGION_SOUTH,H593,default,uuid:67b5d7a6-585c-45c1-95de-d389996b0877,,anonymous,2016-07-11T16:01:59.047000000,COMPLETE,synced,,,-15.77220936,35.76508201,Phalombe,temperate,HANNA SIMALE,both,30.0,grid,100.0,1020-0007,Chilinga Maternity,public,11080.0,community_hospital,not_available,fewer_than_4,not_available,South,South East,yes,yes,delivery,1.0,4.0,delivered
,HIDDEN,,GROUP_REGION_SOUTH_WEST,GROUP_ADMIN,GROUP_REGION_SOUTH,H645,default,uuid:c3839fb4-aa9e-497f-be6a-d6f363154372,,anonymous,2016-07-11T16:01:59.049000000,COMPLETE,synced,,,-15.77123578,34.98150332,Blantyre,temperate,EDBA LIPIPA,both,8.0,grid,100.0,1022-0002,Chilomoni,public,123595.0,community_hospital,not_available,more_than_16,not_available,South,South West,yes,yes,delivery,1.0,4.0,delivered
,HIDDEN,,GROUP_REGION_SOUTH_EAST,GROUP_ADMIN,GROUP_REGION_SOUTH,H598,default,uuid:5849fa5c-75e0-42a3-a70e-db5d30965898,,anonymous,2016-07-11T16:01:59.019000000,COMPLETE,synced,,,-15.77087971,35.55087086,Phalombe,temperate,PETER CHOSADZIWA,both,17.0,none,100.0,1020-0012,Waluma Health Post,public,21420.0,dispensary,not_available,none,irregular,South,South East,yes,yes,delivery,1.0,4.0,delivered
,HIDDEN,,GROUP_REGION_SOUTH_WEST,GROUP_ADMIN,GROUP_REGION_SOUTH,H678,default,uuid:a1a185fa-46b8-4719-bea9-b4c5b900f4ab,,anonymous,2016-07-11T16:01:59.047000000,COMPLETE,synced,,,-15.76775932,35.04474225,Blantyre,temperate,E. KHONDIWA,static,9.0,grid,100.0,1022-0035,Malabada Health Centre,faithbased,2711.0,community_hospital,not_available,more_than_16,not_available,South,South West,yes,yes,delivery,1.0,4.0,delivered
,HIDDEN,,GROUP_REGION_SOUTH_WEST,GROUP_ADMIN,GROUP_REGION_SOUTH,H739,default,uuid:851d0c49-5548-43a6-b5bb-2a32ce26e532,,anonymous,2016-07-11T16:01:59.029000000,COMPLETE,synced,,,-15.76547384,35.24808742,Chiladzulu,temperate,ALICK SYMON,both,20.0,grid,100.0,1024-0012,Thumbwe Health Centre,public,25811.0,health_center,not_available,more_than_16,not_available,South,South West,yes,yes,delivery,1.0,4.0,delivered
,HIDDEN,,GROUP_REGION_SOUTH_EAST,GROUP_ADMIN,GROUP_REGION_SOUTH,H572,default,uuid:fd49f152-8f84-43b6-aff4-836152812a78,,anonymous,2016-07-11T16:01:59.035000000,COMPLETE,synced,,,-15.76278759,35.49227482,Mulanje,temperate,JONAS CHIMERA,both,65.0,none,100.0,1019-0013,Mulomba Mealth Centre,public,21019.0,community_hospital,not_available,none,not_available,South,South East,no,yes,delivery,1.0,4.0,delivered
,HIDDEN,,GROUP_REGION_SOUTH_EAST,GROUP_ADMIN,GROUP_REGION_SOUTH,H599,default,uuid:f4b60df8-7d8a-42d3-8ff8-34b4bcbef80b,,anonymous,2016-07-11T16:01:59.022000000,COMPLETE,synced,,,-15.75794483,35.61179332,Phalombe,temperate,WONDERFUL NJEWA,both,7.0,none,100.0,1020-0013,Mpasa Health Centre,public,31229.0,community_hospital,not_available,none,available,South,South East,yes,yes,delivery,1.0,4.0,delivered
,HIDDEN,,GROUP_REGION_SOUTH_EAST,GROUP_ADMIN,GROUP_REGION_SOUTH,H615,default,uuid:592f941e-9dcd-405f-8167-010201d51006,,anonymous,2016-07-11T16:01:59.019000000,COMPLETE,synced,,,-15.75517709,35.34044136,Zomba,temperate,GERALD LAMYA,both,13.0,none,100.0,1021-0012,Lambulira Health Centre,public,28636.0,community_hospital,not_available,none,available,South,South East,yes,yes,delivery,1.0,4.0,delivered
,HIDDEN,,GROUP_REGION_SOUTH_EAST,GROUP_ADMIN,GROUP_REGION_SOUTH,H594,default,uuid:4ffdb051-45ec-4692-9c64-0bd3356c13c3,,anonymous,2016-07-11T16:01:59.049000000,COMPLETE,synced,,,-15.75256652,35.77778803,Phalombe,temperate,LIDIA KASONGA,both,24.0,none,100.0,1020-0008,Nazombe Health Centre,public,16986.0,community_hospital,not_available,none,available,South,South East,yes,yes,delivery,1.0,4.0,delivered
,HIDDEN,,GROUP_REGION_SOUTH_WEST,GROUP_ADMIN,GROUP_REGION_SOUTH,H730,default,uuid:91e489de-0393-4eb3-903f-6c7cb0d34be4,,anonymous,2016-07-11T16:01:59.049000000,COMPLETE,synced,,,-15.75051106,35.19148211,Chiladzulu,temperate,MC PHERSON MSANJA,both,7.0,none,100.0,1024-0003,Pim Cham Health Centre,faithbased,19303.0,community_hospital,not_available,none,available,South,South West,yes,yes,delivery,1.0,4.0,delivered
,HIDDEN,,GROUP_REGION_SOUTH_WEST,GROUP_ADMIN,GROUP_REGION_SOUTH,H746,default,uuid:55ec4bd0-6370-4680-a7a9-d3812a9dc9e7,,anonymous,2016-07-11T16:01:59.047000000,COMPLETE,synced,,,-15.74703374,34.52218722,Mwanza,temperate,JOUSHWA M. CHIMUNGU,both,19.0,none,100.0,1025-0004,Tulonkhondo Health Cetre,public,14555.0,community_hospital,unknown,none,available,South,South West,yes,yes,delivery,1.0,4.0,collected
,HIDDEN,,GROUP_REGION_SOUTH_WEST,GROUP_ADMIN,GROUP_REGION_SOUTH,H682,default,uuid:3e5f11e7-f32b-46e7-abd5-39b3899cd266,,anonymous,2016-07-11T16:01:59.017000000,COMPLETE,synced,,,-15.74656614,35.02003932,Blantyre,temperate,ALICK SIMBI,static,10.0,grid,100.0,1022-0039,Ebenezer Private Clinic,private,1067.0,community_hospital,not_available,more_than_16,not_available,South,South West,yes,yes,delivery,1.0,4.0,delivered
,HIDDEN,,GROUP_REGION_SOUTH_WEST,GROUP_ADMIN,GROUP_REGION_SOUTH,H737,default,uuid:d4de9e55-439b-4e74-b4f5-f43245f6b66b,,anonymous,2016-07-11T16:01:59.025000000,COMPLETE,synced,,,-15.73883539,35.12974951,Chiladzulu,temperate,LAWRENCE GONANI,both,5.0,none,100.0,1024-0010,Bilalo Pvt Clinic,private,19229.0,community_hospital,not_available,none,available,South,South West,yes,yes,delivery,1.0,4.0,delivered
,HIDDEN,,GROUP_REGION_SOUTH_WEST,GROUP_ADMIN,GROUP_REGION_SOUTH,H670,default,uuid:bbf0f956-fdce-47f3-b027-e449909bf9b4,,anonymous,2016-07-11T16:01:59.027000000,COMPLETE,synced,,,-15.72673679,35.05441632,Blantyre,temperate,OWEN S. KAMFOLOMA,both,9.0,grid,100.0,1022-0027,Souyh Lunzu Health Centre,public,80343.0,community_hospital,not_available,more_than_16,not_available,South,South West,yes,yes,delivery,1.0,4.0,delivered
,HIDDEN,,GROUP_REGION_SOUTH_WEST,GROUP_ADMIN,GROUP_REGION_SOUTH,H679,default,uuid:9976ccfb-536c-418e-a26f-d20cda357655,,anonymous,2016-07-11T16:01:59.049000000,COMPLETE,synced,,,-15.72442639,35.01635034,Blantyre,temperate,MONICA BOTOMANI,static,11.0,grid,10.0,1022-0036,Mtengo Umodzi Private Hospital,private,333.0,rural_hospital,not_available,more_than_16,not_available,South,South West,yes,yes,delivery,1.0,4.0,collected
,HIDDEN,,GROUP_REGION_SOUTH_WEST,GROUP_ADMIN,GROUP_REGION_SOUTH,H743,default,uuid:f492185a-169c-4c41-afb5-1036e12fd524,,anonymous,2016-07-11T16:01:59.040000000,COMPLETE,synced,,,-15.72329308,34.39901621,Mwanza,temperate,HABIL CHIMLOMO,both,36.0,none,100.0,1025-0001,Thambani Health Centre,public,15611.0,community_hospital,not_available,none,available,South,South West,no,yes,delivery,1.0,4.0,collected
,HIDDEN,,GROUP_REGION_SOUTH_EAST,GROUP_ADMIN,GROUP_REGION_SOUTH,H596,default,uuid:f310e339-5f0b-4d43-bf42-fcdedd43171c,,anonymous,2016-07-11T16:01:59.016000000,COMPLETE,synced,,,-15.71941895,35.68561252,Phalombe,temperate,FREZER NAMIZOMBE,both,9.0,grid,100.0,1020-0010,Migowi Health Centre,public,21504.0,community_hospital,not_available,more_than_16,not_available,South,South East,yes,yes,delivery,1.0,4.0,delivered
,HIDDEN,,GROUP_REGION_SOUTH_EAST,GROUP_ADMIN,GROUP_REGION_SOUTH,H574,default,uuid:90f3228b-1f68-40b8-921c-ab9493d4fec1,,anonymous,2016-07-11T16:01:59.042000000,COMPLETE,synced,,,-15.7183401,35.3660136,Mulanje,temperate,CLEFTON LAMANI,both,60.0,none,100.0,1019-0015,Nkomaula Health Centre,public,18492.0,community_hospital,not_available,none,available,South,South East,yes,yes,delivery,1.0,4.0,delivered
,HIDDEN,,GROUP_REGION_SOUTH_WEST,GROUP_ADMIN,GROUP_REGION_SOUTH,H728,default,uuid:54e4e18a-10f5-4912-bccc-9396a54b42d5,,anonymous,2016-07-11T16:01:59.044000000,COMPLETE,synced,,,-15.70805414,35.17356674,Chiladzulu,temperate,SAMSON MANYAMBA,both,0.0,grid,10.0,1024-0001,Chiradzulu District Hospital,public,24358.0,central_hospital,not_available,more_than_16,not_available,South,South West,yes,yes,delivery,1.0,4.0,delivered
,HIDDEN,,GROUP_REGION_SOUTH_WEST,GROUP_ADMIN,GROUP_REGION_SOUTH,H731,default,uuid:038f9957-8299-41bb-b63e-d1dfd76e8025,,anonymous,2016-07-11T16:01:59.051000000,COMPLETE,synced,,,-15.69353534,35.23266413,Chiladzulu,temperate,TADALA KAIPA,both,17.0,none,100.0,1024-0004,Ndunde Health Centre,public,17000.0,community_hospital,not_available,none,irregular,South,South West,yes,yes,delivery,1.0,4.0,delivered
,HIDDEN,,GROUP_REGION_SOUTH_WEST,GROUP_ADMIN,GROUP_REGION_SOUTH,H732,default,uuid:db0e4451-f5c9-460f-9104-9b7feacf869a,,anonymous,2016-07-11T16:01:59.016000000,COMPLETE,synced,,,-15.68426477,35.31783737,Chiladzulu,temperate,RICHARD MALUWA,both,30.0,none,100.0,1024-0005,Milepa Health Centre,public,15601.0,community_hospital,not_available,none,available,South,South West,yes,yes,delivery,1.0,4.0,delivered
,HIDDEN,,GROUP_REGION_SOUTH_WEST,GROUP_ADMIN,GROUP_REGION_SOUTH,H660,default,uuid:1b18dcc1-f4bb-425a-8573-5a1e733d44b5,,anonymous,2016-07-11T16:01:59.044000000,COMPLETE,synced,,,-15.68234924,34.97043899,Blantyre,temperate,JULIET CHIKASANDA,both,20.0,grid,100.0,1022-0017,Chileka Health Centre,public,25506.0,community_hospital,not_available,more_than_16,not_available,South,South West,yes,yes,delivery,1.0,4.0,delivered
,HIDDEN,,GROUP_REGION_SOUTH_EAST,GROUP_ADMIN,GROUP_REGION_SOUTH,H573,default,uuid:b146848b-cda5-4bd1-8be7-29a62aebf747,,anonymous,2016-07-11T16:01:59.040000000,COMPLETE,synced,,,-15.67226843,35.47604975,Mulanje,temperate,JOHNMWANGONDE,both,80.0,none,100.0,1019-0014,Kamwendo Health Post,public,35141.0,dispensary,not_available,none,available,South,South East,yes,yes,delivery,1.0,4.0,delivered
,HIDDEN,,GROUP_REGION_SOUTH_EAST,GROUP_ADMIN,GROUP_REGION_SOUTH,H597,default,uuid:9cf2862f-798f-4c2f-8328-6fe481b36b3e,,anonymous,2016-07-11T16:01:59.017000000,COMPLETE,synced,,,-15.67195035,35.72833111,Phalombe,temperate,M THOMAS,both,19.0,none,100.0,1020-0011,Kalinde Health Centre,public,30098.0,community_hospital,not_available,none,not_available,South,South East,yes,yes,delivery,1.0,4.0,delivered
,HIDDEN,,GROUP_REGION_SOUTH_WEST,GROUP_ADMIN,GROUP_REGION_SOUTH,H657,default,uuid:4af7818d-9a16-4e1e-9727-4979d2fe2512,,anonymous,2016-07-11T16:01:59.035000000,COMPLETE,synced,,,-15.67146605,34.87099346,Blantyre,temperate,LESTER SALIMU,both,37.0,none,100.0,1022-0014,Chikowa Health Centre,public,29575.0,community_hospital,not_available,none,available,South,South West,yes,yes,delivery,1.0,4.0,delivered
,HIDDEN,,GROUP_REGION_SOUTH_EAST,GROUP_ADMIN,GROUP_REGION_SOUTH,H619,default,uuid:1d094e78-156f-4724-93a3-c62f3620654a,,anonymous,2016-07-11T16:01:59.027000000,COMPLETE,synced,,,-15.66665297,35.42736739,Zomba,temperate,GOLDEN H KACHIMANGA,both,57.0,none,100.0,1021-0016,Ngwelero Health Centre,public,28773.0,community_hospital,not_available,none,available,South,South East,yes,yes,delivery,1.0,4.0,delivered
,HIDDEN,,GROUP_REGION_SOUTH_WEST,GROUP_ADMIN,GROUP_REGION_SOUTH,H659,default,uuid:313de1b8-895e-439a-b5cc-e51f4fdfc650,,anonymous,2016-07-11T16:01:59.042000000,COMPLETE,synced,,,-15.65989316,34.92898286,Blantyre,temperate,CHALRES EDGAR POTANI,both,33.0,none,100.0,1022-0016,Chileka Sda Clinic,faithbased,22619.0,community_hospital,not_available,none,available,South,South West,no,yes,delivery,1.0,4.0,delivered
,HIDDEN,,GROUP_REGION_SOUTH_WEST,GROUP_ADMIN,GROUP_REGION_SOUTH,H738,default,uuid:4a6f4983-3b35-4255-81c5-c525b2249a1d,,anonymous,2016-07-11T16:01:59.027000000,COMPLETE,synced,,,-15.65448722,35.19960332,Chiladzulu,temperate,MARY KADEWERE,static,7.0,none,100.0,1024-0011,Mwanje Health Post,public,10690.0,dispensary,not_available,none,available,South,South West,no,yes,delivery,1.0,4.0,delivered
,HIDDEN,,GROUP_REGION_SOUTH_WEST,GROUP_ADMIN,GROUP_REGION_SOUTH,H680,default,uuid:8d430ba5-2ea4-49e0-a30c-5687caf1b15a,,anonymous,2016-07-11T16:01:59.051000000,COMPLETE,synced,,,-15.65115485,35.02024659,Blantyre,temperate,TELEZA S.TEMBO,static,17.0,grid,100.0,1022-0037,Lunzu Blm Clinic,private,8000.0,community_hospital,not_available,more_than_16,not_available,South,South West,yes,yes,delivery,1.0,4.0,collected
,HIDDEN,,GROUP_REGION_SOUTH_WEST,GROUP_ADMIN,GROUP_REGION_SOUTH,H733,default,uuid:7012bef1-9cea-4582-b4d5-81a95ee29c95,,anonymous,2016-07-11T16:01:59.017000000,COMPLETE,synced,,,-15.64991795,35.24919761,Chiladzulu,temperate,MILLWARD NAMWIYO,both,13.0,none,100.0,1024-0006,Mauwa Health Centre,public,20422.0,community_hospital,not_available,none,available,South,South West,yes,yes,delivery,1.0,4.0,delivered
,HIDDEN,,GROUP_REGION_SOUTH_EAST,GROUP_ADMIN,GROUP_REGION_SOUTH,H600,default,uuid:3928d3eb-96ea-4b8f-a36c-af420765eff2,,anonymous,2016-07-11T16:01:59.023000000,COMPLETE,synced,,,-15.64622334,35.53231503,Phalombe,temperate,EVANCE NAMITHALA,both,30.0,none,100.0,1020-0014,Mwanga Health Centre,faithbased,18573.0,community_hospital,not_available,none,not_available,South,South East,yes,yes,delivery,1.0,4.0,delivered
,HIDDEN,,GROUP_REGION_SOUTH_WEST,GROUP_ADMIN,GROUP_REGION_SOUTH,H664,default,uuid:aa72d8c9-ee0c-4531-8867-5e9fc9c64022,,anonymous,2016-07-11T16:01:59.016000000,COMPLETE,synced,,,-15.64356509,35.01726261,Blantyre,temperate,ODETTA KANYONGOLO,both,17.0,grid,10.0,1022-0021,Mlambe Mission Hospital,faithbased,56810.0,rural_hospital,not_available,more_than_16,not_available,South,South West,yes,yes,delivery,1.0,4.0,both
,HIDDEN,,GROUP_REGION_SOUTH_WEST,GROUP_ADMIN,GROUP_REGION_SOUTH,H734,default,uuid:abefe89b-1526-4b33-8b4a-17779bf7c66f,,anonymous,2016-07-11T16:01:59.019000000,COMPLETE,synced,,,-15.63606288,35.15614286,Chiladzulu,temperate,ELLARTON MASITO,static,27.0,grid,100.0,1024-0007,Mbulumbuzi Heath Centre,public,15545.0,community_hospital,not_available,more_than_16,not_available,South,South West,yes,yes,delivery,1.0,4.0,both
,HIDDEN,,GROUP_REGION_SOUTH_WEST,GROUP_ADMIN,GROUP_REGION_SOUTH,H665,default,uuid:5e80d87d-3caf-4845-a9bc-93d1b1d358f6,,anonymous,2016-07-11T16:01:59.017000000,COMPLETE,synced,,,-15.63020668,35.0795495,Blantyre,temperate,GREY KAZEMBE,both,21.0,none,100.0,1022-0022,Makata Health Centre,public,35940.0,community_hospital,not_available,none,available,South,South West,yes,yes,delivery,1.0,4.0,delivered
,HIDDEN,,GROUP_REGION_SOUTH_EAST,GROUP_ADMIN,GROUP_REGION_SOUTH,H601,default,uuid:e56e47aa-8a58-440e-97bb-646846a91aef,,anonymous,2016-07-11T16:01:59.025000000,COMPLETE,synced,,,-15.61457491,35.62805976,Phalombe,temperate,JOSAYA NDINI,both,24.0,none,100.0,1020-0015,Nkhwayi Health Centre,public,29275.0,community_hospital,not_available,none,available,South,South East,yes,yes,delivery,1.0,4.0,delivered
,HIDDEN,,GROUP_REGION_SOUTH_WEST,GROUP_ADMIN,GROUP_REGION_SOUTH,H735,default,uuid:8a7074b6-0188-4d33-8743-efa5af72b57a,,anonymous,2016-07-11T16:01:59.022000000,COMPLETE,synced,,,-15.60391271,35.12210473,Chiladzulu,temperate,GEORGE KANYOZA,both,8.0,none,100.0,1024-0008,Chitera Health Centre,public,13759.0,community_hospital,not_available,none,available,South,South West,yes,yes,delivery,1.0,4.0,delivered
,HIDDEN,,GROUP_REGION_SOUTH_EAST,GROUP_ADMIN,GROUP_REGION_SOUTH,H617,default,uuid:22530e3d-ca11-4767-b37c-1d2c02a1571c,,anonymous,2016-07-11T16:01:59.023000000,COMPLETE,synced,,,-15.60234481,35.2593987,Zomba,temperate,HOWARD KAYENDA,both,30.0,grid,100.0,1021-0014,Nasawa Health Centre,public,32883.0,community_hospital,not_available,more_than_16,not_available,South,South East,yes,yes,delivery,1.0,4.0,delivered
,HIDDEN,,GROUP_REGION_SOUTH_WEST,GROUP_ADMIN,GROUP_REGION_SOUTH,H751,default,uuid:fb35902c-6d84-4f64-97fa-839898ec075b,,anonymous,2016-07-11T16:01:59.019000000,COMPLETE,synced,,,-15.59525415,34.69814131,Neno,temperate,JOEL N'GAMBI,both,40.0,grid,100.0,1026-0004,Chifunga,public,11250.0,community_hospital,not_available,more_than_16,not_available,South,South West,no,yes,delivery,1.0,4.0,both
,HIDDEN,,GROUP_REGION_SOUTH_WEST,GROUP_ADMIN,GROUP_REGION_SOUTH,H742,default,uuid:9d0231d4-a834-4f92-88d3-893ce7c35c19,,anonymous,2016-07-11T16:01:59.035000000,COMPLETE,synced,,,-15.58861378,34.5094887,Mwanza,temperate,ALBERT GOLOWA,both,0.003,grid,10.0,1025-0000,Mwanza District Hospital,public,47101.0,central_hospital,not_available,more_than_16,available,South,South West,yes,yes,delivery,1.0,4.0,collected
,HIDDEN,,GROUP_REGION_SOUTH_EAST,GROUP_ADMIN,GROUP_REGION_SOUTH,H618,default,uuid:ce7dd7c0-29d7-42f6-854d-4c346b2f8abc,,anonymous,2016-07-11T16:01:59.025000000,COMPLETE,synced,,,-15.57379552,35.37266545,Zomba,temperate,DAVESON GUNDA,both,30.0,grid,100.0,1021-0015,Mayaka Health Centre,public,52756.0,community_hospital,not_available,more_than_16,not_available,South,South East,yes,yes,delivery,1.0,4.0,delivered
,HIDDEN,,GROUP_REGION_SOUTH_WEST,GROUP_ADMIN,GROUP_REGION_SOUTH,H658,default,uuid:e9601796-01ce-4cdd-8d67-5bd3b271bf4c,,anonymous,2016-07-11T16:01:59.040000000,COMPLETE,synced,,,-15.5636247,34.88040007,Blantyre,temperate,EMMANUEL BINALI,both,47.0,none,100.0,1022-0015,Dziwe Health Centre,public,15832.0,community_hospital,not_available,none,available,South,South West,yes,yes,delivery,1.0,4.0,delivered
,HIDDEN,,GROUP_REGION_SOUTH_EAST,GROUP_ADMIN,GROUP_REGION_SOUTH,H616,default,uuid:c36254a8-f481-4609-a296-a2829f3f95bb,,anonymous,2016-07-11T16:01:59.022000000,COMPLETE,synced,,,-15.56144583,35.2610486,Zomba,temperate,GIFT MATEWERE,both,15.0,grid,100.0,1021-0013,Magomero Health Centre,faithbased,26610.0,community_hospital,not_available,more_than_16,not_available,South,South East,yes,yes,delivery,1.0,4.0,delivered
,HIDDEN,,GROUP_REGION_SOUTH_EAST,GROUP_ADMIN,GROUP_REGION_SOUTH,H595,default,uuid:108a751d-e969-4a62-af0e-3f5d3d938a6c,,anonymous,2016-07-11T16:01:59.051000000,COMPLETE,synced,,,-15.55683139,35.81924953,Phalombe,temperate,ENERST MPEKETULA,both,43.0,none,100.0,1020-0009,Nambazo Health Centre,public,38236.0,community_hospital,not_available,none,unknown,South,South East,yes,yes,delivery,1.0,4.0,delivered
,HIDDEN,,GROUP_REGION_SOUTH_EAST,GROUP_ADMIN,GROUP_REGION_SOUTH,H602,default,uuid:14cc63f6-b0b1-4319-8bc6-bea421461423,,anonymous,2016-07-11T16:01:59.027000000,COMPLETE,synced,,,-15.55191119,35.57260474,Phalombe,temperate,ANNIE MISOMALI,both,37.0,none,100.0,1020-0016,Chitekesa Health Centre,public,32762.0,community_hospital,not_available,none,not_available,South,South East,yes,yes,delivery,1.0,4.0,delivered
,HIDDEN,,GROUP_REGION_SOUTH_WEST,GROUP_ADMIN,GROUP_REGION_SOUTH,H750,default,uuid:52291fd4-1778-4023-893c-c44c76600dde,,anonymous,2016-07-11T16:01:59.017000000,COMPLETE,synced,,,-15.54618971,34.62754096,Neno,temperate,FABIAN NYANGA,both,20.0,grid,100.0,1026-0003,Magaleta,public,7053.0,community_hospital,not_available,more_than_16,not_available,South,South West,no,yes,delivery,1.0,4.0,delivered
,HIDDEN,,GROUP_REGION_SOUTH_WEST,GROUP_ADMIN,GROUP_REGION_SOUTH,H736,default,uuid:0904b293-f905-4143-943b-60f8fa8c0bad,,anonymous,2016-07-11T16:01:59.023000000,COMPLETE,synced,,,-15.54396151,35.18693447,Chiladzulu,temperate,JULIET MJUWENI,both,60.0,grid,100.0,1024-0009,Namadzi Health Centre,public,23593.0,community_hospital,not_available,more_than_16,not_available,South,South West,yes,yes,delivery,1.0,4.0,delivered
,HIDDEN,,GROUP_REGION_SOUTH_EAST,GROUP_ADMIN,GROUP_REGION_SOUTH,H638,default,uuid:6dde7c9d-61ca-4df8-9a2a-477d253f3edc,,anonymous,2016-07-11T16:01:59.031000000,COMPLETE,synced,,,-15.53410421,35.54718988,Zomba,temperate,CHARLES WINIKO,both,40.0,grid,100.0,1021-0035,Matiya,faithbased,32723.0,community_hospital,not_available,more_than_16,not_available,South,South East,yes,yes,delivery,1.0,4.0,delivered
,HIDDEN,,GROUP_REGION_SOUTH_WEST,GROUP_ADMIN,GROUP_REGION_SOUTH,H666,default,uuid:a0a19d60-3dd9-4388-aae8-4ce036439204,,anonymous,2016-07-11T16:01:59.019000000,COMPLETE,synced,,,-15.52952388,35.02993367,Blantyre,temperate,CHRISTOPHER BALUTI,both,39.0,grid,100.0,1022-0023,Lirangwe Health Centre,public,26506.0,community_hospital,not_available,more_than_16,not_available,South,South West,yes,yes,delivery,1.0,4.0,delivered
,HIDDEN,,GROUP_REGION_SOUTH_WEST,GROUP_ADMIN,GROUP_REGION_SOUTH,H752,default,uuid:293c12d6-0a00-4e6b-a4fa-05beb0277d4f,,anonymous,2016-07-11T16:01:59.022000000,COMPLETE,synced,,,-15.51929904,34.82453245,Neno,temperate,LUKA CHIKAONEKA,both,50.0,grid,100.0,1026-0005,Nkula Health Centre,private,1970.0,community_hospital,not_available,more_than_16,not_available,South,South West,no,yes,delivery,1.0,4.0,both
,HIDDEN,,GROUP_REGION_SOUTH_WEST,GROUP_ADMIN,GROUP_REGION_SOUTH,H667,default,uuid:30f9f96e-a235-4e03-a52f-303f93899520,,anonymous,2016-07-11T16:01:59.022000000,COMPLETE,synced,,,-15.48661262,35.07372793,Blantyre,temperate,MAXWEL CHIZANI,both,43.0,none,100.0,1022-0024,Namikoko Health Centre,public,6590.0,community_hospital,not_available,none,available,South,South West,yes,yes,delivery,1.0,4.0,delivered
,HIDDEN,,GROUP_REGION_SOUTH_EAST,GROUP_ADMIN,GROUP_REGION_SOUTH,H635,default,uuid:53b9a64e-64de-488b-8942-f217f9942dc1,,anonymous,2016-07-11T16:01:59.025000000,COMPLETE,synced,,,-15.48438133,35.23687959,Zomba,temperate,HENDERSON CHAULUKA,both,16.0,grid,100.0,1021-0032,Thondwe,public,51721.0,community_hospital,not_available,more_than_16,not_available,South,South East,yes,yes,delivery,1.0,4.0,delivered
,HIDDEN,,GROUP_REGION_SOUTH_EAST,GROUP_ADMIN,GROUP_REGION_SOUTH,H620,default,uuid:df350d29-416d-4c86-a075-616cfc4b6d8c,,anonymous,2016-07-11T16:01:59.029000000,COMPLETE,synced,,,-15.48272038,35.45075204,Zomba,temperate,KINGSLEY KALILOMBE,both,27.0,grid,10.0,1021-0017,Pilimiti Hospital,private,31189.0,rural_hospital,not_available,more_than_16,not_available,South,South East,yes,yes,delivery,1.0,4.0,delivered
,HIDDEN,,GROUP_REGION_SOUTH_EAST,GROUP_ADMIN,GROUP_REGION_SOUTH,H614,default,uuid:2697a3c6-da2c-412f-8871-fce09cddccbb,,anonymous,2016-07-11T16:01:59.017000000,COMPLETE,synced,,,-15.47733114,35.24074469,Zomba,temperate,F MATIPWILI,static,15.0,grid,100.0,1021-0011,Namikango Maternity,faithbased,6172.0,community_hospital,not_available,more_than_16,not_available,South,South East,yes,yes,delivery,1.0,4.0,delivered
,HIDDEN,,GROUP_REGION_SOUTH_WEST,GROUP_ADMIN,GROUP_REGION_SOUTH,H753,default,uuid:55cb073a-2202-4a32-ba03-c8623e9a84fe,,anonymous,2016-07-11T16:01:59.023000000,COMPLETE,synced,,,-15.47702498,34.74146662,Neno,temperate,D A NKHOMA,both,25.0,none,100.0,1026-0006,Luwani Health Centre,public,2178.0,community_hospital,not_available,none,available,South,South West,no,yes,delivery,1.0,4.0,delivered
,HIDDEN,,GROUP_REGION_SOUTH_WEST,GROUP_ADMIN,GROUP_REGION_SOUTH,H749,default,uuid:01d55417-7534-4969-96de-fe6eddaada9e,,anonymous,2016-07-11T16:01:59.016000000,COMPLETE,synced,,,-15.46979272,34.64730464,Neno,temperate,JOSEPH CHIKUNI,both,15.0,grid,100.0,1026-0002,Ligowe,public,14337.0,health_center,not_available,more_than_16,not_available,South,South West,no,yes,delivery,1.0,4.0,both
,HIDDEN,,GROUP_REGION_SOUTH_WEST,GROUP_ADMIN,GROUP_REGION_SOUTH,H669,default,uuid:85d8b5b3-37c5-43f3-922d-892491a6ab95,,anonymous,2016-07-11T16:01:59.025000000,COMPLETE,synced,,,-15.4679408,34.94265223,Blantyre,temperate,RABSON MSUKWA,both,61.0,grid,100.0,1022-0026,Mdeka Heath Centre,public,28938.0,community_hospital,not_available,more_than_16,not_available,South,South West,yes,yes,delivery,1.0,4.0,delivered
,HIDDEN,,GROUP_REGION_SOUTH_EAST,GROUP_ADMIN,GROUP_REGION_SOUTH,H622,default,uuid:a3a7ded9-a499-4f89-b9ab-e86729c559da,,anonymous,2016-07-11T16:01:59.033000000,COMPLETE,synced,,,-15.46564057,35.51652622,Zomba,temperate,COLLINS M KAWERA,both,32.0,none,100.0,1021-0019,Chamba Health Centre,public,24135.0,community_hospital,not_available,none,available,South,South East,yes,yes,delivery,1.0,4.0,delivered
,HIDDEN,,GROUP_REGION_SOUTH_WEST,GROUP_ADMIN,GROUP_REGION_SOUTH,H745,default,uuid:8519582a-788a-4346-9e96-18c26ff6f65b,,anonymous,2016-07-11T16:01:59.044000000,COMPLETE,synced,,,-15.46208099,34.49071278,Mwanza,temperate,PATRICK JEFULE MATCHAYA,both,25.0,none,100.0,1025-0003,Kunenekude Health Centre,public,12214.0,community_hospital,not_available,none,available,South,South West,yes,yes,delivery,1.0,4.0,delivered
,HIDDEN,,GROUP_REGION_SOUTH_WEST,GROUP_ADMIN,GROUP_REGION_SOUTH,H756,default,uuid:1827f598-6000-408a-ad8e-4895a8b3646a,,anonymous,2016-07-11T16:01:59.029000000,COMPLETE,synced,,,-15.43531381,34.77394202,Neno,temperate,AMOSI MAKWAYA,both,30.0,grid,10.0,1026-0009,Lisungwi,public,16400.0,district_hospital,not_available,more_than_16,not_available,South,South West,no,yes,delivery,1.0,4.0,both
,HIDDEN,,GROUP_REGION_SOUTH_WEST,GROUP_ADMIN,GROUP_REGION_SOUTH,H755,default,uuid:0d352578-ccf8-4940-8788-e1b560a547d5,,anonymous,2016-07-11T16:01:59.027000000,COMPLETE,synced,,,-15.43413199,34.60762854,Neno,temperate,GRACE WESLEY,both,24.0,grid,100.0,1026-0008,Neno Parish,faithbased,12693.0,community_hospital,not_available,more_than_16,available,South,South West,no,yes,delivery,1.0,4.0,delivered
,HIDDEN,,GROUP_REGION_SOUTH_EAST,GROUP_ADMIN,GROUP_REGION_SOUTH,H621,default,uuid:b2e8e312-7e5b-4f64-a16b-16418f8cbfbb,,anonymous,2016-07-11T16:01:59.031000000,COMPLETE,synced,,,-15.42787005,35.54443665,Zomba,temperate,MATRIIDA GATOMA,both,35.0,none,100.0,1021-0018,Likangala Health Centre,public,35954.0,community_hospital,not_available,none,available,South,South East,yes,yes,delivery,1.0,4.0,delivered
,HIDDEN,,GROUP_REGION_SOUTH_WEST,GROUP_ADMIN,GROUP_REGION_SOUTH,H668,default,uuid:7b1277a1-58aa-4ec0-89ce-70d5253f9d4f,,anonymous,2016-07-11T16:01:59.023000000,COMPLETE,synced,,,-15.42167188,35.01294387,Blantyre,temperate,RICHARD MAWANGA,both,55.0,none,100.0,1022-0025,Lundu Health Centre,public,19760.0,community_hospital,not_available,none,available,South,South West,yes,yes,delivery,1.0,4.0,delivered
,HIDDEN,,GROUP_REGION_SOUTH_EAST,GROUP_ADMIN,GROUP_REGION_SOUTH,H643,default,uuid:6b13a1da-1c74-482c-a2ba-b2828a998a7b,,anonymous,2016-07-11T16:01:59.044000000,COMPLETE,synced,,,-15.41876893,35.84610927,Zomba,temperate,D.E. MUKHITO,both,70.0,none,100.0,1021-0040,Chisoni,public,672.0,dispensary,not_available,none,available,South,South East,yes,yes,delivery,1.0,4.0,delivered
,HIDDEN,,GROUP_REGION_SOUTH_EAST,GROUP_ADMIN,GROUP_REGION_SOUTH,H605,default,uuid:ea80702a-9a39-40f2-99af-afa0fb099bcd,,anonymous,2016-07-11T16:01:59.033000000,COMPLETE,synced,,,-15.40093946,35.31321704,Zomba,temperate,RUTH MMANGA,none,0.0,grid,10.0,1021-0002,Zomba Dho Facility,public,38381.0,central_hospital,not_available,8_to_16,not_available,South,South East,yes,yes,delivery,1.0,4.0,collected
,HIDDEN,,GROUP_REGION_SOUTH_EAST,GROUP_ADMIN,GROUP_REGION_SOUTH,H603,default,uuid:b634498f-4b81-4e85-a453-bb9c3cfe217f,,anonymous,2016-07-11T16:01:59.029000000,COMPLETE,synced,,,-15.39890498,35.3133808,Zomba,temperate,RUTH MMANGA,static,0.1,grid,10.0,1021-0000,Zomba Central Hospital,public,59448.0,district_vaccine_store,not_available,fewer_than_4,not_available,South,South East,yes,yes,delivery,1.0,4.0,collected
,HIDDEN,,GROUP_REGION_SOUTH_EAST,GROUP_ADMIN,GROUP_REGION_SOUTH,H612,default,uuid:be3183f6-fdec-495a-b945-1f709a2e91a1,,anonymous,2016-07-11T16:01:59.051000000,COMPLETE,synced,,,-15.39696744,35.18059473,Zomba,temperate,YVONNIE MATOLA,both,40.0,grid,100.0,1021-0009,Chingale Health Centre,public,29243.0,community_hospital,not_available,more_than_16,not_available,South,South East,yes,yes,delivery,1.0,4.0,delivered
,HIDDEN,,GROUP_REGION_SOUTH_WEST,GROUP_ADMIN,GROUP_REGION_SOUTH,H754,default,uuid:1ab22837-ebe8-4568-a1df-7e587f706185,,anonymous,2016-07-11T16:01:59.025000000,COMPLETE,synced,,,-15.39255289,34.65272258,Neno,temperate,MACKSON NSEMBE,both,0.0,grid,10.0,1026-0007,Neno Dho,public,15634.0,central_hospital,not_available,more_than_16,not_available,South,South West,yes,no,delivery,1.0,4.0,both
,HIDDEN,,GROUP_REGION_SOUTH_EAST,GROUP_ADMIN,GROUP_REGION_SOUTH,H630,default,uuid:0dda25b8-06a6-4683-9572-173a2d199352,,anonymous,2016-07-11T16:01:59.016000000,COMPLETE,synced,,,-15.39163533,35.32693357,Zomba,temperate,FANNIE W. PHIRI,static,5.0,grid,10.0,1021-0027,Zomba Police,private,7416.0,rural_hospital,not_available,more_than_16,not_available,South,South East,yes,yes,delivery,1.0,4.0,delivered
,HIDDEN,,GROUP_REGION_SOUTH_EAST,GROUP_ADMIN,GROUP_REGION_SOUTH,H632,default,uuid:637979d7-fd10-433c-9991-298a62f46d83,,anonymous,2016-07-11T16:01:59.019000000,COMPLETE,synced,,,-15.39119789,35.33935113,Zomba,temperate,R. KAUNJIKAKAKARALA,static,7.0,grid,100.0,1021-0029,Chancellor College,other,5916.0,health_center,not_available,more_than_16,not_available,South,South East,yes,yes,delivery,1.0,4.0,delivered
,HIDDEN,,GROUP_REGION_SOUTH_EAST,GROUP_ADMIN,GROUP_REGION_SOUTH,H606,default,uuid:51c0e9e7-0c98-4851-b4a5-52096064045f,,anonymous,2016-07-11T16:01:59.035000000,COMPLETE,synced,,,-15.39108768,35.30491333,Zomba,temperate,KISSA KADALUKA,static,3.0,grid,10.0,1021-0003,Cobbe Barracks,private,4963.0,rural_hospital,not_available,more_than_16,not_available,South,South East,no,yes,delivery,1.0,4.0,delivered
,HIDDEN,,GROUP_REGION_SOUTH_EAST,GROUP_ADMIN,GROUP_REGION_SOUTH,H639,default,uuid:0bdc4d9a-8197-4121-a626-58abc5b3319d,,anonymous,2016-07-11T16:01:59.033000000,COMPLETE,synced,,,-15.39040601,35.35957731,Zomba,temperate,JOYCE LIGOMEKA,both,12.0,grid,100.0,1021-0036,Matawale,public,16958.0,community_hospital,not_available,more_than_16,not_available,South,South East,yes,yes,delivery,1.0,4.0,delivered
,HIDDEN,,GROUP_REGION_SOUTH_EAST,GROUP_ADMIN,GROUP_REGION_SOUTH,H611,default,uuid:1e68b03c-7ceb-45d0-b93d-2cf24b9abe73,,anonymous,2016-07-11T16:01:59.049000000,COMPLETE,synced,,,-15.38973857,35.09511773,Zomba,temperate,NICHOLUS E SAYENDA,both,35.0,grid,100.0,1021-0008,Chipini Health Centre,public,23758.0,community_hospital,not_available,more_than_16,not_available,South,South East,yes,yes,delivery,1.0,4.0,delivered
,HIDDEN,,GROUP_REGION_SOUTH_EAST,GROUP_ADMIN,GROUP_REGION_SOUTH,H613,default,uuid:27398740-042c-4e9e-b3e8-a746abb30e07,,anonymous,2016-07-11T16:01:59.016000000,COMPLETE,synced,,,-15.38960316,35.21176261,Zomba,temperate,ANNIE CHITSUKWA,both,17.0,grid,100.0,1021-0010,Changalume Health Centre,public,3320.0,community_hospital,not_available,more_than_16,not_available,South,South East,yes,yes,delivery,1.0,4.0,delivered
,HIDDEN,,GROUP_REGION_SOUTH_EAST,GROUP_ADMIN,GROUP_REGION_SOUTH,H633,default,uuid:473dcf23-ac61-4b2e-ba3b-81a654de2a93,,anonymous,2016-07-11T16:01:59.022000000,COMPLETE,synced,,,-15.38904158,35.32009758,Zomba,temperate,CHRISSIE MUSOWA,static,3.0,grid,100.0,1021-0030,Zomba Banja La Mtsogolo,private,4732.0,community_hospital,not_available,more_than_16,not_available,South,South East,no,yes,delivery,1.0,4.0,collected
,HIDDEN,,GROUP_REGION_SOUTH_EAST,GROUP_ADMIN,GROUP_REGION_SOUTH,H609,default,uuid:0b5b482b-75f5-467d-9c56-37211220a1a5,,anonymous,2016-07-11T16:01:59.044000000,COMPLETE,synced,,,-15.37921367,35.33290398,Zomba,temperate,CHISOMO MALUNGA,static,0.5,grid,100.0,1021-0006,Masm Clinic,private,325.0,community_hospital,not_available,more_than_16,not_available,South,South East,yes,yes,delivery,1.0,4.0,delivered
,HIDDEN,,GROUP_REGION_SOUTH_EAST,GROUP_ADMIN,GROUP_REGION_SOUTH,H623,default,uuid:e74a4694-6147-4d70-a103-6c4e86894bf8,,anonymous,2016-07-11T16:01:59.035000000,COMPLETE,synced,,,-15.36936602,35.45066031,Zomba,temperate,MATHEWS MANDALA,both,15.0,none,100.0,1021-0020,Makwapala Health Centre,public,37336.0,community_hospital,not_available,none,not_available,South,South East,yes,yes,delivery,1.0,4.0,delivered
,HIDDEN,,GROUP_REGION_SOUTH_EAST,GROUP_ADMIN,GROUP_REGION_SOUTH,H636,default,uuid:f432cfb2-a9fd-4b18-99cf-56ba9d786d09,,anonymous,2016-07-11T16:01:59.027000000,COMPLETE,synced,,,-15.35783772,35.38500057,Zomba,temperate,TABITA GADAMA,both,17.0,none,100.0,1021-0033,Naisi,public,14135.0,community_hospital,not_available,none,available,South,South East,yes,yes,delivery,1.0,4.0,delivered
,HIDDEN,,GROUP_REGION_SOUTH_EAST,GROUP_ADMIN,GROUP_REGION_SOUTH,H637,default,uuid:155024e7-5100-4b66-bb08-928e1594ee01,,anonymous,2016-07-11T16:01:59.029000000,COMPLETE,synced,,,-15.35222889,35.29098565,Zomba,temperate,E. KAMPIRA,static,15.0,grid,100.0,1021-0034,Chawe Forest,private,420.0,community_hospital,not_available,more_than_16,not_available,South,South East,yes,yes,delivery,1.0,4.0,delivered
,HIDDEN,,GROUP_REGION_SOUTH_WEST,GROUP_ADMIN,GROUP_REGION_SOUTH,H757,default,uuid:ef5a3095-13c7-4cb8-a623-96a08e36ab43,,anonymous,2016-07-11T16:01:59.031000000,COMPLETE,synced,,,-15.35098466,34.94655739,Neno,temperate,PHILLIP CHINYAMA,both,48.0,grid,100.0,1026-0010,Matope,faithbased,15222.0,community_hospital,not_available,more_than_16,not_available,South,South West,no,yes,delivery,1.0,4.0,delivered
,HIDDEN,,GROUP_REGION_SOUTH_WEST,GROUP_ADMIN,GROUP_REGION_SOUTH,H758,default,uuid:0f8f645a-2109-40f8-98f6-660bb913f8a1,,anonymous,2016-07-11T16:01:59.033000000,COMPLETE,synced,,,-15.34697076,34.83923121,Neno,temperate,BLESSINGS CHIPASULA,both,40.0,none,100.0,1026-0011,Midzemba,public,13502.0,health_center,not_available,none,available,South,South West,no,yes,delivery,1.0,4.0,both
