"Immunization_services_offered",Location_accuracy,Location_altitude,Location_latitude,Location_longitude,_default_access,_group_modify,_group_privileged,_group_read_only,_id,admin_region,catchment_population,contact_name,contact_phone_number,contact_title,distance_to_supply,electricity_source,facility_id,facility_name,facility_ownership,facility_type,fuel_availability,grid_power_availability,number_of_cold_boxes,number_of_fs_cold_boxes,"number_of_fs_vaccine_carriers","number_of_vaccine_carriers",regionLevel1,regionLevel2,vaccine_supply_interval,vaccine_supply_mode
,0.0,0.0,-17.946217,35.451797,HIDDEN,GROUP_REGION_SOUTH_EAST,GROUP_ADMIN,GROUP_REGION_SOUTH,H627,"a74039b0-b362-42c3-ae43-f2195fa7975a",9218,"MARY PHAMOYO",,,33.0,none,,Machinjiri,public,community_hospital,,none,0,0,0,0,,,4,delivered
,0.0,0.0,-17.112194,35.15608,HIDDEN,GROUP_REGION_SOUTH_WEST,GROUP_ADMIN,GROUP_REGION_SOUTH,H765,"e303d17b-d8b7-4552-8b2a-cec62cc7a0dc",6000,"HOMESTONE MKANDA",,,46.0,none,,"Nkhande Health Post",public,dispensary,,none,0,0,0,0,,,4,both
,0.0,0.0,-17.093065,35.218224,HIDDEN,GROUP_REGION_SOUTH_WEST,GROUP_ADMIN,GROUP_REGION_SOUTH,H763,"e303d17b-d8b7-4552-8b2a-cec62cc7a0dc",19084,"DANIEL M.B. MURAPHI",,,27.0,grid,,"Ndamera Health Centre",public,community_hospital,,more_than_16,0,0,0,0,,,2,both
,0.0,0.0,-17.084826,35.113483,HIDDEN,GROUP_REGION_SOUTH_WEST,GROUP_ADMIN,GROUP_REGION_SOUTH,H766,"e303d17b-d8b7-4552-8b2a-cec62cc7a0dc",6437,"PATRICK SEDA",,,55.0,none,,"Lulwe Health Centre",faithbased,community_hospital,,none,0,0,0,0,,,4,delivered
,0.0,0.0,-17.044022,35.215775,HIDDEN,GROUP_REGION_SOUTH_WEST,GROUP_ADMIN,GROUP_REGION_SOUTH,H764,"e303d17b-d8b7-4552-8b2a-cec62cc7a0dc",7796,"ANDERSON DILIRO",,,12.0,none,,"Kamphata Health Post",public,dispensary,,none,0,0,0,0,,,4,both
,0.0,0.0,-16.996477,35.108463,HIDDEN,GROUP_REGION_SOUTH_WEST,GROUP_ADMIN,GROUP_REGION_SOUTH,H767,"e303d17b-d8b7-4552-8b2a-cec62cc7a0dc",6893,"AUSTINE THOMSON",,,69.0,none,,"Chingoma Health Post",public,dispensary,,none,0,0,0,0,,,4,collected
,0.0,0.0,-16.992283,35.21995,HIDDEN,GROUP_REGION_SOUTH_WEST,GROUP_ADMIN,GROUP_REGION_SOUTH,H762,"e303d17b-d8b7-4552-8b2a-cec62cc7a0dc",21309,"GEORGE KADULIRA",,,14.0,grid,,"Mbenje Health Centre",public,community_hospital,,more_than_16,0,0,0,0,,,2,both
,0.0,0.0,-16.914824,35.25902,HIDDEN,GROUP_REGION_SOUTH_WEST,GROUP_ADMIN,GROUP_REGION_SOUTH,H760,"e303d17b-d8b7-4552-8b2a-cec62cc7a0dc",35525,"STANLEY MZAYA",,,0.0,grid,,"Nsanje District Hospital",public,central_hospital,,more_than_16,0,0,0,0,,,1,collected
,0.0,0.0,-16.912271,35.17268,HIDDEN,GROUP_REGION_SOUTH_WEST,GROUP_ADMIN,GROUP_REGION_SOUTH,H768,"e303d17b-d8b7-4552-8b2a-cec62cc7a0dc",10585,"FADOWICK MADENGU",,,22.0,none,,"Chididi Health Centre",faithbased,community_hospital,,none,0,0,0,0,,,4,delivered
,0.0,0.0,-16.822212,35.303524,HIDDEN,GROUP_REGION_SOUTH_WEST,GROUP_ADMIN,GROUP_REGION_SOUTH,H769,"e303d17b-d8b7-4552-8b2a-cec62cc7a0dc",9994,"AFACHI FREDSON",,,12.0,none,,"Mkango Health Centre",public,dispensary,,none,0,0,0,0,,,4,both
,0.0,0.0,-16.759907,35.04675,HIDDEN,GROUP_REGION_SOUTH_WEST,GROUP_ADMIN,GROUP_REGION_SOUTH,H775,"e303d17b-d8b7-4552-8b2a-cec62cc7a0dc",4114,"DEVIS MOSES MTHYOLA",,,79.0,none,,"Mitsamvu Health Centre",public,dispensary,,none,0,0,0,0,,,4,both
,0.0,0.0,-16.730036,35.269714,HIDDEN,GROUP_REGION_SOUTH_WEST,GROUP_ADMIN,GROUP_REGION_SOUTH,H770,"e303d17b-d8b7-4552-8b2a-cec62cc7a0dc",24027,"TELEZA BISENTI",,,22.0,grid,,"Tengani Health Centre",public,community_hospital,,more_than_16,0,0,0,0,,,12,both
,0.0,0.0,-16.691912,34.966423,HIDDEN,GROUP_REGION_SOUTH_WEST,GROUP_ADMIN,GROUP_REGION_SOUTH,H776,"e303d17b-d8b7-4552-8b2a-cec62cc7a0dc",4144,"HOREACE CHIMWANZA",,,71.0,none,,Kanyimbi,public,dispensary,,none,0,0,0,0,,,4,both
,0.0,0.0,-16.67971,35.1975,HIDDEN,GROUP_REGION_SOUTH_WEST,GROUP_ADMIN,GROUP_REGION_SOUTH,H771,"e303d17b-d8b7-4552-8b2a-cec62cc7a0dc",8403,"PETER AMOSI",,,25.0,grid,,"Nyamithuthu Health Centre",public,community_hospital,,more_than_16,0,0,0,0,,,4,both
,0.0,0.0,-16.66753,34.87926,HIDDEN,GROUP_REGION_SOUTH_WEST,GROUP_ADMIN,GROUP_REGION_SOUTH,H692,"bd32c4b4-4682-450a-9e0a-0c5e7b9c7034",2978,"KONDWANI MANDEYA",,,50.0,none,,"Thendo Health Post",public,dispensary,,none,0,0,0,0,,,4,delivered
,0.0,0.0,-16.625925,35.155758,HIDDEN,GROUP_REGION_SOUTH_WEST,GROUP_ADMIN,GROUP_REGION_SOUTH,H772,"e303d17b-d8b7-4552-8b2a-cec62cc7a0dc",9366,"JOSEPHY LUMBE",,,35.0,grid,,"Phokera Health Centre",public,community_hospital,,more_than_16,0,0,0,0,,,4,both
,0.0,0.0,-16.57304,35.110577,HIDDEN,GROUP_REGION_SOUTH_WEST,GROUP_ADMIN,GROUP_REGION_SOUTH,H773,"e303d17b-d8b7-4552-8b2a-cec62cc7a0dc",23304,"AZANI BASIKOLO",,,48.0,grid,,"Kalemba Community Hospital",faithbased,hospital,,more_than_16,0,0,0,0,,,4,both
,0.0,0.0,-16.550877,34.923832,HIDDEN,GROUP_REGION_SOUTH_WEST,GROUP_ADMIN,GROUP_REGION_SOUTH,H691,"bd32c4b4-4682-450a-9e0a-0c5e7b9c7034",37924,"LAWRENCE CHAIMA",,,74.0,none,,"Dolo Health Centre",public,community_hospital,,none,0,0,0,0,,,4,delivered
,0.0,0.0,-16.540127,35.01077,HIDDEN,GROUP_REGION_SOUTH_WEST,GROUP_ADMIN,GROUP_REGION_SOUTH,H774,"e303d17b-d8b7-4552-8b2a-cec62cc7a0dc",14236,"CAROL CHIGWALE",,,69.0,grid,,"Sorgin Health Centre",public,community_hospital,,more_than_16,0,0,0,0,,,4,both
,0.0,0.0,-16.522387,34.98106,HIDDEN,GROUP_REGION_SOUTH_WEST,GROUP_ADMIN,GROUP_REGION_SOUTH,H693,"bd32c4b4-4682-450a-9e0a-0c5e7b9c7034",3827,"DAVIS PHIRI",,,12.0,grid,,"Konzere Health Post",public,dispensary,,more_than_16,0,0,0,0,,,4,collected
,0.0,0.0,-16.519043,35.17273,HIDDEN,GROUP_REGION_SOUTH_WEST,GROUP_ADMIN,GROUP_REGION_SOUTH,H777,"e303d17b-d8b7-4552-8b2a-cec62cc7a0dc",14165,"DAVID JEKE",,,15.0,grid,,Makhanga,public,community_hospital,,more_than_16,0,0,0,0,,,4,collected
,0.0,0.0,-16.488747,35.15913,HIDDEN,GROUP_REGION_SOUTH_WEST,GROUP_ADMIN,GROUP_REGION_SOUTH,H779,"e303d17b-d8b7-4552-8b2a-cec62cc7a0dc",6168,"BOSTON NYAKAMERA",,,13.0,none,,"Mchacha Health Centre",public,dispensary,,none,0,0,0,0,,,4,collected
,0.0,0.0,-16.483118,34.819798,HIDDEN,GROUP_REGION_SOUTH_WEST,GROUP_ADMIN,GROUP_REGION_SOUTH,H724,"bd32c4b4-4682-450a-9e0a-0c5e7b9c7034",5406,"RICHARD KATUNGA",,,7.0,none,,"Saopa Health Post",public,dispensary,,none,0,0,0,0,,,4,collected
,0.0,0.0,-16.476856,34.72371,HIDDEN,GROUP_REGION_SOUTH_WEST,GROUP_ADMIN,GROUP_REGION_SOUTH,H715,"bd32c4b4-4682-450a-9e0a-0c5e7b9c7034",11518,"NICO ELATONI",,,81.0,none,,"Mkumaniza Health Centre",public,community_hospital,,none,0,0,0,0,,,4,delivered
,0.0,0.0,-16.456776,34.891617,HIDDEN,GROUP_REGION_SOUTH_WEST,GROUP_ADMIN,GROUP_REGION_SOUTH,H694,"bd32c4b4-4682-450a-9e0a-0c5e7b9c7034",57566,"MERCY CHIJOTA",,,65.0,grid,,"Mgabu Rural Hospital",public,district_hospital,,more_than_16,0,0,0,0,,,4,both
,0.0,0.0,-16.454147,35.258118,HIDDEN,GROUP_REGION_SOUTH_WEST,GROUP_ADMIN,GROUP_REGION_SOUTH,H778,"e303d17b-d8b7-4552-8b2a-cec62cc7a0dc",6282,"FANUWEL CHANGWA",,,16.0,none,,"Sankhulani Health Health Centre",public,community_hospital,,none,0,0,0,0,,,4,collected
,0.0,0.0,-16.416986,35.151794,HIDDEN,GROUP_REGION_SOUTH_WEST,GROUP_ADMIN,GROUP_REGION_SOUTH,H781,"e303d17b-d8b7-4552-8b2a-cec62cc7a0dc",7909,"SYDAY MAKOKA",,,4.0,none,,"Mulolo Health Centre",public,dispensary,,none,0,0,0,0,,,4,collected
,0.0,0.0,-16.416412,35.170742,HIDDEN,GROUP_REGION_SOUTH_WEST,GROUP_ADMIN,GROUP_REGION_SOUTH,H780,"e303d17b-d8b7-4552-8b2a-cec62cc7a0dc",19797,"ANNA BANDE",,,100.0,grid,,"Trinity Mission Hospital",faithbased,rural_hospital,,more_than_16,0,0,0,0,,,4,collected
,0.0,0.0,-16.400587,34.884888,HIDDEN,GROUP_REGION_SOUTH_WEST,GROUP_ADMIN,GROUP_REGION_SOUTH,H711,"bd32c4b4-4682-450a-9e0a-0c5e7b9c7034",2851,"TAULAYI MAPULANGA",,,25.0,grid,,"Alimenda Clinic",private,community_hospital,,more_than_16,0,0,0,0,,,4,delivered
,0.0,0.0,-16.395851,34.77497,HIDDEN,GROUP_REGION_SOUTH_WEST,GROUP_ADMIN,GROUP_REGION_SOUTH,H713,"bd32c4b4-4682-450a-9e0a-0c5e7b9c7034",23912,"LYSON THOM",,,25.0,none,,"Chipwaira Health Centre",public,community_hospital,,none,0,0,0,0,,,4,delivered
,0.0,0.0,-16.369791,35.230717,HIDDEN,GROUP_REGION_SOUTH_WEST,GROUP_ADMIN,GROUP_REGION_SOUTH,H810,"e17f13f1-b2b6-45e6-bd19-29ae385a498a",12731,"DUNCAN MANANGA",,,10.0,none,,Gombe,public,community_hospital,,none,0,0,0,0,,,4,collected
,0.0,0.0,-16.365072,34.68157,HIDDEN,GROUP_REGION_SOUTH_WEST,GROUP_ADMIN,GROUP_REGION_SOUTH,H714,"bd32c4b4-4682-450a-9e0a-0c5e7b9c7034",10758,"SUMZEY MSAKA",,,13.0,none,,"Therere Health Post",public,dispensary,,none,0,0,0,0,,,4,delivered
,0.0,0.0,-16.336672,35.200542,HIDDEN,GROUP_REGION_SOUTH_WEST,GROUP_ADMIN,GROUP_REGION_SOUTH,H809,"e17f13f1-b2b6-45e6-bd19-29ae385a498a",7709,"ELLIAS WILSON SABOLA",,,7.0,grid,,Nsabwe,public,community_hospital,,more_than_16,0,0,0,0,,,4,delivered
,0.0,0.0,-16.334602,35.09587,HIDDEN,GROUP_REGION_SOUTH_WEST,GROUP_ADMIN,GROUP_REGION_SOUTH,H782,"e303d17b-d8b7-4552-8b2a-cec62cc7a0dc",14789,"STANLEY RANK",,,20.0,none,,"Masenjere Health Centre",public,community_hospital,,none,0,0,0,0,,,4,collected
,0.0,0.0,-16.321293,35.263184,HIDDEN,GROUP_REGION_SOUTH_WEST,GROUP_ADMIN,GROUP_REGION_SOUTH,H811,"e17f13f1-b2b6-45e6-bd19-29ae385a498a",10514,"BULANDSON MASTER",,,8.0,none,,Nkhataombere,public,dispensary,,none,0,0,0,0,,,4,both
,0.0,0.0,-16.318304,35.206623,HIDDEN,GROUP_REGION_SOUTH_WEST,GROUP_ADMIN,GROUP_REGION_SOUTH,H820,"e17f13f1-b2b6-45e6-bd19-29ae385a498a",18515,,,,78.0,grid,,Thekerani,public,community_hospital,,more_than_16,0,0,0,0,,,4,both
,0.0,0.0,-16.28364,34.83798,HIDDEN,GROUP_REGION_SOUTH_WEST,GROUP_ADMIN,GROUP_REGION_SOUTH,H726,"bd32c4b4-4682-450a-9e0a-0c5e7b9c7034",10304,"JIA JUSTINE JIA",,,7.0,none,,"Mafale Dispensary",public,health_center,,none,0,0,0,0,,,4,collected
,0.0,0.0,-16.273457,35.196224,HIDDEN,GROUP_REGION_SOUTH_WEST,GROUP_ADMIN,GROUP_REGION_SOUTH,H827,"e17f13f1-b2b6-45e6-bd19-29ae385a498a",13707,"F. MAHENGE",,,60.0,none,,Mapanga,public,community_hospital,,none,0,0,0,0,,,4,delivered
,0.0,0.0,-16.273323,34.879898,HIDDEN,GROUP_REGION_SOUTH_WEST,GROUP_ADMIN,GROUP_REGION_SOUTH,H710,"bd32c4b4-4682-450a-9e0a-0c5e7b9c7034",2488,"EVERSON MAGUDA",,,5.0,grid,,"Mkombezi Clinic",private,community_hospital,,more_than_16,0,0,0,0,,,4,delivered
,0.0,0.0,-16.2678,34.862885,HIDDEN,GROUP_REGION_SOUTH_WEST,GROUP_ADMIN,GROUP_REGION_SOUTH,H725,"bd32c4b4-4682-450a-9e0a-0c5e7b9c7034",25682,"PATRICK KHOFI",,,3.0,grid,,"Hunger Project Health Post",private,community_hospital,,more_than_16,0,0,0,0,,,4,delivered
,0.0,0.0,-16.26609,35.05711,HIDDEN,GROUP_REGION_SOUTH_WEST,GROUP_ADMIN,GROUP_REGION_SOUTH,H721,"bd32c4b4-4682-450a-9e0a-0c5e7b9c7034",23572,"LAIZA MALUNGA",,,45.0,none,,"Mitondo Health Post",public,dispensary,,none,0,0,0,0,,,4,delivered
,0.0,0.0,-16.259064,35.29521,HIDDEN,GROUP_REGION_SOUTH_WEST,GROUP_ADMIN,GROUP_REGION_SOUTH,H826,"e17f13f1-b2b6-45e6-bd19-29ae385a498a",8530,"YONA F. BAMUSI",,,85.0,none,,Chipho,faithbased,community_hospital,,none,0,0,0,0,,,4,both
,0.0,0.0,-16.25562,34.89132,HIDDEN,GROUP_REGION_SOUTH_WEST,GROUP_ADMIN,GROUP_REGION_SOUTH,H706,"bd32c4b4-4682-450a-9e0a-0c5e7b9c7034",1767,"CHIFUNDO KONDONI",,,35.0,grid,,"Illovo Factory",private,community_hospital,,more_than_16,0,0,0,0,,,4,both
,0.0,0.0,-16.251635,34.86679,HIDDEN,GROUP_REGION_SOUTH_WEST,GROUP_ADMIN,GROUP_REGION_SOUTH,H695,"bd32c4b4-4682-450a-9e0a-0c5e7b9c7034",68993,"JOSEPHAT MBALE",,,65.0,grid,,"Montfort Rural Hospital",faithbased,rural_hospital,,more_than_16,0,0,0,0,,,4,both
,0.0,0.0,-16.248194,35.16583,HIDDEN,GROUP_REGION_SOUTH_WEST,GROUP_ADMIN,GROUP_REGION_SOUTH,H819,"e17f13f1-b2b6-45e6-bd19-29ae385a498a",4517,"S. CHIKONJE",,,7.0,none,,Mbalanguzi,public,dispensary,,none,0,0,0,0,,,4,both
,0.0,0.0,-16.238998,34.91084,HIDDEN,GROUP_REGION_SOUTH_WEST,GROUP_ADMIN,GROUP_REGION_SOUTH,H707,"bd32c4b4-4682-450a-9e0a-0c5e7b9c7034",3935,"JOEL KAZEMBE",,,20.0,grid,,"Kalulu Clinic",private,community_hospital,,more_than_16,0,0,0,0,,,4,delivered
,0.0,0.0,-16.235058,35.199062,HIDDEN,GROUP_REGION_SOUTH_WEST,GROUP_ADMIN,GROUP_REGION_SOUTH,H824,"e17f13f1-b2b6-45e6-bd19-29ae385a498a",17568,"JOYCE CHIROMO",,,48.0,grid,,Zowa,public,community_hospital,,more_than_16,0,0,0,0,,,4,both
,0.0,0.0,-16.229631,35.146782,HIDDEN,GROUP_REGION_SOUTH_WEST,GROUP_ADMIN,GROUP_REGION_SOUTH,H808,"e17f13f1-b2b6-45e6-bd19-29ae385a498a",20600,"MERCY SUPEDI",,,39.0,none,,Changata,public,community_hospital,,none,0,0,0,0,,,4,both
,0.0,0.0,-16.22089,34.68825,HIDDEN,GROUP_REGION_SOUTH_WEST,GROUP_ADMIN,GROUP_REGION_SOUTH,H704,"bd32c4b4-4682-450a-9e0a-0c5e7b9c7034",16354,"GEOFREY TEMBO",,,33.0,none,,"Ndakwera Health Centre",public,community_hospital,,none,0,0,0,0,,,4,delivered
,0.0,0.0,-16.219608,34.85374,HIDDEN,GROUP_REGION_SOUTH_WEST,GROUP_ADMIN,GROUP_REGION_SOUTH,H709,"bd32c4b4-4682-450a-9e0a-0c5e7b9c7034",2890,"JOSEPH CHIPWA",,,8.0,grid,,"Mangulenje Clinic",private,community_hospital,,more_than_16,0,0,0,0,,,4,collected
,0.0,0.0,-16.214924,35.13503,HIDDEN,GROUP_REGION_SOUTH_WEST,GROUP_ADMIN,GROUP_REGION_SOUTH,H806,"e17f13f1-b2b6-45e6-bd19-29ae385a498a",20804,"WELLINGTON NDILANDE",,,34.0,grid,,"St Martins",faithbased,community_hospital,,more_than_16,0,0,0,0,,,4,both
,0.0,0.0,-16.204247,35.294968,HIDDEN,GROUP_REGION_SOUTH_WEST,GROUP_ADMIN,GROUP_REGION_SOUTH,H825,"e17f13f1-b2b6-45e6-bd19-29ae385a498a",8079,"KNOWLWDGE MITEPELA",,,65.0,none,,Sandama,public,dispensary,,none,0,0,0,0,,,4,delivered
,0.0,0.0,-16.197706,34.79893,HIDDEN,GROUP_REGION_SOUTH_WEST,GROUP_ADMIN,GROUP_REGION_SOUTH,H712,"bd32c4b4-4682-450a-9e0a-0c5e7b9c7034",1507,"MC MILLAN MAKULUNI",,,30.0,grid,,"Lengwe Clinic",private,community_hospital,,more_than_16,0,0,0,0,,,4,delivered
,0.0,0.0,-16.192211,35.00973,HIDDEN,GROUP_REGION_SOUTH_WEST,GROUP_ADMIN,GROUP_REGION_SOUTH,H720,"bd32c4b4-4682-450a-9e0a-0c5e7b9c7034",56766,"KENNEDY THALA",,,35.0,none,,"Makhwira Health Centre",public,community_hospital,,none,0,0,0,0,,,4,delivered
,0.0,0.0,-16.19203,35.104954,HIDDEN,GROUP_REGION_SOUTH_WEST,GROUP_ADMIN,GROUP_REGION_SOUTH,H804,"e17f13f1-b2b6-45e6-bd19-29ae385a498a",1117,"ANDREW LIKAGWA",,,5.0,grid,,Makwasa,private,community_hospital,,more_than_16,0,0,0,0,,,4,collected
,0.0,0.0,-16.18665,34.87982,HIDDEN,GROUP_REGION_SOUTH_WEST,GROUP_ADMIN,GROUP_REGION_SOUTH,H708,"bd32c4b4-4682-450a-9e0a-0c5e7b9c7034",3796,"CHARLES CHILOKOTENI",,,12.0,grid,,"Mwanza Clinic",private,community_hospital,,more_than_16,0,0,0,0,,,4,delivered
,0.0,0.0,-16.179043,35.278988,HIDDEN,GROUP_REGION_SOUTH_WEST,GROUP_ADMIN,GROUP_REGION_SOUTH,H788,"e17f13f1-b2b6-45e6-bd19-29ae385a498a",9899,"CHANCY MBEWE",,,27.0,none,,Makapwa,private,community_hospital,,none,0,0,0,0,,,4,both
,0.0,0.0,-16.178564,35.19028,HIDDEN,GROUP_REGION_SOUTH_WEST,GROUP_ADMIN,GROUP_REGION_SOUTH,H807,"e17f13f1-b2b6-45e6-bd19-29ae385a498a",4154,"NDY M KAPOMBEZA",,,9.0,none,,"Malosa Health Post",public,dispensary,,none,0,0,0,0,,,4,collected
,0.0,0.0,-16.168512,35.109406,HIDDEN,GROUP_REGION_SOUTH_WEST,GROUP_ADMIN,GROUP_REGION_SOUTH,H805,"e17f13f1-b2b6-45e6-bd19-29ae385a498a",39661,"LUCY MACHEYA",,,20.0,grid,,Malamulo,faithbased,rural_hospital,,more_than_16,0,0,0,0,,,4,both
,0.0,0.0,-16.153906,35.340076,HIDDEN,GROUP_REGION_SOUTH_EAST,GROUP_ADMIN,GROUP_REGION_SOUTH,H580,"dc6bd15f-15f2-4aca-afa9-0a902ca0459c",22834,"KATOWA KAYANGE",,,40.0,none,,"Chinyama Health Centre",public,community_hospital,,none,0,0,0,0,,,4,delivered
,0.0,0.0,-16.14925,34.853027,HIDDEN,GROUP_REGION_SOUTH_WEST,GROUP_ADMIN,GROUP_REGION_SOUTH,H699,"bd32c4b4-4682-450a-9e0a-0c5e7b9c7034",16366,"CHRISPINE KADANGO",,,15.0,none,,"Bereu Dispensary",public,health_center,,none,0,0,0,0,,,4,both
,0.0,0.0,-16.146652,34.6791,HIDDEN,GROUP_REGION_SOUTH_WEST,GROUP_ADMIN,GROUP_REGION_SOUTH,H705,"bd32c4b4-4682-450a-9e0a-0c5e7b9c7034",6673,"VICTOR CHIPHUKIRE",,,15.0,none,,"Mandrade Health Post",public,dispensary,,none,0,0,0,0,,,4,delivered
,0.0,0.0,-16.144026,34.95812,HIDDEN,GROUP_REGION_SOUTH_WEST,GROUP_ADMIN,GROUP_REGION_SOUTH,H719,"bd32c4b4-4682-450a-9e0a-0c5e7b9c7034",15000,"DECKS JAM",,,22.0,none,,"Mkhathe Health Post",public,dispensary,,none,0,0,0,0,,,4,delivered
,0.0,0.0,-16.142046,35.182373,HIDDEN,GROUP_REGION_SOUTH_WEST,GROUP_ADMIN,GROUP_REGION_SOUTH,H823,"e17f13f1-b2b6-45e6-bd19-29ae385a498a",8811,"PATRICK CHILENGA",,,15.0,none,,Namalime,public,dispensary,,none,0,0,0,0,,,4,delivered
,0.0,0.0,-16.141155,35.524117,HIDDEN,GROUP_REGION_SOUTH_EAST,GROUP_ADMIN,GROUP_REGION_SOUTH,H562,"dc6bd15f-15f2-4aca-afa9-0a902ca0459c",24386,"CHRISTOPHER CHIWANDA",,,14.0,grid,,Mpala,public,community_hospital,,more_than_16,0,0,0,0,,,4,both
,0.0,0.0,-16.137133,35.097744,HIDDEN,GROUP_REGION_SOUTH_WEST,GROUP_ADMIN,GROUP_REGION_SOUTH,H803,"e17f13f1-b2b6-45e6-bd19-29ae385a498a",1900,"GLADYS CHIMWALA",,,15.0,grid,,Sambankhanga,private,community_hospital,,more_than_16,0,0,0,0,,,4,both
,0.0,0.0,-16.123907,35.083744,HIDDEN,GROUP_REGION_SOUTH_WEST,GROUP_ADMIN,GROUP_REGION_SOUTH,H802,"e17f13f1-b2b6-45e6-bd19-29ae385a498a",13180,"MICHAEL SABOLA",,,11.0,grid,,Mtambanyama,faithbased,community_hospital,,more_than_16,0,0,0,0,,,4,delivered
,0.0,0.0,-16.117437,35.097565,HIDDEN,GROUP_REGION_SOUTH_WEST,GROUP_ADMIN,GROUP_REGION_SOUTH,H800,"e17f13f1-b2b6-45e6-bd19-29ae385a498a",1500,"DICK CHISONI",,,8.0,grid,,Kasembeleka,private,community_hospital,,more_than_16,0,0,0,0,,,4,collected
,0.0,0.0,-16.114313,35.4048,HIDDEN,GROUP_REGION_SOUTH_EAST,GROUP_ADMIN,GROUP_REGION_SOUTH,H581,"dc6bd15f-15f2-4aca-afa9-0a902ca0459c",5811,"STEPHEN NAZOMBE",,,38.0,none,,"Dzenje Maternity",public,health_post,,none,0,0,0,0,,,4,both
,0.0,0.0,-16.111193,35.139492,HIDDEN,GROUP_REGION_SOUTH_WEST,GROUP_ADMIN,GROUP_REGION_SOUTH,H821,"e17f13f1-b2b6-45e6-bd19-29ae385a498a",1804,"MEDSON MWANAKHU",,,5.0,grid,,Nchima,private,community_hospital,,more_than_16,0,0,0,0,,,4,collected
,0.0,0.0,-16.108334,35.24468,HIDDEN,GROUP_REGION_SOUTH_WEST,GROUP_ADMIN,GROUP_REGION_SOUTH,H789,"e17f13f1-b2b6-45e6-bd19-29ae385a498a",14053,"MERCY DAIMONI",,,16.0,grid,,Mitengo,faithbased,community_hospital,,more_than_16,0,0,0,0,,,4,delivered
,0.0,0.0,-16.102646,34.914913,HIDDEN,GROUP_REGION_SOUTH_WEST,GROUP_ADMIN,GROUP_REGION_SOUTH,H718,"bd32c4b4-4682-450a-9e0a-0c5e7b9c7034",12842,"HISTONE ARAN MKONE",,,23.0,grid,,"Mapelera Health Health",public,community_hospital,,8_to_16,0,0,0,0,,,4,delivered
,0.0,0.0,-16.099707,35.477573,HIDDEN,GROUP_REGION_SOUTH_EAST,GROUP_ADMIN,GROUP_REGION_SOUTH,H561,"dc6bd15f-15f2-4aca-afa9-0a902ca0459c",16722,"CHARLES MALEMBA",,,16.0,none,,Milonde,public,community_hospital,,none,0,0,0,0,,,4,both
,0.0,0.0,-16.099323,34.996494,HIDDEN,GROUP_REGION_SOUTH_WEST,GROUP_ADMIN,GROUP_REGION_SOUTH,H814,"e17f13f1-b2b6-45e6-bd19-29ae385a498a",23000,"MWESIYANI PHIRI",,,17.0,none,,Dzimbiri,public,dispensary,,none,0,0,0,0,,,4,delivered
,0.0,0.0,-16.096148,35.074715,HIDDEN,GROUP_REGION_SOUTH_WEST,GROUP_ADMIN,GROUP_REGION_SOUTH,H801,"e17f13f1-b2b6-45e6-bd19-29ae385a498a",1159,"RICHARD YUDAHRIX",,,9.0,grid,,Mianga,public,community_hospital,,more_than_16,0,0,0,0,,,4,both
,0.0,0.0,-16.09571,34.622868,HIDDEN,GROUP_REGION_SOUTH_WEST,GROUP_ADMIN,GROUP_REGION_SOUTH,H696,"bd32c4b4-4682-450a-9e0a-0c5e7b9c7034",21835,"EMANUEL KAMANGA",,,25.0,grid,,"Kakoma Health Centre",public,community_hospital,,more_than_16,0,0,0,0,,,4,delivered
,0.0,0.0,-16.093838,35.270782,HIDDEN,GROUP_REGION_SOUTH_WEST,GROUP_ADMIN,GROUP_REGION_SOUTH,H787,"e17f13f1-b2b6-45e6-bd19-29ae385a498a",29752,"RODGERS B BENDULO",,,20.0,grid,,Khonjeni,public,community_hospital,,more_than_16,0,0,0,0,,,4,both
,0.0,0.0,-16.090078,35.34539,HIDDEN,GROUP_REGION_SOUTH_EAST,GROUP_ADMIN,GROUP_REGION_SOUTH,H579,"dc6bd15f-15f2-4aca-afa9-0a902ca0459c",35250,"MCHONEY KULISEMBA",,,28.0,none,,"Mbiza Health Centre",public,community_hospital,,none,0,0,0,0,,,4,both
,0.0,0.0,-16.087063,35.66424,HIDDEN,GROUP_REGION_SOUTH_EAST,GROUP_ADMIN,GROUP_REGION_SOUTH,H564,"dc6bd15f-15f2-4aca-afa9-0a902ca0459c",1640,"ON MAFERAWYS",,,24.0,grid,,"Rou Estate Dispensary",private,community_hospital,,more_than_16,0,0,0,0,,,4,both
,0.0,0.0,-16.084679,35.433155,HIDDEN,GROUP_REGION_SOUTH_EAST,GROUP_ADMIN,GROUP_REGION_SOUTH,H582,"dc6bd15f-15f2-4aca-afa9-0a902ca0459c",13675,"ISHMAEL MATOLA",,,20.0,none,,"Thembe Dispensary",faithbased,community_hospital,,none,0,0,0,0,,,8,both
,0.0,0.0,-16.083096,35.611687,HIDDEN,GROUP_REGION_SOUTH_EAST,GROUP_ADMIN,GROUP_REGION_SOUTH,H563,"dc6bd15f-15f2-4aca-afa9-0a902ca0459c",24976,"AMES KAUNDA",,,15.0,grid,,"Mimosa Dispensary",public,health_center,,more_than_16,0,0,0,0,,,4,collected
,0.0,0.0,-16.077658,35.714783,HIDDEN,GROUP_REGION_SOUTH_EAST,GROUP_ADMIN,GROUP_REGION_SOUTH,H565,"dc6bd15f-15f2-4aca-afa9-0a902ca0459c",21285,IKELO,,,20.0,grid,,"Namasalima Healt Centre",faithbased,community_hospital,,more_than_16,0,0,0,0,,,4,both
,0.0,0.0,-16.07432,35.075546,HIDDEN,GROUP_REGION_SOUTH_WEST,GROUP_ADMIN,GROUP_REGION_SOUTH,H796,"e17f13f1-b2b6-45e6-bd19-29ae385a498a",7860,"ELLEN C GAMA",,,6.0,grid,,Satemwa,private,community_hospital,,more_than_16,0,0,0,0,,,4,both
,0.0,0.0,-16.065601,34.866344,HIDDEN,GROUP_REGION_SOUTH_WEST,GROUP_ADMIN,GROUP_REGION_SOUTH,H717,"bd32c4b4-4682-450a-9e0a-0c5e7b9c7034",28099,"GRANT MPEMBELERA",,,17.0,grid,,"Mfera Health Centre",public,community_hospital,,more_than_16,0,0,0,0,,,4,both
,0.0,0.0,-16.065386,35.146683,HIDDEN,GROUP_REGION_SOUTH_WEST,GROUP_ADMIN,GROUP_REGION_SOUTH,H783,"e17f13f1-b2b6-45e6-bd19-29ae385a498a",632624,"PJ NKHANU",,,35.0,grid,,"Thyolo District Hospital Vaccine Store",public,regional_vaccine_store,,more_than_16,0,0,0,0,,,4,collected
,0.0,0.0,-16.065334,35.250267,HIDDEN,GROUP_REGION_SOUTH_WEST,GROUP_ADMIN,GROUP_REGION_SOUTH,H786,"e17f13f1-b2b6-45e6-bd19-29ae385a498a",2298,"JOHN NYEZELELA",,,15.0,grid,,Mafis,private,community_hospital,,more_than_16,0,0,0,0,,,4,both
,0.0,0.0,-16.059856,35.761364,HIDDEN,GROUP_REGION_SOUTH_EAST,GROUP_ADMIN,GROUP_REGION_SOUTH,H566,"dc6bd15f-15f2-4aca-afa9-0a902ca0459c",43604,"FREDSON PINDANI",,,32.0,none,,"Muloza Health Centre",public,community_hospital,,none,0,0,0,0,,,4,collected
,0.0,0.0,-16.058214,35.77096,HIDDEN,GROUP_REGION_SOUTH_WEST,GROUP_ADMIN,GROUP_REGION_SOUTH,H784,"e17f13f1-b2b6-45e6-bd19-29ae385a498a",70000,"PJ NKHANU",,,0.0,grid,,"Thyolo Dho",public,central_hospital,,more_than_16,0,0,0,0,,,4,both
,0.0,0.0,-16.054499,35.006054,HIDDEN,GROUP_REGION_SOUTH_WEST,GROUP_ADMIN,GROUP_REGION_SOUTH,H812,"e17f13f1-b2b6-45e6-bd19-29ae385a498a",4223,"RICHARD PHIRI",,,14.0,grid,,Chisinkha,public,dispensary,,more_than_16,0,0,0,0,,,4,delivered
,0.0,0.0,-16.048079,35.15354,HIDDEN,GROUP_REGION_SOUTH_WEST,GROUP_ADMIN,GROUP_REGION_SOUTH,H822,"e17f13f1-b2b6-45e6-bd19-29ae385a498a",5116,"JAMES W PHIRI",,,2.0,grid,,Conforzi,private,community_hospital,,more_than_16,0,0,0,0,,,4,delivered
,0.0,0.0,-16.039976,35.613197,HIDDEN,GROUP_REGION_SOUTH_EAST,GROUP_ADMIN,GROUP_REGION_SOUTH,H585,"dc6bd15f-15f2-4aca-afa9-0a902ca0459c",22324,"ODGERS NYIRENDA",,,17.0,none,,"Bondo Health Centre",public,community_hospital,,none,0,0,0,0,,,4,both
,0.0,0.0,-16.038242,35.70629,HIDDEN,GROUP_REGION_SOUTH_EAST,GROUP_ADMIN,GROUP_REGION_SOUTH,H567,"dc6bd15f-15f2-4aca-afa9-0a902ca0459c",1560,"MOSES NGAMAME",,,68.0,grid,,"Chisambo Dispensary",private,community_hospital,,more_than_16,0,0,0,0,,,4,collected
,0.0,0.0,-16.03733,35.08926,HIDDEN,GROUP_REGION_SOUTH_WEST,GROUP_ADMIN,GROUP_REGION_SOUTH,H797,"e17f13f1-b2b6-45e6-bd19-29ae385a498a",6000,"JOHN NYEZERERA",,,5.0,grid,,Namingomba,private,community_hospital,,more_than_16,0,0,0,0,,,4,collected
,0.0,0.0,-16.035236,34.536457,HIDDEN,GROUP_REGION_SOUTH_WEST,GROUP_ADMIN,GROUP_REGION_SOUTH,H697,"bd32c4b4-4682-450a-9e0a-0c5e7b9c7034",7692,"DUNCAN NYALUGWE",,,42.0,grid,,"Misomali Health Centre",faithbased,community_hospital,,more_than_16,0,0,0,0,,,4,delivered
,0.0,0.0,-16.033655,35.678154,HIDDEN,GROUP_REGION_SOUTH_EAST,GROUP_ADMIN,GROUP_REGION_SOUTH,H568,"dc6bd15f-15f2-4aca-afa9-0a902ca0459c",16597,"ANDREW MUMBULU",,,35.0,none,,Naphimba,public,community_hospital,,none,0,0,0,0,,,4,delivered
,0.0,0.0,-16.026024,34.978226,HIDDEN,GROUP_REGION_SOUTH_WEST,GROUP_ADMIN,GROUP_REGION_SOUTH,H815,"e17f13f1-b2b6-45e6-bd19-29ae385a498a",21878,"ALEX WILSON BANDA",,,78.0,none,,Thomas,faithbased,community_hospital,,none,0,0,0,0,,,4,both
,0.0,0.0,-16.025997,35.260735,HIDDEN,GROUP_REGION_SOUTH_WEST,GROUP_ADMIN,GROUP_REGION_SOUTH,H785,"e17f13f1-b2b6-45e6-bd19-29ae385a498a",51389,"JANET NISALA",,,19.0,grid,,Mangunda,public,community_hospital,,more_than_16,0,0,0,0,,,4,delivered
,0.0,0.0,-16.025768,35.65429,HIDDEN,GROUP_REGION_SOUTH_EAST,GROUP_ADMIN,GROUP_REGION_SOUTH,H569,"dc6bd15f-15f2-4aca-afa9-0a902ca0459c",14000,"HUSSEIN ASIMA",,,25.0,grid,,"Lujeri Tea Estate",private,community_hospital,,more_than_16,0,0,0,0,,,4,collected
,0.0,0.0,-16.02291,35.50683,HIDDEN,GROUP_REGION_SOUTH_EAST,GROUP_ADMIN,GROUP_REGION_SOUTH,H559,"dc6bd15f-15f2-4aca-afa9-0a902ca0459c",30908,"MC NEVER MWANGO",,,85.0,grid,,"Mulanje District Hospital",public,central_hospital,,more_than_16,0,0,0,0,,,4,delivered
,0.0,0.0,-16.020628,34.792076,HIDDEN,GROUP_REGION_SOUTH_WEST,GROUP_ADMIN,GROUP_REGION_SOUTH,H688,"bd32c4b4-4682-450a-9e0a-0c5e7b9c7034",467130,"FINLY KALINDO",,,50.0,grid,,"Chikhwawa District Vaccine Store",public,regional_vaccine_store,,more_than_16,0,0,0,0,,,4,collected
,0.0,0.0,-16.018166,35.46404,HIDDEN,GROUP_REGION_SOUTH_EAST,GROUP_ADMIN,GROUP_REGION_SOUTH,H583,"dc6bd15f-15f2-4aca-afa9-0a902ca0459c",49296,"MINUS MPHANDO",,,7.0,grid,,"Mulanje Mission Hospital",faithbased,rural_hospital,,more_than_16,0,0,0,0,,,4,both
,0.0,0.0,-16.015083,35.031116,HIDDEN,GROUP_REGION_SOUTH_WEST,GROUP_ADMIN,GROUP_REGION_SOUTH,H816,"e17f13f1-b2b6-45e6-bd19-29ae385a498a",3500,"MARGARET T. MNENULA",,,7.0,grid,,Chisunga,private,community_hospital,,more_than_16,0,0,0,0,,,4,collected
,0.0,0.0,-16.002487,34.48461,HIDDEN,GROUP_REGION_SOUTH_WEST,GROUP_ADMIN,GROUP_REGION_SOUTH,H698,"bd32c4b4-4682-450a-9e0a-0c5e7b9c7034",13671,"HELRICK LOCKIE",,,50.0,none,,"Chapananga Health Centre",public,community_hospital,,none,0,0,0,0,,,4,delivered
,0.0,0.0,-15.99836,35.431995,HIDDEN,GROUP_REGION_SOUTH_EAST,GROUP_ADMIN,GROUP_REGION_SOUTH,H584,"dc6bd15f-15f2-4aca-afa9-0a902ca0459c",2498,"JANE MWAFULIRWA",,,10.0,grid,,"Chisitu Dispensary",public,health_center,,more_than_16,0,0,0,0,,,4,delivered
,0.0,0.0,-15.994557,35.115177,HIDDEN,GROUP_REGION_SOUTH_WEST,GROUP_ADMIN,GROUP_REGION_SOUTH,H798,"e17f13f1-b2b6-45e6-bd19-29ae385a498a",1512,"RABECCA KAIRA",,,8.0,grid,,Mindali,private,community_hospital,,more_than_16,0,0,0,0,,,4,collected
,0.0,0.0,-15.994555,35.322662,HIDDEN,GROUP_REGION_SOUTH_EAST,GROUP_ADMIN,GROUP_REGION_SOUTH,H578,"dc6bd15f-15f2-4aca-afa9-0a902ca0459c",42814,"LIZZIE MUMBA",,,39.0,grid,,"Chonde Health Centre",public,community_hospital,,more_than_16,0,0,0,0,,,4,both
,0.0,0.0,-15.989397,35.030952,HIDDEN,GROUP_REGION_SOUTH_WEST,GROUP_ADMIN,GROUP_REGION_SOUTH,H817,"e17f13f1-b2b6-45e6-bd19-29ae385a498a",31432,"DEXFORD CHIDULE",,,14.0,grid,,Amalika,public,health_center,,more_than_16,0,0,0,0,,,4,both
,0.0,0.0,-15.982086,34.805195,HIDDEN,GROUP_REGION_SOUTH_WEST,GROUP_ADMIN,GROUP_REGION_SOUTH,H722,"bd32c4b4-4682-450a-9e0a-0c5e7b9c7034",4240,"CONNEX MALONDA",,,10.0,none,,"Kavalo Health Post",public,dispensary,,none,0,0,0,0,,,4,delivered
,0.0,0.0,-15.974385,35.180866,HIDDEN,GROUP_REGION_SOUTH_WEST,GROUP_ADMIN,GROUP_REGION_SOUTH,H795,"e17f13f1-b2b6-45e6-bd19-29ae385a498a",42021,"PAUL GUDU",,,15.0,none,,Chimaliro,public,community_hospital,,none,0,0,0,0,,,4,both
,0.0,0.0,-15.967856,35.30955,HIDDEN,GROUP_REGION_SOUTH_WEST,GROUP_ADMIN,GROUP_REGION_SOUTH,H741,"ff6bf392-56a8-4ea0-beed-928ca16576b1",32129,"OTIS SITIMA",,,50.0,none,,"Nkalo Health Centre",public,community_hospital,,none,0,0,0,0,,,4,delivered
,0.0,0.0,-15.967769,34.908226,HIDDEN,GROUP_REGION_SOUTH_WEST,GROUP_ADMIN,GROUP_REGION_SOUTH,H650,"b62d504a-faef-42f6-95bc-521ef7d61593",9553,"JOE DZIMBASEKWA",,,40.0,none,,Madziabango,public,community_hospital,,none,0,0,0,0,,,4,delivered
,0.0,0.0,-15.939209,35.12239,HIDDEN,GROUP_REGION_SOUTH_WEST,GROUP_ADMIN,GROUP_REGION_SOUTH,H791,"e17f13f1-b2b6-45e6-bd19-29ae385a498a",17037,"SAMUEL R KAMBONA",,,15.0,grid,,Chimvu,public,community_hospital,,more_than_16,0,0,0,0,,,4,collected
,0.0,0.0,-15.939078,35.20827,HIDDEN,GROUP_REGION_SOUTH_WEST,GROUP_ADMIN,GROUP_REGION_SOUTH,H794,"e17f13f1-b2b6-45e6-bd19-29ae385a498a",19172,"PW TAIBU",,,18.0,grid,,Chitsoka,public,district_hospital,,more_than_16,0,0,0,0,,,4,delivered
,0.0,0.0,-15.937185,35.025707,HIDDEN,GROUP_REGION_SOUTH_WEST,GROUP_ADMIN,GROUP_REGION_SOUTH,H813,"e17f13f1-b2b6-45e6-bd19-29ae385a498a",17195,"JAMES MALEULE",,,23.0,grid,,Makungwa,public,community_hospital,,more_than_16,0,0,0,0,,,4,both
,0.0,0.0,-15.930289,35.76566,HIDDEN,GROUP_REGION_SOUTH_EAST,GROUP_ADMIN,GROUP_REGION_SOUTH,H589,"7d57ecd6-08c1-47ab-a259-2ea26f0f7a32",11269,"AARON KADZUWA",,,50.0,none,,Sukasanje,faithbased,community_hospital,,none,0,0,0,0,,,4,delivered
,0.0,0.0,-15.925666,35.07687,HIDDEN,GROUP_REGION_SOUTH_WEST,GROUP_ADMIN,GROUP_REGION_SOUTH,H790,"e17f13f1-b2b6-45e6-bd19-29ae385a498a",53836,"JONATHAN BENESI",,,15.0,grid,,Bvumbwe,public,community_hospital,,more_than_16,0,0,0,0,,,4,both
,0.0,0.0,-15.9164095,35.361046,HIDDEN,GROUP_REGION_SOUTH_EAST,GROUP_ADMIN,GROUP_REGION_SOUTH,H577,"dc6bd15f-15f2-4aca-afa9-0a902ca0459c",35401,"OSCAR STONKEN",,,17.0,none,,"Thuchila Health Centre",public,community_hospital,,none,0,0,0,0,,,4,both
,0.0,0.0,-15.9156275,35.20527,HIDDEN,GROUP_REGION_SOUTH_WEST,GROUP_ADMIN,GROUP_REGION_SOUTH,H793,"e17f13f1-b2b6-45e6-bd19-29ae385a498a",8161,"RICHARD MALATA",,,20.0,grid,,Chingazi,faithbased,hospital,,more_than_16,0,0,0,0,,,4,collected
,0.0,0.0,-15.914271,34.95007,HIDDEN,GROUP_REGION_SOUTH_WEST,GROUP_ADMIN,GROUP_REGION_SOUTH,H651,"b62d504a-faef-42f6-95bc-521ef7d61593",13876,"BENJAMIN BIKA",,,18.0,grid,,"St Vincent",faithbased,community_hospital,,more_than_16,0,0,0,0,,,4,delivered
,0.0,0.0,-15.905378,34.39329,HIDDEN,GROUP_REGION_SOUTH_WEST,GROUP_ADMIN,GROUP_REGION_SOUTH,H723,"bd32c4b4-4682-450a-9e0a-0c5e7b9c7034",7203,"ZEX CHIGUDU",,,15.0,none,,"Kubalalika Health Post",public,dispensary,,none,0,0,0,0,,,4,delivered
,0.0,0.0,-15.900493,35.489662,HIDDEN,GROUP_REGION_SOUTH_EAST,GROUP_ADMIN,GROUP_REGION_SOUTH,H570,"dc6bd15f-15f2-4aca-afa9-0a902ca0459c",45000,"EDSON MLETSENI",,,14.0,none,,"Chambe Health Centre",public,community_hospital,,none,0,0,0,0,,,4,delivered
,0.0,0.0,-15.8988695,35.182934,HIDDEN,GROUP_REGION_SOUTH_WEST,GROUP_ADMIN,GROUP_REGION_SOUTH,H792,"e17f13f1-b2b6-45e6-bd19-29ae385a498a",26097,"WEKHA NKOLOKOSA",,,18.0,grid,,Mikolongwe,public,community_hospital,,more_than_16,0,0,0,0,,,4,collected
,0.0,0.0,-15.892389,34.756927,HIDDEN,GROUP_REGION_SOUTH_WEST,GROUP_ADMIN,GROUP_REGION_SOUTH,H716,"bd32c4b4-4682-450a-9e0a-0c5e7b9c7034",4040,"MWAZIONA MALEMBO",,,19.0,grid,,"Kapichira  Clinic",private,community_hospital,,more_than_16,0,0,0,0,,,4,collected
,0.0,0.0,-15.881321,34.298515,HIDDEN,GROUP_REGION_SOUTH_WEST,GROUP_ADMIN,GROUP_REGION_SOUTH,H703,"bd32c4b4-4682-450a-9e0a-0c5e7b9c7034",5996,"SCOVA DAVID",,,76.0,none,,"Gola Health Centre",public,community_hospital,,none,0,0,0,0,,,4,delivered
,0.0,0.0,-15.874495,34.95607,HIDDEN,GROUP_REGION_SOUTH_WEST,GROUP_ADMIN,GROUP_REGION_SOUTH,H652,"b62d504a-faef-42f6-95bc-521ef7d61593",54000,"TENDAI CHINTENGO",,,12.0,grid,,Mpemba,public,community_hospital,,more_than_16,0,0,0,0,,,4,delivered
,0.0,0.0,-15.863183,35.12461,HIDDEN,GROUP_REGION_SOUTH_WEST,GROUP_ADMIN,GROUP_REGION_SOUTH,H818,"e17f13f1-b2b6-45e6-bd19-29ae385a498a",2169,"DAN CHIWANDA",,,10.0,none,,Nangumi,public,dispensary,,none,0,0,0,0,,,4,collected
,0.0,0.0,-15.862905,35.326633,HIDDEN,GROUP_REGION_SOUTH_EAST,GROUP_ADMIN,GROUP_REGION_SOUTH,H576,"dc6bd15f-15f2-4aca-afa9-0a902ca0459c",8820,"EVANCE MALONJE",,,26.0,grid,,"Namulenga Health Centre",faithbased,community_hospital,,more_than_16,0,0,0,0,,,5,both
,0.0,0.0,-15.857913,35.751328,HIDDEN,GROUP_REGION_SOUTH_EAST,GROUP_ADMIN,GROUP_REGION_SOUTH,H590,"7d57ecd6-08c1-47ab-a259-2ea26f0f7a32",17149,"H E KUMBANGA",,,36.0,none,,"Nkhulambe Health Centre",public,community_hospital,,none,0,0,0,0,,,4,delivered
,0.0,0.0,-15.857301,35.027653,HIDDEN,GROUP_REGION_SOUTH_WEST,GROUP_ADMIN,GROUP_REGION_SOUTH,H649,"b62d504a-faef-42f6-95bc-521ef7d61593",14298,"DALITSO CHINSAMBA",,,15.0,grid,,"Soche Health Centre",public,community_hospital,,more_than_16,0,0,0,0,,,4,delivered
,0.0,0.0,-15.857032,35.815685,HIDDEN,GROUP_REGION_SOUTH_EAST,GROUP_ADMIN,GROUP_REGION_SOUTH,H591,"7d57ecd6-08c1-47ab-a259-2ea26f0f7a32",9875,"CHRISTOPHER CHISAWO",,,47.0,none,,"Mulungu Alinafe",public,dispensary,,none,0,0,0,0,,,4,delivered
,0.0,0.0,-15.850477,35.563103,HIDDEN,GROUP_REGION_SOUTH_EAST,GROUP_ADMIN,GROUP_REGION_SOUTH,H571,"dc6bd15f-15f2-4aca-afa9-0a902ca0459c",18596,"PATRICK KALONGONDA",,,28.0,grid,,"Kambenje Health Centre",public,community_hospital,,more_than_16,0,0,0,0,,,4,collected
,0.0,0.0,-15.842289,35.32904,HIDDEN,GROUP_REGION_SOUTH_EAST,GROUP_ADMIN,GROUP_REGION_SOUTH,H631,"a74039b0-b362-42c3-ae43-f2195fa7975a",41264,"NORRAH AFFOSO",,,3.0,grid,,"Zomba City Clinic",public,community_hospital,,more_than_16,0,0,0,0,,,4,delivered
,0.0,0.0,-15.838458,35.26948,HIDDEN,GROUP_REGION_SOUTH_WEST,GROUP_ADMIN,GROUP_REGION_SOUTH,H740,"ff6bf392-56a8-4ea0-beed-928ca16576b1",36376,"WILLIAM CHATAIKA",,,50.0,grid,,"Namitambo Health Centre",public,community_hospital,,more_than_16,0,0,0,0,,,4,delivered
,0.0,0.0,-15.833911,34.834396,HIDDEN,GROUP_REGION_SOUTH_WEST,GROUP_ADMIN,GROUP_REGION_SOUTH,H656,"b62d504a-faef-42f6-95bc-521ef7d61593",13101,"FOSTER J.MCHENGA",,,62.0,grid,,"Chabvala Health Centre",public,community_hospital,,more_than_16,0,0,0,0,,,4,delivered
,0.0,0.0,-15.829917,35.07877,HIDDEN,GROUP_REGION_SOUTH_WEST,GROUP_ADMIN,GROUP_REGION_SOUTH,H685,"b62d504a-faef-42f6-95bc-521ef7d61593",9378,"JULIUS C. LUNGU",,,9.0,grid,,"Lungu Private Clinic",private,community_hospital,,more_than_16,0,0,0,0,,,4,both
,0.0,0.0,-15.824941,35.61842,HIDDEN,GROUP_REGION_SOUTH_EAST,GROUP_ADMIN,GROUP_REGION_SOUTH,H588,"7d57ecd6-08c1-47ab-a259-2ea26f0f7a32",29329,"M CHINGANDA",,,5.0,grid,,"Holy Family Hospital",faithbased,community_hospital,,more_than_16,0,0,0,0,,,4,collected
,0.0,0.0,-15.824083,35.08037,HIDDEN,GROUP_REGION_SOUTH_WEST,GROUP_ADMIN,GROUP_REGION_SOUTH,H653,"b62d504a-faef-42f6-95bc-521ef7d61593",195587,"BEATON MOUNTAIN",,,11.0,grid,,Bangwe,public,community_hospital,,more_than_16,0,0,0,0,,,4,delivered
,0.0,0.0,-15.821476,35.01186,HIDDEN,GROUP_REGION_SOUTH_WEST,GROUP_ADMIN,GROUP_REGION_SOUTH,H662,"b62d504a-faef-42f6-95bc-521ef7d61593",127667,"MASAUKO TSAMBA",,,8.0,grid,,"Zingwangwa Health Centre",public,community_hospital,,more_than_16,0,0,0,0,,,4,delivered
,0.0,0.0,-15.818715,35.01243,HIDDEN,GROUP_REGION_SOUTH_WEST,GROUP_ADMIN,GROUP_REGION_SOUTH,H683,"b62d504a-faef-42f6-95bc-521ef7d61593",1067,"H. VINKHUMBO",,,8.0,grid,,"Elimu Private Clinic",private,community_hospital,,more_than_16,0,0,0,0,,,4,delivered
,0.0,0.0,-15.816927,35.05186,HIDDEN,GROUP_REGION_SOUTH_WEST,GROUP_ADMIN,GROUP_REGION_SOUTH,H654,"b62d504a-faef-42f6-95bc-521ef7d61593",103702,"FABRIOLA CHIMKOOLA",,,7.0,grid,,"Limbe Health Centre",public,community_hospital,,more_than_16,0,0,0,0,,,4,delivered
,0.0,0.0,-15.815658,35.048553,HIDDEN,GROUP_REGION_SOUTH_WEST,GROUP_ADMIN,GROUP_REGION_SOUTH,H663,"b62d504a-faef-42f6-95bc-521ef7d61593",2995,"GETRUDE CHILEMBA",,,8.0,grid,,"Kanjedza Police",private,community_hospital,,more_than_16,0,0,0,0,,,4,delivered
,0.0,0.0,-15.811995,35.047947,HIDDEN,GROUP_REGION_SOUTH_WEST,GROUP_ADMIN,GROUP_REGION_SOUTH,H675,"b62d504a-faef-42f6-95bc-521ef7d61593",889,"NDIDZA MBVUNDULA",,,8.0,grid,,"Kanjedza Medical Clinic",private,community_hospital,,more_than_16,0,0,0,0,,,4,both
,0.0,0.0,-15.81061,34.993896,HIDDEN,GROUP_REGION_SOUTH_WEST,GROUP_ADMIN,GROUP_REGION_SOUTH,H684,"b62d504a-faef-42f6-95bc-521ef7d61593",12444,"ELLEN GAFOOMA",,,8.0,grid,,"Family Health Clinic",private,community_hospital,,more_than_16,0,0,0,0,,,4,delivered
,0.0,0.0,-15.809284,35.019913,HIDDEN,GROUP_REGION_SOUTH_WEST,GROUP_ADMIN,GROUP_REGION_SOUTH,H674,"b62d504a-faef-42f6-95bc-521ef7d61593",654,"ELESTINA NKUMBA",,,3.0,grid,,"Soche Sda Clinic",faithbased,community_hospital,,more_than_16,0,0,0,0,,,4,both
,0.0,0.0,-15.807692,34.957012,HIDDEN,GROUP_REGION_SOUTH_WEST,GROUP_ADMIN,GROUP_REGION_SOUTH,H661,"b62d504a-faef-42f6-95bc-521ef7d61593",6667,"VINCENT MUKWEPERE",,,7.0,none,,"Pensulo Health Centre",public,community_hospital,,none,0,0,0,0,,,4,delivered
,0.0,0.0,-15.806219,35.64873,HIDDEN,GROUP_REGION_SOUTH_EAST,GROUP_ADMIN,GROUP_REGION_SOUTH,H586,"7d57ecd6-08c1-47ab-a259-2ea26f0f7a32",25931,"CHRISSIE HAPALA",,,0.5,grid,,"Phalombe District Hospital",public,central_hospital,,more_than_16,0,0,0,0,,,4,collected
,0.0,0.0,-15.804091,34.36415,HIDDEN,GROUP_REGION_SOUTH_WEST,GROUP_ADMIN,GROUP_REGION_SOUTH,H701,"bd32c4b4-4682-450a-9e0a-0c5e7b9c7034",16275,"DEFANCE MKANDAWIRE",,,85.0,none,,"Gaga Health Centre",public,community_hospital,,none,0,0,0,0,,,4,delivered
,0.0,0.0,-15.803931,35.016502,HIDDEN,GROUP_REGION_SOUTH_WEST,GROUP_ADMIN,GROUP_REGION_SOUTH,H644,"b62d504a-faef-42f6-95bc-521ef7d61593",6319869,M.GUWENDE,,,350.0,grid,,"South Regional Vaccine Store",public,national_vaccine_store,,more_than_16,0,0,0,0,,,12,collected
,0.0,0.0,-15.803608,35.074818,HIDDEN,GROUP_REGION_SOUTH_WEST,GROUP_ADMIN,GROUP_REGION_SOUTH,H686,"b62d504a-faef-42f6-95bc-521ef7d61593",10844,"CHIMWEMWE R NYIRENDA",,,8.0,grid,,"Malamulo Day Clinic",private,community_hospital,,more_than_16,0,0,0,0,,,4,both
,0.0,0.0,-15.803474,35.039257,HIDDEN,GROUP_REGION_SOUTH_WEST,GROUP_ADMIN,GROUP_REGION_SOUTH,H677,"b62d504a-faef-42f6-95bc-521ef7d61593",333511,"EDITH CHAMUTOLO",,,7.0,grid,,"Blantyre City Assembly Clinic",private,community_hospital,,more_than_16,0,0,0,0,,,4,collected
,0.0,0.0,-15.803334,35.647488,HIDDEN,GROUP_REGION_SOUTH_EAST,GROUP_ADMIN,GROUP_REGION_SOUTH,H587,"7d57ecd6-08c1-47ab-a259-2ea26f0f7a32",343269,"P M CHIWAYA",,,100.0,grid,,"Phalombe Dho Vaccine Store",public,regional_vaccine_store,,more_than_16,0,0,0,0,,,4,collected
,0.0,0.0,-15.802142,35.021328,HIDDEN,GROUP_REGION_SOUTH_WEST,GROUP_ADMIN,GROUP_REGION_SOUTH,H672,"b62d504a-faef-42f6-95bc-521ef7d61593",199394,"D. KAFOTOKOZA",,,1.0,grid,,"Qeen Elizabeth Central Hospital",public,district_vaccine_store,,more_than_16,0,0,0,0,,,4,delivered
,0.0,0.0,-15.801492,35.34829,HIDDEN,GROUP_REGION_SOUTH_EAST,GROUP_ADMIN,GROUP_REGION_SOUTH,H575,"dc6bd15f-15f2-4aca-afa9-0a902ca0459c",34461,"LASTON SAMBANISO",,,40.0,none,,"Namphungo Health Centre",public,community_hospital,,none,0,0,0,0,,,4,delivered
,0.0,0.0,-15.801139,34.47562,HIDDEN,GROUP_REGION_SOUTH_WEST,GROUP_ADMIN,GROUP_REGION_SOUTH,H700,"bd32c4b4-4682-450a-9e0a-0c5e7b9c7034",11383,"VINCENT MKOMBEZI",,,115.0,none,,"Chithumba Health Centre",public,community_hospital,,none,0,0,0,0,,,4,delivered
,0.0,0.0,-15.800115,34.30831,HIDDEN,GROUP_REGION_SOUTH_WEST,GROUP_ADMIN,GROUP_REGION_SOUTH,H702,"bd32c4b4-4682-450a-9e0a-0c5e7b9c7034",7353,"MAPANDA HELENCE",,,109.0,none,,"Chang'Ambika Health Centre",public,community_hospital,,none,0,0,0,0,,,4,delivered
,0.0,0.0,-15.799213,35.002922,HIDDEN,GROUP_REGION_SOUTH_WEST,GROUP_ADMIN,GROUP_REGION_SOUTH,H671,"b62d504a-faef-42f6-95bc-521ef7d61593",199394,"BEN MONOMALA",,,4.0,grid,,"Blantyre Dho Vaccine Store",public,regional_vaccine_store,,more_than_16,0,0,0,0,,,4,collected
,0.0,0.0,-15.7991495,35.00296,HIDDEN,GROUP_REGION_SOUTH_WEST,GROUP_ADMIN,GROUP_REGION_SOUTH,H681,"b62d504a-faef-42f6-95bc-521ef7d61593",24444,"THOM W.MTUKUMIRA",,,0.0,grid,,"Blantyre Dho Mobile Clinic",public,central_hospital,,more_than_16,0,0,0,0,,,4,delivered
,0.0,0.0,-15.798628,35.167503,HIDDEN,GROUP_REGION_SOUTH_WEST,GROUP_ADMIN,GROUP_REGION_SOUTH,H729,"ff6bf392-56a8-4ea0-beed-928ca16576b1",44408,"JONAS MICHONGWE",,,15.0,grid,,"St Joseph Mission Hospital",faithbased,rural_hospital,,more_than_16,0,0,0,0,,,4,both
,0.0,0.0,-15.792812,34.972717,HIDDEN,GROUP_REGION_SOUTH_WEST,GROUP_ADMIN,GROUP_REGION_SOUTH,H647,"b62d504a-faef-42f6-95bc-521ef7d61593",602,"LUCY KAWINGA",,,8.0,grid,,"Sanjika Dispensary",public,health_center,,more_than_16,0,0,0,0,,,4,delivered
,0.0,0.0,-15.792302,35.02812,HIDDEN,GROUP_REGION_SOUTH_WEST,GROUP_ADMIN,GROUP_REGION_SOUTH,H676,"b62d504a-faef-42f6-95bc-521ef7d61593",622,"CHARITY E MHANGO KAGOMO",,,9.0,grid,,"Lafarge Cement Clinic",private,community_hospital,,more_than_16,0,0,0,0,,,4,both
,0.0,0.0,-15.785477,35.016907,HIDDEN,GROUP_REGION_SOUTH_WEST,GROUP_ADMIN,GROUP_REGION_SOUTH,H687,"b62d504a-faef-42f6-95bc-521ef7d61593",9333,"MARGARET KAZUNGUZA",,,5.0,grid,,"Mwaiwathu Private Hospital",private,rural_hospital,,more_than_16,0,0,0,0,,,4,both
,0.0,0.0,-15.782314,35.003113,HIDDEN,GROUP_REGION_SOUTH_WEST,GROUP_ADMIN,GROUP_REGION_SOUTH,H673,"b62d504a-faef-42f6-95bc-521ef7d61593",9155,"SHYREEN MTHYOKA",,,5.0,grid,,"Blantyre Adventist Hospital",private,rural_hospital,,more_than_16,0,0,0,0,,,4,both
,0.0,0.0,-15.778056,35.03936,HIDDEN,GROUP_REGION_SOUTH_WEST,GROUP_ADMIN,GROUP_REGION_SOUTH,H648,"b62d504a-faef-42f6-95bc-521ef7d61593",191252,"DANWECK CHALE",,,7.0,grid,,"Ndirande Health Centre",public,community_hospital,,more_than_16,0,0,0,0,,,4,delivered
,0.0,0.0,-15.777529,34.88545,HIDDEN,GROUP_REGION_SOUTH_WEST,GROUP_ADMIN,GROUP_REGION_SOUTH,H655,"b62d504a-faef-42f6-95bc-521ef7d61593",19561,"ESTHER NDLOVU",,,39.0,grid,,"Chimembe Health Centre",public,community_hospital,,more_than_16,0,0,0,0,,,4,delivered
,0.0,0.0,-15.77737,34.96864,HIDDEN,GROUP_REGION_SOUTH_WEST,GROUP_ADMIN,GROUP_REGION_SOUTH,H646,"b62d504a-faef-42f6-95bc-521ef7d61593",72000,"GRACE MUSSA",,,9.0,grid,,"Mitsidi Health Centre",faithbased,community_hospital,,more_than_16,0,0,0,0,,,4,delivered
,0.0,0.0,-15.772209,35.765083,HIDDEN,GROUP_REGION_SOUTH_EAST,GROUP_ADMIN,GROUP_REGION_SOUTH,H593,"7d57ecd6-08c1-47ab-a259-2ea26f0f7a32",11080,"HANNA SIMALE",,,30.0,grid,,"Chilinga Maternity",public,community_hospital,,fewer_than_4,0,0,0,0,,,4,delivered
,0.0,0.0,-15.771235,34.981503,HIDDEN,GROUP_REGION_SOUTH_WEST,GROUP_ADMIN,GROUP_REGION_SOUTH,H645,"b62d504a-faef-42f6-95bc-521ef7d61593",123595,"EDBA LIPIPA",,,8.0,grid,,Chilomoni,public,community_hospital,,more_than_16,0,0,0,0,,,4,delivered
,0.0,0.0,-15.77088,35.55087,HIDDEN,GROUP_REGION_SOUTH_EAST,GROUP_ADMIN,GROUP_REGION_SOUTH,H598,"7d57ecd6-08c1-47ab-a259-2ea26f0f7a32",21420,"PETER CHOSADZIWA",,,17.0,none,,"Waluma Health Post",public,dispensary,,none,0,0,0,0,,,4,delivered
,0.0,0.0,-15.767759,35.044743,HIDDEN,GROUP_REGION_SOUTH_WEST,GROUP_ADMIN,GROUP_REGION_SOUTH,H678,"b62d504a-faef-42f6-95bc-521ef7d61593",2711,"E. KHONDIWA",,,9.0,grid,,"Malabada Health Centre",faithbased,community_hospital,,more_than_16,0,0,0,0,,,4,delivered
,0.0,0.0,-15.765473,35.24809,HIDDEN,GROUP_REGION_SOUTH_WEST,GROUP_ADMIN,GROUP_REGION_SOUTH,H739,"ff6bf392-56a8-4ea0-beed-928ca16576b1",25811,"ALICK SYMON",,,20.0,grid,,"Thumbwe Health Centre",public,health_center,,more_than_16,0,0,0,0,,,4,delivered
,0.0,0.0,-15.762788,35.492275,HIDDEN,GROUP_REGION_SOUTH_EAST,GROUP_ADMIN,GROUP_REGION_SOUTH,H572,"dc6bd15f-15f2-4aca-afa9-0a902ca0459c",21019,"JONAS CHIMERA",,,65.0,none,,"Mulomba Mealth Centre",public,community_hospital,,none,0,0,0,0,,,4,delivered
,0.0,0.0,-15.757945,35.611794,HIDDEN,GROUP_REGION_SOUTH_EAST,GROUP_ADMIN,GROUP_REGION_SOUTH,H599,"7d57ecd6-08c1-47ab-a259-2ea26f0f7a32",31229,"WONDERFUL NJEWA",,,7.0,none,,"Mpasa Health Centre",public,community_hospital,,none,0,0,0,0,,,4,delivered
,0.0,0.0,-15.7551775,35.340443,HIDDEN,GROUP_REGION_SOUTH_EAST,GROUP_ADMIN,GROUP_REGION_SOUTH,H615,"a74039b0-b362-42c3-ae43-f2195fa7975a",28636,"GERALD LAMYA",,,13.0,none,,"Lambulira Health Centre",public,community_hospital,,none,0,0,0,0,,,4,delivered
,0.0,0.0,-15.752566,35.777786,HIDDEN,GROUP_REGION_SOUTH_EAST,GROUP_ADMIN,GROUP_REGION_SOUTH,H594,"7d57ecd6-08c1-47ab-a259-2ea26f0f7a32",16986,"LIDIA KASONGA",,,24.0,none,,"Nazombe Health Centre",public,community_hospital,,none,0,0,0,0,,,4,delivered
,0.0,0.0,-15.750511,35.191483,HIDDEN,GROUP_REGION_SOUTH_WEST,GROUP_ADMIN,GROUP_REGION_SOUTH,H730,"ff6bf392-56a8-4ea0-beed-928ca16576b1",19303,"MC PHERSON MSANJA",,,7.0,none,,"Pim Cham Health Centre",faithbased,community_hospital,,none,0,0,0,0,,,4,delivered
,0.0,0.0,-15.747034,34.522186,HIDDEN,GROUP_REGION_SOUTH_WEST,GROUP_ADMIN,GROUP_REGION_SOUTH,H746,"2c8929d7-75d7-494f-8c3d-371c8f1bb61d",14555,"JOUSHWA M. CHIMUNGU",,,19.0,none,,"Tulonkhondo Health Cetre",public,community_hospital,,none,0,0,0,0,,,4,collected
,0.0,0.0,-15.746566,35.02004,HIDDEN,GROUP_REGION_SOUTH_WEST,GROUP_ADMIN,GROUP_REGION_SOUTH,H682,"b62d504a-faef-42f6-95bc-521ef7d61593",1067,"ALICK SIMBI",,,10.0,grid,,"Ebenezer Private Clinic",private,community_hospital,,more_than_16,0,0,0,0,,,4,delivered
,0.0,0.0,-15.738835,35.12975,HIDDEN,GROUP_REGION_SOUTH_WEST,GROUP_ADMIN,GROUP_REGION_SOUTH,H737,"ff6bf392-56a8-4ea0-beed-928ca16576b1",19229,"LAWRENCE GONANI",,,5.0,none,,"Bilalo Pvt Clinic",private,community_hospital,,none,0,0,0,0,,,4,delivered
,0.0,0.0,-15.726737,35.054417,HIDDEN,GROUP_REGION_SOUTH_WEST,GROUP_ADMIN,GROUP_REGION_SOUTH,H670,"b62d504a-faef-42f6-95bc-521ef7d61593",80343,"OWEN S. KAMFOLOMA",,,9.0,grid,,"Souyh Lunzu Health Centre",public,community_hospital,,more_than_16,0,0,0,0,,,4,delivered
,0.0,0.0,-15.724426,35.01635,HIDDEN,GROUP_REGION_SOUTH_WEST,GROUP_ADMIN,GROUP_REGION_SOUTH,H679,"b62d504a-faef-42f6-95bc-521ef7d61593",333,"MONICA BOTOMANI",,,11.0,grid,,"Mtengo Umodzi Private Hospital",private,rural_hospital,,more_than_16,0,0,0,0,,,4,collected
,0.0,0.0,-15.723293,34.399017,HIDDEN,GROUP_REGION_SOUTH_WEST,GROUP_ADMIN,GROUP_REGION_SOUTH,H743,"2c8929d7-75d7-494f-8c3d-371c8f1bb61d",15611,"HABIL CHIMLOMO",,,36.0,none,,"Thambani Health Centre",public,community_hospital,,none,0,0,0,0,,,4,collected
,0.0,0.0,-15.719419,35.68561,HIDDEN,GROUP_REGION_SOUTH_EAST,GROUP_ADMIN,GROUP_REGION_SOUTH,H596,"7d57ecd6-08c1-47ab-a259-2ea26f0f7a32",21504,"FREZER NAMIZOMBE",,,9.0,grid,,"Migowi Health Centre",public,community_hospital,,more_than_16,0,0,0,0,,,4,delivered
,0.0,0.0,-15.71834,35.366013,HIDDEN,GROUP_REGION_SOUTH_EAST,GROUP_ADMIN,GROUP_REGION_SOUTH,H574,"dc6bd15f-15f2-4aca-afa9-0a902ca0459c",18492,"CLEFTON LAMANI",,,60.0,none,,"Nkomaula Health Centre",public,community_hospital,,none,0,0,0,0,,,4,delivered
,0.0,0.0,-15.708055,35.173565,HIDDEN,GROUP_REGION_SOUTH_WEST,GROUP_ADMIN,GROUP_REGION_SOUTH,H728,"ff6bf392-56a8-4ea0-beed-928ca16576b1",24358,"SAMSON MANYAMBA",,,0.0,grid,,"Chiradzulu District Hospital",public,central_hospital,,more_than_16,0,0,0,0,,,4,delivered
,0.0,0.0,-15.693536,35.232666,HIDDEN,GROUP_REGION_SOUTH_WEST,GROUP_ADMIN,GROUP_REGION_SOUTH,H731,"ff6bf392-56a8-4ea0-beed-928ca16576b1",17000,"TADALA KAIPA",,,17.0,none,,"Ndunde Health Centre",public,community_hospital,,none,0,0,0,0,,,4,delivered
,0.0,0.0,-15.684265,35.317837,HIDDEN,GROUP_REGION_SOUTH_WEST,GROUP_ADMIN,GROUP_REGION_SOUTH,H732,"ff6bf392-56a8-4ea0-beed-928ca16576b1",15601,"RICHARD MALUWA",,,30.0,none,,"Milepa Health Centre",public,community_hospital,,none,0,0,0,0,,,4,delivered
,0.0,0.0,-15.682349,34.97044,HIDDEN,GROUP_REGION_SOUTH_WEST,GROUP_ADMIN,GROUP_REGION_SOUTH,H660,"b62d504a-faef-42f6-95bc-521ef7d61593",25506,"JULIET CHIKASANDA",,,20.0,grid,,"Chileka Health Centre",public,community_hospital,,more_than_16,0,0,0,0,,,4,delivered
,0.0,0.0,-15.672269,35.47605,HIDDEN,GROUP_REGION_SOUTH_EAST,GROUP_ADMIN,GROUP_REGION_SOUTH,H573,"dc6bd15f-15f2-4aca-afa9-0a902ca0459c",35141,JOHNMWANGONDE,,,80.0,none,,"Kamwendo Health Post",public,dispensary,,none,0,0,0,0,,,4,delivered
,0.0,0.0,-15.67195,35.728333,HIDDEN,GROUP_REGION_SOUTH_EAST,GROUP_ADMIN,GROUP_REGION_SOUTH,H597,"7d57ecd6-08c1-47ab-a259-2ea26f0f7a32",30098,"M THOMAS",,,19.0,none,,"Kalinde Health Centre",public,community_hospital,,none,0,0,0,0,,,4,delivered
,0.0,0.0,-15.671466,34.870995,HIDDEN,GROUP_REGION_SOUTH_WEST,GROUP_ADMIN,GROUP_REGION_SOUTH,H657,"b62d504a-faef-42f6-95bc-521ef7d61593",29575,"LESTER SALIMU",,,37.0,none,,"Chikowa Health Centre",public,community_hospital,,none,0,0,0,0,,,4,delivered
,0.0,0.0,-15.666653,35.42737,HIDDEN,GROUP_REGION_SOUTH_EAST,GROUP_ADMIN,GROUP_REGION_SOUTH,H619,"a74039b0-b362-42c3-ae43-f2195fa7975a",28773,"GOLDEN H KACHIMANGA",,,57.0,none,,"Ngwelero Health Centre",public,community_hospital,,none,0,0,0,0,,,4,delivered
,0.0,0.0,-15.659893,34.92898,HIDDEN,GROUP_REGION_SOUTH_WEST,GROUP_ADMIN,GROUP_REGION_SOUTH,H659,"b62d504a-faef-42f6-95bc-521ef7d61593",22619,"CHALRES EDGAR POTANI",,,33.0,none,,"Chileka Sda Clinic",faithbased,community_hospital,,none,0,0,0,0,,,4,delivered
,0.0,0.0,-15.654488,35.199604,HIDDEN,GROUP_REGION_SOUTH_WEST,GROUP_ADMIN,GROUP_REGION_SOUTH,H738,"ff6bf392-56a8-4ea0-beed-928ca16576b1",10690,"MARY KADEWERE",,,7.0,none,,"Mwanje Health Post",public,dispensary,,none,0,0,0,0,,,4,delivered
,0.0,0.0,-15.6511545,35.02025,HIDDEN,GROUP_REGION_SOUTH_WEST,GROUP_ADMIN,GROUP_REGION_SOUTH,H680,"b62d504a-faef-42f6-95bc-521ef7d61593",8000,"TELEZA S.TEMBO",,,17.0,grid,,"Lunzu Blm Clinic",private,community_hospital,,more_than_16,0,0,0,0,,,4,collected
,0.0,0.0,-15.649918,35.2492,HIDDEN,GROUP_REGION_SOUTH_WEST,GROUP_ADMIN,GROUP_REGION_SOUTH,H733,"ff6bf392-56a8-4ea0-beed-928ca16576b1",20422,"MILLWARD NAMWIYO",,,13.0,none,,"Mauwa Health Centre",public,community_hospital,,none,0,0,0,0,,,4,delivered
,0.0,0.0,-15.646223,35.532314,HIDDEN,GROUP_REGION_SOUTH_EAST,GROUP_ADMIN,GROUP_REGION_SOUTH,H600,"7d57ecd6-08c1-47ab-a259-2ea26f0f7a32",18573,"EVANCE NAMITHALA",,,30.0,none,,"Mwanga Health Centre",faithbased,community_hospital,,none,0,0,0,0,,,4,delivered
,0.0,0.0,-15.643565,35.01726,HIDDEN,GROUP_REGION_SOUTH_WEST,GROUP_ADMIN,GROUP_REGION_SOUTH,H664,"b62d504a-faef-42f6-95bc-521ef7d61593",56810,"ODETTA KANYONGOLO",,,17.0,grid,,"Mlambe Mission Hospital",faithbased,rural_hospital,,more_than_16,0,0,0,0,,,4,both
,0.0,0.0,-15.636063,35.156143,HIDDEN,GROUP_REGION_SOUTH_WEST,GROUP_ADMIN,GROUP_REGION_SOUTH,H734,"ff6bf392-56a8-4ea0-beed-928ca16576b1",15545,"ELLARTON MASITO",,,27.0,grid,,"Mbulumbuzi Heath Centre",public,community_hospital,,more_than_16,0,0,0,0,,,4,both
,0.0,0.0,-15.630207,35.079548,HIDDEN,GROUP_REGION_SOUTH_WEST,GROUP_ADMIN,GROUP_REGION_SOUTH,H665,"b62d504a-faef-42f6-95bc-521ef7d61593",35940,"GREY KAZEMBE",,,21.0,none,,"Makata Health Centre",public,community_hospital,,none,0,0,0,0,,,4,delivered
,0.0,0.0,-15.614575,35.62806,HIDDEN,GROUP_REGION_SOUTH_EAST,GROUP_ADMIN,GROUP_REGION_SOUTH,H601,"7d57ecd6-08c1-47ab-a259-2ea26f0f7a32",29275,"JOSAYA NDINI",,,24.0,none,,"Nkhwayi Health Centre",public,community_hospital,,none,0,0,0,0,,,4,delivered
,0.0,0.0,-15.603912,35.122105,HIDDEN,GROUP_REGION_SOUTH_WEST,GROUP_ADMIN,GROUP_REGION_SOUTH,H735,"ff6bf392-56a8-4ea0-beed-928ca16576b1",13759,"GEORGE KANYOZA",,,8.0,none,,"Chitera Health Centre",public,community_hospital,,none,0,0,0,0,,,4,delivered
,0.0,0.0,-15.6023445,35.2594,HIDDEN,GROUP_REGION_SOUTH_EAST,GROUP_ADMIN,GROUP_REGION_SOUTH,H617,"a74039b0-b362-42c3-ae43-f2195fa7975a",32883,"HOWARD KAYENDA",,,30.0,grid,,"Nasawa Health Centre",public,community_hospital,,more_than_16,0,0,0,0,,,4,delivered
,0.0,0.0,-15.595254,34.698143,HIDDEN,GROUP_REGION_SOUTH_WEST,GROUP_ADMIN,GROUP_REGION_SOUTH,H751,"75fd092a-073e-4b5d-95a3-b300eb69a514",11250,"JOEL N'GAMBI",,,40.0,grid,,Chifunga,public,community_hospital,,more_than_16,0,0,0,0,,,4,both
,0.0,0.0,-15.5886135,34.509487,HIDDEN,GROUP_REGION_SOUTH_WEST,GROUP_ADMIN,GROUP_REGION_SOUTH,H742,"2c8929d7-75d7-494f-8c3d-371c8f1bb61d",47101,"ALBERT GOLOWA",,,0.003,grid,,"Mwanza District Hospital",public,central_hospital,,more_than_16,0,0,0,0,,,4,collected
,0.0,0.0,-15.573795,35.372665,HIDDEN,GROUP_REGION_SOUTH_EAST,GROUP_ADMIN,GROUP_REGION_SOUTH,H618,"a74039b0-b362-42c3-ae43-f2195fa7975a",52756,"DAVESON GUNDA",,,30.0,grid,,"Mayaka Health Centre",public,community_hospital,,more_than_16,0,0,0,0,,,4,delivered
,0.0,0.0,-15.563624,34.8804,HIDDEN,GROUP_REGION_SOUTH_WEST,GROUP_ADMIN,GROUP_REGION_SOUTH,H658,"b62d504a-faef-42f6-95bc-521ef7d61593",15832,"EMMANUEL BINALI",,,47.0,none,,"Dziwe Health Centre",public,community_hospital,,none,0,0,0,0,,,4,delivered
,0.0,0.0,-15.561446,35.261047,HIDDEN,GROUP_REGION_SOUTH_EAST,GROUP_ADMIN,GROUP_REGION_SOUTH,H616,"a74039b0-b362-42c3-ae43-f2195fa7975a",26610,"GIFT MATEWERE",,,15.0,grid,,"Magomero Health Centre",faithbased,community_hospital,,more_than_16,0,0,0,0,,,4,delivered
,0.0,0.0,-15.556831,35.81925,HIDDEN,GROUP_REGION_SOUTH_EAST,GROUP_ADMIN,GROUP_REGION_SOUTH,H595,"7d57ecd6-08c1-47ab-a259-2ea26f0f7a32",38236,"ENERST MPEKETULA",,,43.0,none,,"Nambazo Health Centre",public,community_hospital,,none,0,0,0,0,,,4,delivered
,0.0,0.0,-15.551911,35.572605,HIDDEN,GROUP_REGION_SOUTH_EAST,GROUP_ADMIN,GROUP_REGION_SOUTH,H602,"7d57ecd6-08c1-47ab-a259-2ea26f0f7a32",32762,"ANNIE MISOMALI",,,37.0,none,,"Chitekesa Health Centre",public,community_hospital,,none,0,0,0,0,,,4,delivered
,0.0,0.0,-15.546189,34.62754,HIDDEN,GROUP_REGION_SOUTH_WEST,GROUP_ADMIN,GROUP_REGION_SOUTH,H750,"75fd092a-073e-4b5d-95a3-b300eb69a514",7053,"FABIAN NYANGA",,,20.0,grid,,Magaleta,public,community_hospital,,more_than_16,0,0,0,0,,,4,delivered
,0.0,0.0,-15.543962,35.186935,HIDDEN,GROUP_REGION_SOUTH_WEST,GROUP_ADMIN,GROUP_REGION_SOUTH,H736,"ff6bf392-56a8-4ea0-beed-928ca16576b1",23593,"JULIET MJUWENI",,,60.0,grid,,"Namadzi Health Centre",public,community_hospital,,more_than_16,0,0,0,0,,,4,delivered
,0.0,0.0,-15.534104,35.54719,HIDDEN,GROUP_REGION_SOUTH_EAST,GROUP_ADMIN,GROUP_REGION_SOUTH,H638,"a74039b0-b362-42c3-ae43-f2195fa7975a",32723,"CHARLES WINIKO",,,40.0,grid,,Matiya,faithbased,community_hospital,,more_than_16,0,0,0,0,,,4,delivered
,0.0,0.0,-15.529524,35.029934,HIDDEN,GROUP_REGION_SOUTH_WEST,GROUP_ADMIN,GROUP_REGION_SOUTH,H666,"b62d504a-faef-42f6-95bc-521ef7d61593",26506,"CHRISTOPHER BALUTI",,,39.0,grid,,"Lirangwe Health Centre",public,community_hospital,,more_than_16,0,0,0,0,,,4,delivered
,0.0,0.0,-15.5192995,34.82453,HIDDEN,GROUP_REGION_SOUTH_WEST,GROUP_ADMIN,GROUP_REGION_SOUTH,H752,"75fd092a-073e-4b5d-95a3-b300eb69a514",1970,"LUKA CHIKAONEKA",,,50.0,grid,,"Nkula Health Centre",private,community_hospital,,more_than_16,0,0,0,0,,,4,both
,0.0,0.0,-15.486612,35.073727,HIDDEN,GROUP_REGION_SOUTH_WEST,GROUP_ADMIN,GROUP_REGION_SOUTH,H667,"b62d504a-faef-42f6-95bc-521ef7d61593",6590,"MAXWEL CHIZANI",,,43.0,none,,"Namikoko Health Centre",public,community_hospital,,none,0,0,0,0,,,4,delivered
,0.0,0.0,-15.484382,35.23688,HIDDEN,GROUP_REGION_SOUTH_EAST,GROUP_ADMIN,GROUP_REGION_SOUTH,H635,"a74039b0-b362-42c3-ae43-f2195fa7975a",51721,"HENDERSON CHAULUKA",,,16.0,grid,,Thondwe,public,community_hospital,,more_than_16,0,0,0,0,,,4,delivered
,0.0,0.0,-15.48272,35.450752,HIDDEN,GROUP_REGION_SOUTH_EAST,GROUP_ADMIN,GROUP_REGION_SOUTH,H620,"a74039b0-b362-42c3-ae43-f2195fa7975a",31189,"KINGSLEY KALILOMBE",,,27.0,grid,,"Pilimiti Hospital",private,rural_hospital,,more_than_16,0,0,0,0,,,4,delivered
,0.0,0.0,-15.477331,35.240746,HIDDEN,GROUP_REGION_SOUTH_EAST,GROUP_ADMIN,GROUP_REGION_SOUTH,H614,"a74039b0-b362-42c3-ae43-f2195fa7975a",6172,"F MATIPWILI",,,15.0,grid,,"Namikango Maternity",faithbased,community_hospital,,more_than_16,0,0,0,0,,,4,delivered
,0.0,0.0,-15.477025,34.741467,HIDDEN,GROUP_REGION_SOUTH_WEST,GROUP_ADMIN,GROUP_REGION_SOUTH,H753,"75fd092a-073e-4b5d-95a3-b300eb69a514",2178,"D A NKHOMA",,,25.0,none,,"Luwani Health Centre",public,community_hospital,,none,0,0,0,0,,,4,delivered
,0.0,0.0,-15.469792,34.647305,HIDDEN,GROUP_REGION_SOUTH_WEST,GROUP_ADMIN,GROUP_REGION_SOUTH,H749,"75fd092a-073e-4b5d-95a3-b300eb69a514",14337,"JOSEPH CHIKUNI",,,15.0,grid,,Ligowe,public,health_center,,more_than_16,0,0,0,0,,,4,both
,0.0,0.0,-15.46794,34.942654,HIDDEN,GROUP_REGION_SOUTH_WEST,GROUP_ADMIN,GROUP_REGION_SOUTH,H669,"b62d504a-faef-42f6-95bc-521ef7d61593",28938,"RABSON MSUKWA",,,61.0,grid,,"Mdeka Heath Centre",public,community_hospital,,more_than_16,0,0,0,0,,,4,delivered
,0.0,0.0,-15.465641,35.516525,HIDDEN,GROUP_REGION_SOUTH_EAST,GROUP_ADMIN,GROUP_REGION_SOUTH,H622,"a74039b0-b362-42c3-ae43-f2195fa7975a",24135,"COLLINS M KAWERA",,,32.0,none,,"Chamba Health Centre",public,community_hospital,,none,0,0,0,0,,,4,delivered
,0.0,0.0,-15.462081,34.49071,HIDDEN,GROUP_REGION_SOUTH_WEST,GROUP_ADMIN,GROUP_REGION_SOUTH,H745,"2c8929d7-75d7-494f-8c3d-371c8f1bb61d",12214,"PATRICK JEFULE MATCHAYA",,,25.0,none,,"Kunenekude Health Centre",public,community_hospital,,none,0,0,0,0,,,4,delivered
,0.0,0.0,-15.435314,34.77394,HIDDEN,GROUP_REGION_SOUTH_WEST,GROUP_ADMIN,GROUP_REGION_SOUTH,H756,"75fd092a-073e-4b5d-95a3-b300eb69a514",16400,"AMOSI MAKWAYA",,,30.0,grid,,Lisungwi,public,district_hospital,,more_than_16,0,0,0,0,,,4,both
,0.0,0.0,-15.434132,34.607628,HIDDEN,GROUP_REGION_SOUTH_WEST,GROUP_ADMIN,GROUP_REGION_SOUTH,H755,"75fd092a-073e-4b5d-95a3-b300eb69a514",12693,"GRACE WESLEY",,,24.0,grid,,"Neno Parish",faithbased,community_hospital,,more_than_16,0,0,0,0,,,4,delivered
,0.0,0.0,-15.42787,35.544437,HIDDEN,GROUP_REGION_SOUTH_EAST,GROUP_ADMIN,GROUP_REGION_SOUTH,H621,"a74039b0-b362-42c3-ae43-f2195fa7975a",35954,"MATRIIDA GATOMA",,,35.0,none,,"Likangala Health Centre",public,community_hospital,,none,0,0,0,0,,,4,delivered
,0.0,0.0,-15.421672,35.012943,HIDDEN,GROUP_REGION_SOUTH_WEST,GROUP_ADMIN,GROUP_REGION_SOUTH,H668,"b62d504a-faef-42f6-95bc-521ef7d61593",19760,"RICHARD MAWANGA",,,55.0,none,,"Lundu Health Centre",public,community_hospital,,none,0,0,0,0,,,4,delivered
,0.0,0.0,-15.418769,35.846107,HIDDEN,GROUP_REGION_SOUTH_EAST,GROUP_ADMIN,GROUP_REGION_SOUTH,H643,"a74039b0-b362-42c3-ae43-f2195fa7975a",672,"D.E. MUKHITO",,,70.0,none,,Chisoni,public,dispensary,,none,0,0,0,0,,,4,delivered
,0.0,0.0,-15.400939,35.313217,HIDDEN,GROUP_REGION_SOUTH_EAST,GROUP_ADMIN,GROUP_REGION_SOUTH,H605,"a74039b0-b362-42c3-ae43-f2195fa7975a",38381,"RUTH MMANGA",,,0.0,grid,,"Zomba Dho Facility",public,central_hospital,,8_to_16,0,0,0,0,,,4,collected
,0.0,0.0,-15.398905,35.31338,HIDDEN,GROUP_REGION_SOUTH_EAST,GROUP_ADMIN,GROUP_REGION_SOUTH,H603,"a74039b0-b362-42c3-ae43-f2195fa7975a",59448,"RUTH MMANGA",,,0.1,grid,,"Zomba Central Hospital",public,district_vaccine_store,,fewer_than_4,0,0,0,0,,,4,collected
,0.0,0.0,-15.396968,35.180595,HIDDEN,GROUP_REGION_SOUTH_EAST,GROUP_ADMIN,GROUP_REGION_SOUTH,H612,"a74039b0-b362-42c3-ae43-f2195fa7975a",29243,"YVONNIE MATOLA",,,40.0,grid,,"Chingale Health Centre",public,community_hospital,,more_than_16,0,0,0,0,,,4,delivered
,0.0,0.0,-15.392553,34.65272,HIDDEN,GROUP_REGION_SOUTH_WEST,GROUP_ADMIN,GROUP_REGION_SOUTH,H754,"75fd092a-073e-4b5d-95a3-b300eb69a514",15634,"MACKSON NSEMBE",,,0.0,grid,,"Neno Dho",public,central_hospital,,more_than_16,0,0,0,0,,,4,both
,0.0,0.0,-15.391635,35.326935,HIDDEN,GROUP_REGION_SOUTH_EAST,GROUP_ADMIN,GROUP_REGION_SOUTH,H630,"a74039b0-b362-42c3-ae43-f2195fa7975a",7416,"FANNIE W. PHIRI",,,5.0,grid,,"Zomba Police",private,rural_hospital,,more_than_16,0,0,0,0,,,4,delivered
,0.0,0.0,-15.391198,35.33935,HIDDEN,GROUP_REGION_SOUTH_EAST,GROUP_ADMIN,GROUP_REGION_SOUTH,H632,"a74039b0-b362-42c3-ae43-f2195fa7975a",5916,"R. KAUNJIKAKAKARALA",,,7.0,grid,,"Chancellor College",other,health_center,,more_than_16,0,0,0,0,,,4,delivered
,0.0,0.0,-15.391088,35.304913,HIDDEN,GROUP_REGION_SOUTH_EAST,GROUP_ADMIN,GROUP_REGION_SOUTH,H606,"a74039b0-b362-42c3-ae43-f2195fa7975a",4963,"KISSA KADALUKA",,,3.0,grid,,"Cobbe Barracks",private,rural_hospital,,more_than_16,0,0,0,0,,,4,delivered
,0.0,0.0,-15.390406,35.359577,HIDDEN,GROUP_REGION_SOUTH_EAST,GROUP_ADMIN,GROUP_REGION_SOUTH,H639,"a74039b0-b362-42c3-ae43-f2195fa7975a",16958,"JOYCE LIGOMEKA",,,12.0,grid,,Matawale,public,community_hospital,,more_than_16,0,0,0,0,,,4,delivered
,0.0,0.0,-15.389739,35.09512,HIDDEN,GROUP_REGION_SOUTH_EAST,GROUP_ADMIN,GROUP_REGION_SOUTH,H611,"a74039b0-b362-42c3-ae43-f2195fa7975a",23758,"NICHOLUS E SAYENDA",,,35.0,grid,,"Chipini Health Centre",public,community_hospital,,more_than_16,0,0,0,0,,,4,delivered
,0.0,0.0,-15.389604,35.21176,HIDDEN,GROUP_REGION_SOUTH_EAST,GROUP_ADMIN,GROUP_REGION_SOUTH,H613,"a74039b0-b362-42c3-ae43-f2195fa7975a",3320,"ANNIE CHITSUKWA",,,17.0,grid,,"Changalume Health Centre",public,community_hospital,,more_than_16,0,0,0,0,,,4,delivered
,0.0,0.0,-15.389042,35.3201,HIDDEN,GROUP_REGION_SOUTH_EAST,GROUP_ADMIN,GROUP_REGION_SOUTH,H633,"a74039b0-b362-42c3-ae43-f2195fa7975a",4732,"CHRISSIE MUSOWA",,,3.0,grid,,"Zomba Banja La Mtsogolo",private,community_hospital,,more_than_16,0,0,0,0,,,4,collected
,0.0,0.0,-15.379213,35.332905,HIDDEN,GROUP_REGION_SOUTH_EAST,GROUP_ADMIN,GROUP_REGION_SOUTH,H609,"a74039b0-b362-42c3-ae43-f2195fa7975a",325,"CHISOMO MALUNGA",,,0.5,grid,,"Masm Clinic",private,community_hospital,,more_than_16,0,0,0,0,,,4,delivered
,0.0,0.0,-15.369366,35.45066,HIDDEN,GROUP_REGION_SOUTH_EAST,GROUP_ADMIN,GROUP_REGION_SOUTH,H623,"a74039b0-b362-42c3-ae43-f2195fa7975a",37336,"MATHEWS MANDALA",,,15.0,none,,"Makwapala Health Centre",public,community_hospital,,none,0,0,0,0,,,4,delivered
,0.0,0.0,-15.357838,35.385002,HIDDEN,GROUP_REGION_SOUTH_EAST,GROUP_ADMIN,GROUP_REGION_SOUTH,H636,"a74039b0-b362-42c3-ae43-f2195fa7975a",14135,"TABITA GADAMA",,,17.0,none,,Naisi,public,community_hospital,,none,0,0,0,0,,,4,delivered
,0.0,0.0,-15.352229,35.290985,HIDDEN,GROUP_REGION_SOUTH_EAST,GROUP_ADMIN,GROUP_REGION_SOUTH,H637,"a74039b0-b362-42c3-ae43-f2195fa7975a",420,"E. KAMPIRA",,,15.0,grid,,"Chawe Forest",private,community_hospital,,more_than_16,0,0,0,0,,,4,delivered
,0.0,0.0,-15.350985,34.946556,HIDDEN,GROUP_REGION_SOUTH_WEST,GROUP_ADMIN,GROUP_REGION_SOUTH,H757,"75fd092a-073e-4b5d-95a3-b300eb69a514",15222,"PHILLIP CHINYAMA",,,48.0,grid,,Matope,faithbased,community_hospital,,more_than_16,0,0,0,0,,,4,delivered
,0.0,0.0,-15.346971,34.83923,HIDDEN,GROUP_REGION_SOUTH_WEST,GROUP_ADMIN,GROUP_REGION_SOUTH,H758,"75fd092a-073e-4b5d-95a3-b300eb69a514",13502,"BLESSINGS CHIPASULA",,,40.0,none,,Midzemba,public,health_center,,none,0,0,0,0,,,4,both
,0.0,0.0,-15.327938,34.652073,HIDDEN,GROUP_REGION_SOUTH_WEST,GROUP_ADMIN,GROUP_REGION_SOUTH,H747,"75fd092a-073e-4b5d-95a3-b300eb69a514",8798,"EVARSON MTIWANTHU",,,8.0,grid,,Matandani,faithbased,community_hospital,,more_than_16,0,0,0,0,,,4,delivered
,0.0,0.0,-15.327744,35.216854,HIDDEN,GROUP_REGION_SOUTH_EAST,GROUP_ADMIN,GROUP_REGION_SOUTH,H608,"a74039b0-b362-42c3-ae43-f2195fa7975a",17742,"PEASON GONDWE",,,20.0,grid,,"Nkasala Health Centre",public,community_hospital,,fewer_than_4,0,0,0,0,,,4,delivered
,0.0,0.0,-15.32549,35.605278,HIDDEN,GROUP_REGION_SOUTH_EAST,GROUP_ADMIN,GROUP_REGION_SOUTH,H640,"a74039b0-b362-42c3-ae43-f2195fa7975a",4032,"ROMAN ULEDI",,,18.0,none,,Chisi,public,community_hospital,,none,0,0,0,0,,,4,delivered
,0.0,0.0,-15.324312,35.116985,HIDDEN,GROUP_REGION_SOUTH_EAST,GROUP_ADMIN,GROUP_REGION_SOUTH,H610,"a74039b0-b362-42c3-ae43-f2195fa7975a",12620,"LAMECK MANYAWA",,,40.0,none,,"Chilipa Health Centre",faithbased,community_hospital,,none,0,0,0,0,,,4,delivered
,0.0,0.0,-15.297541,35.36063,HIDDEN,GROUP_REGION_SOUTH_EAST,GROUP_ADMIN,GROUP_REGION_SOUTH,H629,"a74039b0-b362-42c3-ae43-f2195fa7975a",8766,"NIGHTON UNDANI",,,16.0,grid,,"Parker Sharp",faithbased,community_hospital,,more_than_16,0,0,0,0,,,4,delivered
,0.0,0.0,-15.295986,35.822773,HIDDEN,GROUP_REGION_SOUTH_EAST,GROUP_ADMIN,GROUP_REGION_SOUTH,H642,"a74039b0-b362-42c3-ae43-f2195fa7975a",1139,"DUNCAN LIMBE",,,65.0,none,,Ngotangota,public,dispensary,,none,0,0,0,0,,,4,delivered
,0.0,0.0,-15.280588,35.399185,HIDDEN,GROUP_REGION_SOUTH_EAST,GROUP_ADMIN,GROUP_REGION_SOUTH,H628,"a74039b0-b362-42c3-ae43-f2195fa7975a",22773,"PATRICK CHIGUMULA",,,30.0,grid,,"Domasi Rural Hospital",public,district_hospital,,more_than_16,0,0,0,0,,,4,delivered
,0.0,0.0,-15.262753,35.15962,HIDDEN,GROUP_REGION_SOUTH_EAST,GROUP_ADMIN,GROUP_REGION_SOUTH,H607,"a74039b0-b362-42c3-ae43-f2195fa7975a",18400,"JULIUS GULANI",,,35.0,none,,"Mmambo Health Centre",public,community_hospital,,none,0,0,0,0,,,4,delivered
,0.0,0.0,-15.258887,34.61276,HIDDEN,GROUP_REGION_SOUTH_WEST,GROUP_ADMIN,GROUP_REGION_SOUTH,H748,"75fd092a-073e-4b5d-95a3-b300eb69a514",18590,"GEORGE E S MPHALUMO",,,19.0,none,,Nsabwe,faithbased,community_hospital,,none,0,0,0,0,,,4,collected
,0.0,0.0,-15.250817,35.107285,HIDDEN,GROUP_REGION_SOUTH_EAST,GROUP_ADMIN,GROUP_REGION_SOUTH,H462,"b7fee552-e5bf-434d-bb59-6f2b35c7542b",21333,"LACKSON MAGOMBO",,,57.0,none,,Phimbi,public,community_hospital,,none,0,0,0,0,,,4,delivered
,0.0,0.0,-15.231846,35.44225,HIDDEN,GROUP_REGION_SOUTH_EAST,GROUP_ADMIN,GROUP_REGION_SOUTH,H625,"a74039b0-b362-42c3-ae43-f2195fa7975a",15481,"IAN GHOSTEN",,,28.0,grid,,Namasalima,public,community_hospital,,more_than_16,0,0,0,0,,,4,delivered
,0.0,0.0,-15.230261,35.8021,HIDDEN,GROUP_REGION_SOUTH_EAST,GROUP_ADMIN,GROUP_REGION_SOUTH,H641,"a74039b0-b362-42c3-ae43-f2195fa7975a",1763,"MAC MAIDA",,,29.0,none,,Chinguma,public,dispensary,,none,0,0,0,0,,,4,delivered
,0.0,0.0,-15.225535,34.89326,HIDDEN,GROUP_REGION_SOUTH_EAST,GROUP_ADMIN,GROUP_REGION_SOUTH,H463,"b7fee552-e5bf-434d-bb59-6f2b35c7542b",21850,"PATRICK BONONGWE",,,41.0,grid,,Phalula,faithbased,community_hospital,,more_than_16,0,0,0,0,,,4,delivered
,0.0,0.0,-15.224426,35.489384,HIDDEN,GROUP_REGION_SOUTH_EAST,GROUP_ADMIN,GROUP_REGION_SOUTH,H481,"c6c7f835-347a-4b33-a7d7-445c2eda2890",12827,"FABIAN W. SELEVANSIO",,,25.0,none,,"Mpheta Health Post",public,dispensary,,none,0,0,0,0,,,4,both
,0.0,0.0,-15.223858,35.203007,HIDDEN,GROUP_REGION_SOUTH_EAST,GROUP_ADMIN,GROUP_REGION_SOUTH,H482,"c6c7f835-347a-4b33-a7d7-445c2eda2890",8849,"FREDRICK MAILOSI",,,27.0,none,,"Gawanani Health Centre",faithbased,community_hospital,,none,0,0,0,0,,,4,both
,0.0,0.0,-15.2089815,35.35241,HIDDEN,GROUP_REGION_SOUTH_EAST,GROUP_ADMIN,GROUP_REGION_SOUTH,H626,"a74039b0-b362-42c3-ae43-f2195fa7975a",11121,"A. MULOTIWA",,,30.0,grid,,"St Lukes",faithbased,rural_hospital,,more_than_16,0,0,0,0,,,4,delivered
,0.0,0.0,-15.203889,34.84688,HIDDEN,"GROUP_REGION_CENTRAL_WEST",GROUP_ADMIN,GROUP_REGION_CENTRAL,H262,"199ea9f3-1532-4ac6-8529-9849807f3a0a",6440,"DAVID GA BLIERE LAMBOLEN",,,76.0,none,,"Machereza Health Post",public,dispensary,,none,0,0,0,0,,,4,both
,0.0,0.0,-15.202404,35.42132,HIDDEN,GROUP_REGION_SOUTH_EAST,GROUP_ADMIN,GROUP_REGION_SOUTH,H479,"c6c7f835-347a-4b33-a7d7-445c2eda2890",24111,"AMAN USMAN",,,49.0,grid,,Chamba,public,community_hospital,,8_to_16,0,0,0,0,,,4,both
,0.0,0.0,-15.177478,35.2955,HIDDEN,GROUP_REGION_SOUTH_EAST,GROUP_ADMIN,GROUP_REGION_SOUTH,H509,"c6c7f835-347a-4b33-a7d7-445c2eda2890",16558,"FLOSSY MAKIRIKA",,,19.0,grid,,"Machinga Health Centre",public,community_hospital,,more_than_16,0,0,0,0,,,4,both
,0.0,0.0,-15.171138,34.61021,HIDDEN,"GROUP_REGION_CENTRAL_WEST",GROUP_ADMIN,GROUP_REGION_CENTRAL,H282,"199ea9f3-1532-4ac6-8529-9849807f3a0a",24102,"DAMALEKANI GWEDEZA",,,72.0,grid,,"Tsangano Health Centre",faithbased,community_hospital,,more_than_16,0,0,0,0,,,5,delivered
,0.0,0.0,-15.169891,35.072468,HIDDEN,GROUP_REGION_SOUTH_EAST,GROUP_ADMIN,GROUP_REGION_SOUTH,H460,"b7fee552-e5bf-434d-bb59-6f2b35c7542b",14872,"LESTER P.KASOMALE",,,40.0,grid,,"Utale  2",faithbased,community_hospital,,more_than_16,0,0,0,0,,,4,collected
,0.0,0.0,-15.148869,35.518696,HIDDEN,GROUP_REGION_SOUTH_EAST,GROUP_ADMIN,GROUP_REGION_SOUTH,H480,"c6c7f835-347a-4b33-a7d7-445c2eda2890",18347,"NELSON KAMBONA",,,49.0,none,,Mposa,faithbased,community_hospital,,none,0,0,0,0,,,4,both
,0.0,0.0,-15.107521,34.828716,HIDDEN,"GROUP_REGION_CENTRAL_WEST",GROUP_ADMIN,GROUP_REGION_CENTRAL,H264,"199ea9f3-1532-4ac6-8529-9849807f3a0a",1400,"LISTEN JASTEN",,,57.0,none,,"Likudzi Health Post",public,dispensary,,none,0,0,0,0,,,4,delivered
,0.0,0.0,-15.1027775,35.13693,HIDDEN,GROUP_REGION_SOUTH_EAST,GROUP_ADMIN,GROUP_REGION_SOUTH,H459,"b7fee552-e5bf-434d-bb59-6f2b35c7542b",9980,"A .MDOKA",,,10.0,none,,Dziwe,public,dispensary,,none,0,0,0,0,,,4,collected
,0.0,0.0,-15.102648,34.66763,HIDDEN,"GROUP_REGION_CENTRAL_WEST",GROUP_ADMIN,GROUP_REGION_CENTRAL,H269,"199ea9f3-1532-4ac6-8529-9849807f3a0a",7166,"FRACKSON E. MADZIAKATAYIKA",,,69.0,none,,"Matanda Health Centre",faithbased,community_hospital,,none,0,0,0,0,,,5,delivered
,0.0,0.0,-15.080712,34.780567,HIDDEN,"GROUP_REGION_CENTRAL_WEST",GROUP_ADMIN,GROUP_REGION_CENTRAL,H263,"199ea9f3-1532-4ac6-8529-9849807f3a0a",4800,"L. JUSTEN",,,48.0,none,,"Namisu Health Centre",public,community_hospital,,none,0,0,0,0,,,5,delivered
,0.0,0.0,-15.079935,35.496487,HIDDEN,GROUP_REGION_SOUTH_EAST,GROUP_ADMIN,GROUP_REGION_SOUTH,H487,"c6c7f835-347a-4b33-a7d7-445c2eda2890",11211,"FELIX PHIRI",,,10.0,none,,"Zumulu Health Post",public,dispensary,,none,0,0,0,0,,,4,collected
,0.0,0.0,-15.079562,34.59003,HIDDEN,"GROUP_REGION_CENTRAL_WEST",GROUP_ADMIN,GROUP_REGION_CENTRAL,H268,"199ea9f3-1532-4ac6-8529-9849807f3a0a",7480,"BONIFACE MANGANI",,,65.0,none,,"Doviko Health Centre",public,community_hospital,,none,0,0,0,0,,,4,delivered
,0.0,0.0,-15.075841,34.85713,HIDDEN,"GROUP_REGION_CENTRAL_WEST",GROUP_ADMIN,GROUP_REGION_CENTRAL,H261,"199ea9f3-1532-4ac6-8529-9849807f3a0a",12805,"ALINAFE GOLOMBE",,,58.0,grid,,"Senzani Health Centre",faithbased,community_hospital,,more_than_16,0,0,0,0,,,4,delivered
,0.0,0.0,-15.064841,35.09286,HIDDEN,GROUP_REGION_SOUTH_EAST,GROUP_ADMIN,GROUP_REGION_SOUTH,H473,"b7fee552-e5bf-434d-bb59-6f2b35c7542b",16899,"MAXWELL KADZILAWE",,,16.0,none,,Kwitanda,public,community_hospital,,none,0,0,0,0,,,4,delivered
,0.0,0.0,-15.062297,35.22619,HIDDEN,GROUP_REGION_SOUTH_EAST,GROUP_ADMIN,GROUP_REGION_SOUTH,H476,"c6c7f835-347a-4b33-a7d7-445c2eda2890",532784,"L.M. NAMANULI",,,120.0,grid,,"Machinga District Vaccine Store",public,regional_vaccine_store,,more_than_16,0,0,0,0,,,4,collected
,0.0,0.0,-15.054866,34.922276,HIDDEN,GROUP_REGION_SOUTH_EAST,GROUP_ADMIN,GROUP_REGION_SOUTH,H464,"b7fee552-e5bf-434d-bb59-6f2b35c7542b",24479,"FATIMA RENSO",,,15.0,grid,,Kankao,faithbased,community_hospital,,more_than_16,0,0,0,0,,,4,delivered
,0.0,0.0,-15.050723,35.392204,HIDDEN,GROUP_REGION_SOUTH_EAST,GROUP_ADMIN,GROUP_REGION_SOUTH,H508,"c6c7f835-347a-4b33-a7d7-445c2eda2890",12635,"LEMAN WAYESI",,,21.0,none,,"Molipa Health Post",public,dispensary,,none,0,0,0,0,,,4,collected
,0.0,0.0,-15.019089,35.477097,HIDDEN,GROUP_REGION_SOUTH_EAST,GROUP_ADMIN,GROUP_REGION_SOUTH,H488,"c6c7f835-347a-4b33-a7d7-445c2eda2890",16959,BESTONE,,,30.0,grid,,"Mlomba Health Centre",public,community_hospital,,fewer_than_4,0,0,0,0,,,4,both
,0.0,0.0,-15.018619,35.076504,HIDDEN,GROUP_REGION_SOUTH_EAST,GROUP_ADMIN,GROUP_REGION_SOUTH,H474,"b7fee552-e5bf-434d-bb59-6f2b35c7542b",12730,"W.E. MUHAMA",,,11.0,none,,Chendausiku,public,community_hospital,,none,0,0,0,0,,,4,delivered
,0.0,0.0,-15.017863,34.75185,HIDDEN,"GROUP_REGION_CENTRAL_WEST",GROUP_ADMIN,GROUP_REGION_CENTRAL,H286,"199ea9f3-1532-4ac6-8529-9849807f3a0a",10369,"BOSTON GONANI",,,20.0,grid,,"Ntonda Community Hospital",faithbased,hospital,,more_than_16,0,0,0,0,,,4,delivered
,0.0,0.0,-15.00548,34.859104,HIDDEN,"GROUP_REGION_CENTRAL_WEST",GROUP_ADMIN,GROUP_REGION_CENTRAL,H259,"199ea9f3-1532-4ac6-8529-9849807f3a0a",5921,"PATRICK KABAMBE",,,46.0,none,,"Manjawira Health Centre",public,community_hospital,,none,0,0,0,0,,,4,delivered
,0.0,0.0,-15.0021515,34.769974,HIDDEN,"GROUP_REGION_CENTRAL_WEST",GROUP_ADMIN,GROUP_REGION_CENTRAL,H257,"199ea9f3-1532-4ac6-8529-9849807f3a0a",11598,"FRANCIS BINGALASON",,,35.0,none,,"Kapeni Health Centre",public,community_hospital,,none,0,0,0,0,,,4,delivered
,0.0,0.0,-15.000684,35.190033,HIDDEN,GROUP_REGION_SOUTH_EAST,GROUP_ADMIN,GROUP_REGION_SOUTH,H470,"b7fee552-e5bf-434d-bb59-6f2b35c7542b",28002,"FEBBIE TAULO",,,28.0,grid,,Namanolo,public,community_hospital,,8_to_16,0,0,0,0,,,4,delivered
,0.0,0.0,-14.996305,34.827003,HIDDEN,"GROUP_REGION_CENTRAL_WEST",GROUP_ADMIN,GROUP_REGION_CENTRAL,H260,"199ea9f3-1532-4ac6-8529-9849807f3a0a",4832,"CLEMENT MAFULA",,,58.0,grid,,"Sister Tereza Community Hospital",faithbased,hospital,,more_than_16,0,0,0,0,,,5,delivered
,0.0,0.0,-14.995194,35.573166,HIDDEN,GROUP_REGION_SOUTH_EAST,GROUP_ADMIN,GROUP_REGION_SOUTH,H504,"c6c7f835-347a-4b33-a7d7-445c2eda2890",10464,"MC LAWRENCE JONNAS",,,46.0,none,,"Ntholowa Health Centre",faithbased,community_hospital,,none,0,0,0,0,,,4,delivered
,0.0,0.0,-14.994775,35.4948,HIDDEN,GROUP_REGION_SOUTH_EAST,GROUP_ADMIN,GROUP_REGION_SOUTH,H498,"c6c7f835-347a-4b33-a7d7-445c2eda2890",37096,"EDWARD GONDWE",,,62.0,grid,,"Nsanama Health Centre",faithbased,community_hospital,,more_than_16,0,0,0,0,,,4,collected
,0.0,0.0,-14.984368,34.950027,HIDDEN,GROUP_REGION_SOUTH_EAST,GROUP_ADMIN,GROUP_REGION_SOUTH,H468,"b7fee552-e5bf-434d-bb59-6f2b35c7542b",349121,"MC NEIL MALUNGA",,,127.0,grid,,Balaka,public,regional_vaccine_store,,more_than_16,0,0,0,0,,,4,collected
,0.0,0.0,-14.975498,35.876408,HIDDEN,GROUP_REGION_SOUTH_EAST,GROUP_ADMIN,GROUP_REGION_SOUTH,H501,"c6c7f835-347a-4b33-a7d7-445c2eda2890",14407,"JIMMY NYALAPA",,,38.0,none,,"Nayuchi Health Centre",public,community_hospital,,none,0,0,0,0,,,4,both
,0.0,0.0,-14.975487,35.603886,HIDDEN,GROUP_REGION_SOUTH_EAST,GROUP_ADMIN,GROUP_REGION_SOUTH,H503,"c6c7f835-347a-4b33-a7d7-445c2eda2890",12049,"JAMES CHIKAONDA",,,15.0,none,,"Mbanira Health Post",public,dispensary,,none,0,0,0,0,,,4,both
,0.0,0.0,-14.968737,35.457596,HIDDEN,GROUP_REGION_SOUTH_EAST,GROUP_ADMIN,GROUP_REGION_SOUTH,H491,"c6c7f835-347a-4b33-a7d7-445c2eda2890",15659,"MOFOLO SALIKUCHEPA",,,13.0,none,,"Chisuwi Health Post",public,dispensary,,none,0,0,0,0,,,4,both
,0.0,0.0,-14.964804,35.679325,HIDDEN,GROUP_REGION_SOUTH_EAST,GROUP_ADMIN,GROUP_REGION_SOUTH,H499,"c6c7f835-347a-4b33-a7d7-445c2eda2890",28987,"IGNASIO SILLAH",,,130.0,none,,"Namanja Health Centre",public,community_hospital,,none,0,0,0,0,,,4,delivered
,0.0,0.0,-14.959272,35.790344,HIDDEN,GROUP_REGION_SOUTH_EAST,GROUP_ADMIN,GROUP_REGION_SOUTH,H500,"c6c7f835-347a-4b33-a7d7-445c2eda2890",4800,"MIKE MPANDO",,,7.0,none,,"Likhonyowa Health Post",public,dispensary,,none,0,0,0,0,,,4,both
,0.0,0.0,-14.945672,34.642197,HIDDEN,"GROUP_REGION_CENTRAL_WEST",GROUP_ADMIN,GROUP_REGION_CENTRAL,H250,"199ea9f3-1532-4ac6-8529-9849807f3a0a",4457,"ROBERT MAKHAMBERA",,,23.0,none,,"Dzonzi Mvai Dispensary",public,health_center,,none,0,0,0,0,,,6,both
,0.0,0.0,-14.941618,35.61373,HIDDEN,GROUP_REGION_SOUTH_EAST,GROUP_ADMIN,GROUP_REGION_SOUTH,H502,"c6c7f835-347a-4b33-a7d7-445c2eda2890",6764,"HENRY ALFANDIKA",,,7.0,none,,"Chapusa Health Post",public,dispensary,,none,0,0,0,0,,,4,collected
,0.0,0.0,-14.933916,34.87345,HIDDEN,"GROUP_REGION_CENTRAL_WEST",GROUP_ADMIN,GROUP_REGION_CENTRAL,H266,"199ea9f3-1532-4ac6-8529-9849807f3a0a",28161,"M. H. KANGUWO",,,14.0,grid,,"Nsiyaludzu Health Centre",public,community_hospital,,more_than_16,0,0,0,0,,,4,both
,0.0,0.0,-14.929642,35.184933,HIDDEN,GROUP_REGION_SOUTH_EAST,GROUP_ADMIN,GROUP_REGION_SOUTH,H472,"b7fee552-e5bf-434d-bb59-6f2b35c7542b",26350,"ELLA WELLOS",,,40.0,none,,Mwima,public,dispensary,,none,0,0,0,0,,,4,delivered
,0.0,0.0,-14.916457,35.65092,HIDDEN,GROUP_REGION_SOUTH_EAST,GROUP_ADMIN,GROUP_REGION_SOUTH,H497,"c6c7f835-347a-4b33-a7d7-445c2eda2890",10562,"ISAAC MPONDA",,,97.0,none,,"Chitundu Health Post",public,dispensary,,none,0,0,0,0,,,4,delivered
,0.0,0.0,-14.910665,35.05349,HIDDEN,GROUP_REGION_SOUTH_EAST,GROUP_ADMIN,GROUP_REGION_SOUTH,H465,"b7fee552-e5bf-434d-bb59-6f2b35c7542b",48960,"ALI MAKWINJA",,,7.0,grid,,Mbera,public,community_hospital,,more_than_16,0,0,0,0,,,4,delivered
,0.0,0.0,-14.899799,34.731228,HIDDEN,"GROUP_REGION_CENTRAL_WEST",GROUP_ADMIN,GROUP_REGION_CENTRAL,H256,"199ea9f3-1532-4ac6-8529-9849807f3a0a",10999,"JONAH J.L. CHILEWANI",,,15.0,none,,"Champiti Health Centre",public,community_hospital,,none,0,0,0,0,,,5,delivered
,0.0,0.0,-14.8908415,34.58522,HIDDEN,"GROUP_REGION_CENTRAL_WEST",GROUP_ADMIN,GROUP_REGION_CENTRAL,H265,"199ea9f3-1532-4ac6-8529-9849807f3a0a",10813,"LEYA BANDA",,,24.0,none,,"Nzama Health Centre",faithbased,community_hospital,,none,0,0,0,0,,,5,delivered
,0.0,0.0,-14.889306,35.478104,HIDDEN,GROUP_REGION_SOUTH_EAST,GROUP_ADMIN,GROUP_REGION_SOUTH,H505,"c6c7f835-347a-4b33-a7d7-445c2eda2890",9323,"JAMBO KAMWANA",,,1.0,none,,"Mbonechera Dispensary",public,health_center,,none,0,0,0,0,,,4,collected
,0.0,0.0,-14.88197,35.483112,HIDDEN,GROUP_REGION_SOUTH_EAST,GROUP_ADMIN,GROUP_REGION_SOUTH,H477,"c6c7f835-347a-4b33-a7d7-445c2eda2890",18560,"FASHION MOLLEN",,,58.0,grid,,"Namandanje Parish Health Centre",faithbased,community_hospital,,more_than_16,0,0,0,0,,,4,both
,0.0,0.0,-14.868264,35.52952,HIDDEN,GROUP_REGION_SOUTH_EAST,GROUP_ADMIN,GROUP_REGION_SOUTH,H478,"c6c7f835-347a-4b33-a7d7-445c2eda2890",38000,"ALEX MAFERANO",,,50.0,grid,,Ntaja,public,community_hospital,,more_than_16,0,0,0,0,,,4,both
,0.0,0.0,-14.862078,35.176876,HIDDEN,GROUP_REGION_SOUTH_EAST,GROUP_ADMIN,GROUP_REGION_SOUTH,H469,"b7fee552-e5bf-434d-bb59-6f2b35c7542b",15351,"MEXTON MANYOZO",,,57.0,grid,,Ulongwe,faithbased,community_hospital,,fewer_than_4,0,0,0,0,,,4,delivered
,0.0,0.0,-14.8616705,34.751263,HIDDEN,"GROUP_REGION_CENTRAL_WEST",GROUP_ADMIN,GROUP_REGION_CENTRAL,H251,"199ea9f3-1532-4ac6-8529-9849807f3a0a",20120,"DAVE PATSANJE",,,16.0,grid,,"Nsipe Health Centre",faithbased,community_hospital,,more_than_16,0,0,0,0,,,4,delivered
,0.0,0.0,-14.855427,35.6855,HIDDEN,GROUP_REGION_SOUTH_EAST,GROUP_ADMIN,GROUP_REGION_SOUTH,H486,"c6c7f835-347a-4b33-a7d7-445c2eda2890",27468,"ACID C. AJIDA",,,120.0,none,,Chipolonga,public,dispensary,,none,0,0,0,0,,,4,delivered
,0.0,0.0,-14.854774,35.57207,HIDDEN,GROUP_REGION_SOUTH_EAST,GROUP_ADMIN,GROUP_REGION_SOUTH,H496,"c6c7f835-347a-4b33-a7d7-445c2eda2890",23027,"NYSON KAPITE",,,70.0,none,,"Kawinga Health Centre",public,community_hospital,,none,0,0,0,0,,,4,both
,0.0,0.0,-14.8517275,35.225487,HIDDEN,GROUP_REGION_SOUTH_EAST,GROUP_ADMIN,GROUP_REGION_SOUTH,H471,"b7fee552-e5bf-434d-bb59-6f2b35c7542b",13866,"EULALIA LIKAMBALE",,,96.0,none,,Nandumbo,public,community_hospital,,none,0,0,0,0,,,4,delivered
,0.0,0.0,-14.842729,35.170673,HIDDEN,GROUP_REGION_SOUTH_EAST,GROUP_ADMIN,GROUP_REGION_SOUTH,H466,"b7fee552-e5bf-434d-bb59-6f2b35c7542b",42628,"CHRISTINA CHIPUTULA",,,40.0,grid,,Kalembo,public,community_hospital,,more_than_16,0,0,0,0,,,4,delivered
,0.0,0.0,-14.822158,34.85059,HIDDEN,"GROUP_REGION_CENTRAL_WEST",GROUP_ADMIN,GROUP_REGION_CENTRAL,H254,"199ea9f3-1532-4ac6-8529-9849807f3a0a",43789,"ROSE R. MORRIS",,,42.0,none,,"Bilira Health Centre",public,community_hospital,,none,0,0,0,0,,,4,delivered
,0.0,0.0,-14.814365,34.637356,HIDDEN,"GROUP_REGION_CENTRAL_WEST",GROUP_ADMIN,GROUP_REGION_CENTRAL,H248,"199ea9f3-1532-4ac6-8529-9849807f3a0a",33567,"R. FELESI",,,0.02,grid,,"Ntcheu  Hospital",public,central_hospital,,more_than_16,0,0,0,0,,,2,collected
,0.0,0.0,-14.80508,34.73525,HIDDEN,"GROUP_REGION_CENTRAL_WEST",GROUP_ADMIN,GROUP_REGION_CENTRAL,H252,"199ea9f3-1532-4ac6-8529-9849807f3a0a",30405,"THANDIE MTALIMANJA",,,12.0,none,,"Dzunje Health Centre",public,community_hospital,,none,0,0,0,0,,,5,delivered
,0.0,0.0,-14.7965765,34.648945,HIDDEN,"GROUP_REGION_CENTRAL_WEST",GROUP_ADMIN,GROUP_REGION_CENTRAL,H249,"199ea9f3-1532-4ac6-8529-9849807f3a0a",5840,"E. CHIKOTI",,,5.0,grid,,"Chiole Health Centre",faithbased,community_hospital,,more_than_16,0,0,0,0,,,4,collected
,0.0,0.0,-14.791414,35.43656,HIDDEN,GROUP_REGION_SOUTH_EAST,GROUP_ADMIN,GROUP_REGION_SOUTH,H506,"c6c7f835-347a-4b33-a7d7-445c2eda2890",20205,"ENOCK MDALA",,,62.0,none,,"Mangamba Health Centre",public,community_hospital,,none,0,0,0,0,,,4,delivered
,0.0,0.0,-14.783094,34.9985,HIDDEN,GROUP_REGION_SOUTH_EAST,GROUP_ADMIN,GROUP_REGION_SOUTH,H547,"ba8d1078-9b32-41f4-a62a-f7b56ea3465e",9084,"DAVID MALANGE",,,74.0,grid,,Kapale,faithbased,community_hospital,,more_than_16,0,0,0,0,,,4,delivered
,0.0,0.0,-14.774926,35.43827,HIDDEN,GROUP_REGION_SOUTH_EAST,GROUP_ADMIN,GROUP_REGION_SOUTH,H521,"ba8d1078-9b32-41f4-a62a-f7b56ea3465e",32000,"CEADRECK SOKOLUKU",,,65.0,none,,Chiunda,public,health_center,,none,0,0,0,0,,,4,delivered
,0.0,0.0,-14.772884,35.606125,HIDDEN,GROUP_REGION_SOUTH_EAST,GROUP_ADMIN,GROUP_REGION_SOUTH,H490,"c6c7f835-347a-4b33-a7d7-445c2eda2890",23597,"ROSE MUKWIKWI",,,86.0,none,,"Mpiri Health Centre",faithbased,community_hospital,,none,0,0,0,0,,,4,delivered
,0.0,0.0,-14.770171,34.90674,HIDDEN,"GROUP_REGION_CENTRAL_WEST",GROUP_ADMIN,GROUP_REGION_CENTRAL,H253,"199ea9f3-1532-4ac6-8529-9849807f3a0a",15592,"ROSE KAKHOME",,,50.0,none,,"Chikande Health Centre",public,community_hospital,,none,0,0,0,0,,,4,delivered
,0.0,0.0,-14.764639,35.668427,HIDDEN,GROUP_REGION_SOUTH_EAST,GROUP_ADMIN,GROUP_REGION_SOUTH,H485,"c6c7f835-347a-4b33-a7d7-445c2eda2890",72186,"ZUZE STEVEN",,,92.0,grid,,"Chikweo Health Centre",public,community_hospital,,8_to_16,0,0,0,0,,,4,both
,0.0,0.0,-14.758044,34.556934,HIDDEN,"GROUP_REGION_CENTRAL_WEST",GROUP_ADMIN,GROUP_REGION_CENTRAL,H283,"199ea9f3-1532-4ac6-8529-9849807f3a0a",11296,"DOROTHY MPINGANJIRA",,,12.0,grid,,"Biriwiri Health Centre",public,community_hospital,,more_than_16,0,0,0,0,,,4,both
,0.0,0.0,-14.754097,35.342777,HIDDEN,GROUP_REGION_SOUTH_EAST,GROUP_ADMIN,GROUP_REGION_SOUTH,H507,"c6c7f835-347a-4b33-a7d7-445c2eda2890",4455,"MOSES J. MPHATSO",,,15.0,none,,"Chikuluma Health Post",public,dispensary,,none,0,0,0,0,,,4,collected
,0.0,0.0,-14.752504,35.111416,HIDDEN,GROUP_REGION_SOUTH_EAST,GROUP_ADMIN,GROUP_REGION_SOUTH,H541,"ba8d1078-9b32-41f4-a62a-f7b56ea3465e",7136,"GILBART ISSAH",,,66.0,none,,"Mwatakata Health Centre",public,dispensary,,none,0,0,0,0,,,4,delivered
,0.0,0.0,-14.743781,35.187607,HIDDEN,GROUP_REGION_SOUTH_EAST,GROUP_ADMIN,GROUP_REGION_SOUTH,H548,"ba8d1078-9b32-41f4-a62a-f7b56ea3465e",18761,"JULIA MASAUKO",,,48.0,none,,Chalopa,public,dispensary,,none,0,0,0,0,,,4,delivered
,0.0,0.0,-14.740523,35.565277,HIDDEN,GROUP_REGION_SOUTH_EAST,GROUP_ADMIN,GROUP_REGION_SOUTH,H489,"c6c7f835-347a-4b33-a7d7-445c2eda2890",17736,"ALFRED MDOKA",,,78.0,grid,,"Nainunje Health Centre",public,community_hospital,,8_to_16,0,0,0,0,,,4,both
,0.0,0.0,-14.733236,34.660515,HIDDEN,"GROUP_REGION_CENTRAL_WEST",GROUP_ADMIN,GROUP_REGION_CENTRAL,H274,"199ea9f3-1532-4ac6-8529-9849807f3a0a",25741,,,,11.0,none,,"Mphepozinayi Dispensary",public,health_center,,none,0,0,0,0,,,4,delivered
,0.0,0.0,-14.717202,34.632675,HIDDEN,"GROUP_REGION_CENTRAL_WEST",GROUP_ADMIN,GROUP_REGION_CENTRAL,H273,"199ea9f3-1532-4ac6-8529-9849807f3a0a",5267,"CHRISTOPHER CHIZUNGUWIRE",,,19.0,none,,"Muluma Health Centre",faithbased,community_hospital,,none,0,0,0,0,,,4,delivered
,0.0,0.0,-14.7117405,35.497623,HIDDEN,GROUP_REGION_SOUTH_EAST,GROUP_ADMIN,GROUP_REGION_SOUTH,H524,"ba8d1078-9b32-41f4-a62a-f7b56ea3465e",18717,"MATHEWS CHITAWO",,,165.0,none,,Mbalama,public,dispensary,,none,0,0,0,0,,,4,delivered
,0.0,0.0,-14.707036,35.801548,HIDDEN,GROUP_REGION_SOUTH_EAST,GROUP_ADMIN,GROUP_REGION_SOUTH,H483,"c6c7f835-347a-4b33-a7d7-445c2eda2890",33097,"LAMECK MALIWATA",,,101.0,none,,"Ngokwe Health Centre",public,community_hospital,,none,0,0,0,0,,,4,delivered
,0.0,0.0,-14.70021,34.973255,HIDDEN,GROUP_REGION_SOUTH_EAST,GROUP_ADMIN,GROUP_REGION_SOUTH,H546,"ba8d1078-9b32-41f4-a62a-f7b56ea3465e",31588,"E MWALE/ THANDIWE CHINZINGA",,,62.0,none,,"Chilipa Health Centre",public,community_hospital,,none,0,0,0,0,,,4,delivered
,0.0,0.0,-14.696346,34.589073,HIDDEN,"GROUP_REGION_CENTRAL_WEST",GROUP_ADMIN,GROUP_REGION_CENTRAL,H272,"199ea9f3-1532-4ac6-8529-9849807f3a0a",12250,"DAMBOMANUEL DICKSON",,,25.0,none,,"Gowa Health Centre",faithbased,community_hospital,,none,0,0,0,0,,,5,delivered
,0.0,0.0,-14.695126,35.706276,HIDDEN,GROUP_REGION_SOUTH_EAST,GROUP_ADMIN,GROUP_REGION_SOUTH,H495,"c6c7f835-347a-4b33-a7d7-445c2eda2890",4792,"DEVISON C. KAZEMBE",,,12.0,none,,"Lifune Health Centre",private,community_hospital,,none,0,0,0,0,,,4,collected
,0.0,0.0,-14.6901,35.572453,HIDDEN,GROUP_REGION_SOUTH_EAST,GROUP_ADMIN,GROUP_REGION_SOUTH,H492,"c6c7f835-347a-4b33-a7d7-445c2eda2890",27224,"AARON CHAUYA",,,85.0,grid,,"Nyambi Health Centre",public,community_hospital,,fewer_than_4,0,0,0,0,,,4,both
,0.0,0.0,-14.673917,34.536015,HIDDEN,"GROUP_REGION_CENTRAL_WEST",GROUP_ADMIN,GROUP_REGION_CENTRAL,H280,"199ea9f3-1532-4ac6-8529-9849807f3a0a",6986,"STIVEN CHANZI",,,21.0,grid,,"Mlangeni Health Centre",public,community_hospital,,more_than_16,0,0,0,0,,,4,both
,0.0,0.0,-14.655049,35.076397,HIDDEN,GROUP_REGION_SOUTH_EAST,GROUP_ADMIN,GROUP_REGION_SOUTH,H542,"ba8d1078-9b32-41f4-a62a-f7b56ea3465e",14573,"ELLINGTON KADEWERE",,,57.0,none,,"Ngatala Health Centre",public,dispensary,,none,0,0,0,0,,,4,delivered
,0.0,0.0,-14.646174,34.77401,HIDDEN,"GROUP_REGION_CENTRAL_WEST",GROUP_ADMIN,GROUP_REGION_CENTRAL,H255,"199ea9f3-1532-4ac6-8529-9849807f3a0a",26527,"EMILY MAKINA",,,60.0,none,,"Bwanje Health Centre",public,community_hospital,,none,0,0,0,0,,,4,delivered
,0.0,0.0,-14.639459,34.55283,HIDDEN,"GROUP_REGION_CENTRAL_WEST",GROUP_ADMIN,GROUP_REGION_CENTRAL,H279,"199ea9f3-1532-4ac6-8529-9849807f3a0a",7167,"LIMBIKANI KATANGA",,,25.0,grid,,"Lake View Health Centre",faithbased,community_hospital,,more_than_16,0,0,0,0,,,4,both
,0.0,0.0,-14.634697,35.17947,HIDDEN,GROUP_REGION_SOUTH_EAST,GROUP_ADMIN,GROUP_REGION_SOUTH,H534,"ba8d1078-9b32-41f4-a62a-f7b56ea3465e",33583,"E KAMANGA",,,20.0,none,,Kukalanga,public,community_hospital,,none,0,0,0,0,,,4,delivered
,0.0,0.0,-14.632554,35.728893,HIDDEN,GROUP_REGION_SOUTH_EAST,GROUP_ADMIN,GROUP_REGION_SOUTH,H494,"c6c7f835-347a-4b33-a7d7-445c2eda2890",5671,"JIMMY BAKALI",,,13.0,none,,"Mwitiya Health Post",public,dispensary,,none,0,0,0,0,,,4,collected
,0.0,0.0,-14.627886,35.348446,HIDDEN,GROUP_REGION_SOUTH_EAST,GROUP_ADMIN,GROUP_REGION_SOUTH,H520,"ba8d1078-9b32-41f4-a62a-f7b56ea3465e",17766,"KONDWANI K PHIRI",,,39.0,none,,Malombe,public,community_hospital,,none,0,0,0,0,,,4,delivered
,0.0,0.0,-14.608374,35.08188,HIDDEN,GROUP_REGION_SOUTH_EAST,GROUP_ADMIN,GROUP_REGION_SOUTH,H543,"ba8d1078-9b32-41f4-a62a-f7b56ea3465e",29630,"EMMANUEL NKANGO SAKA",,,45.0,none,,"Mtimabi Health Centre",public,community_hospital,,none,0,0,0,0,,,4,delivered
,0.0,0.0,-14.60485,35.80591,HIDDEN,GROUP_REGION_SOUTH_EAST,GROUP_ADMIN,GROUP_REGION_SOUTH,H484,"c6c7f835-347a-4b33-a7d7-445c2eda2890",7462,"W. PALICHINA",,,15.0,none,,"Chimbira Health Post",public,dispensary,,none,0,0,0,0,,,4,delivered
,0.0,0.0,-14.602944,35.63637,HIDDEN,GROUP_REGION_SOUTH_EAST,GROUP_ADMIN,GROUP_REGION_SOUTH,H493,"c6c7f835-347a-4b33-a7d7-445c2eda2890",11571,"BRIGHT M. KHUMBANYIWA",,,96.0,none,,"Mkwepere Health Centre",public,community_hospital,,none,0,0,0,0,,,4,both
,0.0,0.0,-14.600392,34.615612,HIDDEN,"GROUP_REGION_CENTRAL_WEST",GROUP_ADMIN,GROUP_REGION_CENTRAL,H271,"199ea9f3-1532-4ac6-8529-9849807f3a0a",19479,"EVANCE BARTON",,,30.0,none,,"Kandeu Health Centre",public,community_hospital,,none,0,0,0,0,,,4,delivered
,0.0,0.0,-14.596302,34.586086,HIDDEN,"GROUP_REGION_CENTRAL_WEST",GROUP_ADMIN,GROUP_REGION_CENTRAL,H270,"199ea9f3-1532-4ac6-8529-9849807f3a0a",9310,"CHARLES H.M. SINGANO",,,20.0,none,,"Kampanje Health Centre",public,community_hospital,,none,0,0,0,0,,,5,delivered
,0.0,0.0,-14.591915,35.5244,HIDDEN,GROUP_REGION_SOUTH_EAST,GROUP_ADMIN,GROUP_REGION_SOUTH,H525,"ba8d1078-9b32-41f4-a62a-f7b56ea3465e",22657,"BIDWIN KADZIWENI",,,20.0,none,,Mkumba,public,community_hospital,,none,0,0,0,0,,,4,delivered
,0.0,0.0,-14.585552,34.897835,HIDDEN,GROUP_REGION_SOUTH_EAST,GROUP_ADMIN,GROUP_REGION_SOUTH,H545,"ba8d1078-9b32-41f4-a62a-f7b56ea3465e",20779,"PETER S. KAIPA",,,65.0,none,,"Phililongwe Health Centre",public,community_hospital,,none,0,0,0,0,,,4,delivered
,0.0,0.0,-14.581213,35.57545,HIDDEN,GROUP_REGION_SOUTH_EAST,GROUP_ADMIN,GROUP_REGION_SOUTH,H523,"ba8d1078-9b32-41f4-a62a-f7b56ea3465e",18355,"AFERA SUMSON",,,81.0,none,,Sinyala,public,community_hospital,,none,0,0,0,0,,,4,delivered
,0.0,0.0,-14.577738,35.363277,HIDDEN,GROUP_REGION_SOUTH_EAST,GROUP_ADMIN,GROUP_REGION_SOUTH,H519,"ba8d1078-9b32-41f4-a62a-f7b56ea3465e",32000,E.MCHANZA,,,36.0,none,,Mase,faithbased,community_hospital,,none,0,0,0,0,,,4,delivered
,0.0,0.0,-14.542781,35.191505,HIDDEN,GROUP_REGION_SOUTH_EAST,GROUP_ADMIN,GROUP_REGION_SOUTH,H549,"ba8d1078-9b32-41f4-a62a-f7b56ea3465e",9000,"EDNA MANJOLO",,,10.0,grid,,"Assalamu Health Centre",faithbased,community_hospital,,more_than_16,0,0,0,0,,,4,delivered
,0.0,0.0,-14.523048,35.037018,HIDDEN,GROUP_REGION_SOUTH_EAST,GROUP_ADMIN,GROUP_REGION_SOUTH,H544,"ba8d1078-9b32-41f4-a62a-f7b56ea3465e",29588,"PETER SILANJI PHIRI",,,30.0,none,,"Katema Health Centre",faithbased,community_hospital,,none,0,0,0,0,,,4,delivered
,0.0,0.0,-14.520677,34.6757,HIDDEN,"GROUP_REGION_CENTRAL_WEST",GROUP_ADMIN,GROUP_REGION_CENTRAL,H285,"199ea9f3-1532-4ac6-8529-9849807f3a0a",49866,"C.S. KATHYOLE",,,81.0,none,,"Kasinje Health Centre",public,community_hospital,,none,0,0,0,0,,,5,delivered
,0.0,0.0,-14.515064,34.464973,HIDDEN,"GROUP_REGION_CENTRAL_WEST",GROUP_ADMIN,GROUP_REGION_CENTRAL,H278,"199ea9f3-1532-4ac6-8529-9849807f3a0a",19902,"STEWARO CHAIMA",,,54.0,grid,,"Luzulu Health Centre",public,community_hospital,,more_than_16,0,0,0,0,,,4,both
,0.0,0.0,-14.508617,35.5871,HIDDEN,GROUP_REGION_SOUTH_EAST,GROUP_ADMIN,GROUP_REGION_SOUTH,H522,"ba8d1078-9b32-41f4-a62a-f7b56ea3465e",6384,"JESSIE MCHEMO",,,75.0,grid,,"Muli Bwanji",faithbased,rural_hospital,,more_than_16,0,0,0,0,,,4,delivered
,0.0,0.0,-14.489209,34.540466,HIDDEN,"GROUP_REGION_CENTRAL_WEST",GROUP_ADMIN,GROUP_REGION_CENTRAL,H284,"199ea9f3-1532-4ac6-8529-9849807f3a0a",10888,"ALFRED CHIDOKOWE",,,56.0,none,,"Chigodi Health Centre",faithbased,community_hospital,,none,0,0,0,0,,,4,delivered
,0.0,0.0,-14.479285,35.26413,HIDDEN,GROUP_REGION_SOUTH_EAST,GROUP_ADMIN,GROUP_REGION_SOUTH,H510,"ba8d1078-9b32-41f4-a62a-f7b56ea3465e",885355,"I.H NDELEMA",,,198.0,grid,,"Mangochi District Vaccine Store",public,regional_vaccine_store,,more_than_16,0,0,0,0,,,4,collected
,0.0,0.0,-14.478425,35.672108,HIDDEN,GROUP_REGION_SOUTH_EAST,GROUP_ADMIN,GROUP_REGION_SOUTH,H526,"ba8d1078-9b32-41f4-a62a-f7b56ea3465e",23974,"AFIYA YAMBANI",,,85.0,none,,Namangalamu,public,community_hospital,,none,0,0,0,0,,,4,delivered
,0.0,0.0,-14.476143,34.45914,HIDDEN,"GROUP_REGION_CENTRAL_WEST",GROUP_ADMIN,GROUP_REGION_CENTRAL,H276,"199ea9f3-1532-4ac6-8529-9849807f3a0a",7775,"TORIA HAUYA",,,57.0,grid,,"Mlanda Health Centre",faithbased,community_hospital,,more_than_16,0,0,0,0,,,4,delivered
,0.0,0.0,-14.475713,35.58593,HIDDEN,GROUP_REGION_SOUTH_EAST,GROUP_ADMIN,GROUP_REGION_SOUTH,H527,"ba8d1078-9b32-41f4-a62a-f7b56ea3465e",14956,"ANTHONY D KHAUKE",,,65.0,none,,Nancholi,public,health_center,,none,0,0,0,0,,,4,delivered
,0.0,0.0,-14.464483,34.870415,HIDDEN,GROUP_REGION_SOUTH_EAST,GROUP_ADMIN,GROUP_REGION_SOUTH,H551,"ba8d1078-9b32-41f4-a62a-f7b56ea3465e",11822,"GLORIA BULEYA",,,100.0,none,,"Chilonga Health",public,health_center,,none,0,0,0,0,,,4,delivered
,0.0,0.0,-14.455045,34.076458,HIDDEN,"GROUP_REGION_CENTRAL_WEST",GROUP_ADMIN,GROUP_REGION_CENTRAL,H128,"0121dbb4-f425-4013-bf70-c484bbc55dce",10032,"FRORENCE CHIKUSE",,,54.0,none,,"Mphati Health Centre",public,community_hospital,,none,0,0,0,0,,,4,delivered
,0.0,0.0,-14.450689,35.243183,HIDDEN,GROUP_REGION_SOUTH_EAST,GROUP_ADMIN,GROUP_REGION_SOUTH,H557,"ba8d1078-9b32-41f4-a62a-f7b56ea3465e",18444,"MOFOLO CHILONGA",,,3.0,grid,,"Mpondasi Health Centre",faithbased,community_hospital,,more_than_16,0,0,0,0,,,4,delivered
,0.0,0.0,-14.447142,33.9395,HIDDEN,"GROUP_REGION_CENTRAL_WEST",GROUP_ADMIN,GROUP_REGION_CENTRAL,H130,"0121dbb4-f425-4013-bf70-c484bbc55dce",16959,"RABECCA CHIKATI",,,75.0,none,,"Mikonde Health  Centre",faithbased,community_hospital,,none,0,0,0,0,,,4,delivered
,0.0,0.0,-14.442718,34.010227,HIDDEN,"GROUP_REGION_CENTRAL_WEST",GROUP_ADMIN,GROUP_REGION_CENTRAL,H129,"0121dbb4-f425-4013-bf70-c484bbc55dce",29931,"PETER MZENGO",,,60.0,none,,"Chimoto Health Centre",public,community_hospital,,none,0,0,0,0,,,4,delivered
,0.0,0.0,-14.43172,33.717655,HIDDEN,"GROUP_REGION_CENTRAL_WEST",GROUP_ADMIN,GROUP_REGION_CENTRAL,H135,"0121dbb4-f425-4013-bf70-c484bbc55dce",10137,"ADREW G.MBABA",,,110.0,none,,"Kafere Health Centre",public,community_hospital,,none,0,0,0,0,,,4,delivered
,0.0,0.0,-14.430625,34.42168,HIDDEN,"GROUP_REGION_CENTRAL_WEST",GROUP_ADMIN,GROUP_REGION_CENTRAL,H275,"199ea9f3-1532-4ac6-8529-9849807f3a0a",6380,"CHISOMO KUNKUMBIRA",,,57.0,none,,"Masasa Dispensary",public,health_center,,none,0,0,0,0,,,5,both
,0.0,0.0,-14.420583,34.522995,HIDDEN,"GROUP_REGION_CENTRAL_WEST",GROUP_ADMIN,GROUP_REGION_CENTRAL,H141,"0121dbb4-f425-4013-bf70-c484bbc55dce",4692,"NAKUPETA ELISHA",,,37.0,none,,"Mganja  Health Centre",public,community_hospital,,none,0,0,0,0,,,4,delivered
,0.0,0.0,-14.419245,35.38339,HIDDEN,GROUP_REGION_SOUTH_EAST,GROUP_ADMIN,GROUP_REGION_SOUTH,H540,"ba8d1078-9b32-41f4-a62a-f7b56ea3465e",8330,"J MAMBO",,,17.0,none,,"Chikole Health Centre",public,community_hospital,,none,0,0,0,0,,,4,delivered
,0.0,0.0,-14.413134,34.272797,HIDDEN,"GROUP_REGION_CENTRAL_WEST",GROUP_ADMIN,GROUP_REGION_CENTRAL,H156,"0121dbb4-f425-4013-bf70-c484bbc55dce",16369,"A. MPHANDE",,,12.0,none,,"Mlangali Health Centre",public,community_hospital,,none,0,0,0,0,,,4,delivered
,0.0,0.0,-14.412847,34.600742,HIDDEN,"GROUP_REGION_CENTRAL_WEST",GROUP_ADMIN,GROUP_REGION_CENTRAL,H142,"0121dbb4-f425-4013-bf70-c484bbc55dce",25509,"RAWRANCE J.ZOMBEYA",,,45.0,grid,,"Golomoti Health Centre",public,community_hospital,,more_than_16,0,0,0,0,,,4,delivered
,0.0,0.0,-14.405664,34.115906,HIDDEN,"GROUP_REGION_CENTRAL_WEST",GROUP_ADMIN,GROUP_REGION_CENTRAL,H127,"0121dbb4-f425-4013-bf70-c484bbc55dce",16359,"KALIVUTE MBEDZA",,,35.0,none,,"Maonde Health Centre",public,community_hospital,,none,0,0,0,0,,,4,delivered
,0.0,0.0,-14.402844,33.667908,HIDDEN,"GROUP_REGION_CENTRAL_WEST",GROUP_ADMIN,GROUP_REGION_CENTRAL,H203,"c5c5013a-3b9b-4f1a-972e-acec81185ede",35263,"BM MAMTO",,,31.0,none,,"Chiunjiza Health Centre",public,community_hospital,,none,0,0,0,0,,,4,collected
,0.0,0.0,-14.390319,34.071796,HIDDEN,"GROUP_REGION_CENTRAL_WEST",GROUP_ADMIN,GROUP_REGION_CENTRAL,H136,"0121dbb4-f425-4013-bf70-c484bbc55dce",18521,"JEAN PARANJETA",,,35.0,grid,,"Lobi Health Centre",public,community_hospital,,more_than_16,0,0,0,0,,,4,delivered
,0.0,0.0,-14.385777,34.335396,HIDDEN,"GROUP_REGION_CENTRAL_WEST",GROUP_ADMIN,GROUP_REGION_CENTRAL,H160,"0121dbb4-f425-4013-bf70-c484bbc55dce",31384,"J .A. LANJENI",,,110.0,grid,,"Dedza Health Centre",public,central_hospital,,more_than_16,0,0,0,0,,,4,delivered
,0.0,0.0,-14.382533,35.534847,HIDDEN,GROUP_REGION_SOUTH_EAST,GROUP_ADMIN,GROUP_REGION_SOUTH,H529,"ba8d1078-9b32-41f4-a62a-f7b56ea3465e",11127,"ALICK GAGA",,,40.0,grid,,"Sister Martha",faithbased,community_hospital,,more_than_16,0,0,0,0,,,4,delivered
,0.0,0.0,-14.378574,34.17504,HIDDEN,"GROUP_REGION_CENTRAL_WEST",GROUP_ADMIN,GROUP_REGION_CENTRAL,H157,"0121dbb4-f425-4013-bf70-c484bbc55dce",17932,"F.S DROBENI",,,27.0,none,,"Mphunzi Health",faithbased,community_hospital,,none,0,0,0,0,,,4,delivered
,0.0,0.0,-14.372552,33.905872,HIDDEN,"GROUP_REGION_CENTRAL_WEST",GROUP_ADMIN,GROUP_REGION_CENTRAL,H131,"0121dbb4-f425-4013-bf70-c484bbc55dce",32994,"HARDWEL KABAMBE",,,84.0,none,,"Matumba Health Centre",faithbased,community_hospital,,none,0,0,0,0,,,4,delivered
,0.0,0.0,-14.370904,35.600883,HIDDEN,GROUP_REGION_SOUTH_EAST,GROUP_ADMIN,GROUP_REGION_SOUTH,H528,"ba8d1078-9b32-41f4-a62a-f7b56ea3465e",11738,"ANDREW GWALE",,,52.0,grid,,Chiponde,public,health_center,,more_than_16,0,0,0,0,,,4,delivered
,0.0,0.0,-14.369962,35.19059,HIDDEN,GROUP_REGION_SOUTH_EAST,GROUP_ADMIN,GROUP_REGION_SOUTH,H550,"ba8d1078-9b32-41f4-a62a-f7b56ea3465e",12585,"MPHATSO THOMAS CHABWERA",,,15.0,none,,"Namiyasi Health Centre",public,dispensary,,none,0,0,0,0,,,4,delivered
,0.0,0.0,-14.362755,34.823223,HIDDEN,GROUP_REGION_SOUTH_EAST,GROUP_ADMIN,GROUP_REGION_SOUTH,H558,"ba8d1078-9b32-41f4-a62a-f7b56ea3465e",25233,"I MAUNDE",,,85.0,none,,"Nankumba Health Centre",public,community_hospital,,none,0,0,0,0,,,4,delivered
,0.0,0.0,-14.360989,35.50158,HIDDEN,GROUP_REGION_SOUTH_EAST,GROUP_ADMIN,GROUP_REGION_SOUTH,H531,"ba8d1078-9b32-41f4-a62a-f7b56ea3465e",15977,"JOHN MKOMBE",,,45.0,grid,,Namwera,public,community_hospital,,more_than_16,0,0,0,0,,,4,delivered
,0.0,0.0,-14.360268,35.441742,HIDDEN,GROUP_REGION_SOUTH_EAST,GROUP_ADMIN,GROUP_REGION_SOUTH,H532,"ba8d1078-9b32-41f4-a62a-f7b56ea3465e",25504,"ESMEY WHITE",,,31.0,grid,,Jalasi,public,community_hospital,,more_than_16,0,0,0,0,,,4,delivered
,0.0,0.0,-14.358031,34.42453,HIDDEN,"GROUP_REGION_CENTRAL_WEST",GROUP_ADMIN,GROUP_REGION_CENTRAL,H143,"0121dbb4-f425-4013-bf70-c484bbc55dce",26172,"ZENASI PHILIP",,,17.0,grid,,"Bembeke Health Centre",faithbased,community_hospital,,more_than_16,0,0,0,0,,,4,delivered
,0.0,0.0,-14.351602,33.710342,HIDDEN,"GROUP_REGION_CENTRAL_WEST",GROUP_ADMIN,GROUP_REGION_CENTRAL,H202,"c5c5013a-3b9b-4f1a-972e-acec81185ede",13000,"JACKSON MSONTHE",,,10.0,none,,"Kambanizinthe Health Post",public,dispensary,,none,0,0,0,0,,,4,collected
,0.0,0.0,-14.345032,35.293747,HIDDEN,GROUP_REGION_SOUTH_EAST,GROUP_ADMIN,GROUP_REGION_SOUTH,H518,"ba8d1078-9b32-41f4-a62a-f7b56ea3465e",30829,"MAMBO AMIN",,,21.0,grid,,"St Martin",faithbased,rural_hospital,,more_than_16,0,0,0,0,,,4,delivered
,0.0,0.0,-14.342256,34.719383,HIDDEN,"GROUP_REGION_CENTRAL_WEST",GROUP_ADMIN,GROUP_REGION_CENTRAL,H258,"199ea9f3-1532-4ac6-8529-9849807f3a0a",3351,"JOHN HAWA",,,130.0,none,,"Phanga Health Centre",public,community_hospital,,none,0,0,0,0,,,4,delivered
,0.0,0.0,-14.330606,35.142517,HIDDEN,GROUP_REGION_SOUTH_EAST,GROUP_ADMIN,GROUP_REGION_SOUTH,H556,"ba8d1078-9b32-41f4-a62a-f7b56ea3465e",39442,"RHODA KANDU",,,20.0,grid,,"Koche Health Centre",faithbased,community_hospital,,more_than_16,0,0,0,0,,,4,delivered
,0.0,0.0,-14.32209,34.09401,HIDDEN,"GROUP_REGION_CENTRAL_WEST",GROUP_ADMIN,GROUP_REGION_CENTRAL,H158,"0121dbb4-f425-4013-bf70-c484bbc55dce",59536,"FLETCHER TEMBO",,,31.0,grid,,"Mtendere Health Centre",faithbased,hospital,,more_than_16,0,0,0,0,,,2,delivered
,0.0,0.0,-14.319966,34.266724,HIDDEN,"GROUP_REGION_CENTRAL_WEST",GROUP_ADMIN,GROUP_REGION_CENTRAL,H155,"0121dbb4-f425-4013-bf70-c484bbc55dce",20534,"S .K NJAZI",,,12.0,none,,Chingoni,public,community_hospital,,none,0,0,0,0,,,4,delivered
,0.0,0.0,-14.3163395,35.55443,HIDDEN,GROUP_REGION_SOUTH_EAST,GROUP_ADMIN,GROUP_REGION_SOUTH,H539,"ba8d1078-9b32-41f4-a62a-f7b56ea3465e",11448,"M. KUNGOMO /ROSE NASAMBO",,,47.0,none,,"Chiumbangame Health Centre",public,health_center,,none,0,0,0,0,,,4,delivered
,0.0,0.0,-14.313892,33.95289,HIDDEN,"GROUP_REGION_CENTRAL_WEST",GROUP_ADMIN,GROUP_REGION_CENTRAL,H134,"0121dbb4-f425-4013-bf70-c484bbc55dce",25841,"TELEZA C. PHIRI",,,81.0,none,,"Kanyezi Health Centre",public,community_hospital,,none,0,0,0,0,,,4,delivered
,0.0,0.0,-14.304328,35.396248,HIDDEN,GROUP_REGION_SOUTH_EAST,GROUP_ADMIN,GROUP_REGION_SOUTH,H533,"ba8d1078-9b32-41f4-a62a-f7b56ea3465e",19338,"JOHN BOUL MATOPE",,,31.0,none,,Iba,public,health_center,,none,0,0,0,0,,,4,delivered
,0.0,0.0,-14.293474,34.62861,HIDDEN,"GROUP_REGION_CENTRAL_WEST",GROUP_ADMIN,GROUP_REGION_CENTRAL,H140,"0121dbb4-f425-4013-bf70-c484bbc55dce",19678,"CHARLSE NTAPANDULA",,,76.0,none,,"Kaundu Healthcentre",faithbased,community_hospital,,none,0,0,0,0,,,4,delivered
,0.0,0.0,-14.283354,34.51023,HIDDEN,"GROUP_REGION_CENTRAL_WEST",GROUP_ADMIN,GROUP_REGION_CENTRAL,H139,"0121dbb4-f425-4013-bf70-c484bbc55dce",19417,"PHILIMON MAGAWA",,,71.0,grid,,"Mua Health Centre",faithbased,hospital,,more_than_16,0,0,0,0,,,4,delivered
,0.0,0.0,-14.280929,33.907074,HIDDEN,"GROUP_REGION_CENTRAL_WEST",GROUP_ADMIN,GROUP_REGION_CENTRAL,H197,"c5c5013a-3b9b-4f1a-972e-acec81185ede",19835,"FS MASINA",,,21.0,none,,"Kachale Health Centre",public,community_hospital,,none,0,0,0,0,,,4,collected
,0.0,0.0,-14.263737,33.658077,HIDDEN,"GROUP_REGION_CENTRAL_WEST",GROUP_ADMIN,GROUP_REGION_CENTRAL,H204,"c5c5013a-3b9b-4f1a-972e-acec81185ede",40000,"REK MTSOTSOLO",,,17.0,grid,,"Dickson Health Centre",public,community_hospital,,fewer_than_4,0,0,0,0,,,4,collected
,0.0,0.0,-14.260208,33.872917,HIDDEN,"GROUP_REGION_CENTRAL_WEST",GROUP_ADMIN,GROUP_REGION_CENTRAL,H196,"c5c5013a-3b9b-4f1a-972e-acec81185ede",22039,"CATHERINE MWAIPINGA",,,19.0,none,,"Maluwa Health Centre",public,community_hospital,,none,0,0,0,0,,,4,collected
,0.0,0.0,-14.245705,33.773727,HIDDEN,"GROUP_REGION_CENTRAL_WEST",GROUP_ADMIN,GROUP_REGION_CENTRAL,H201,"c5c5013a-3b9b-4f1a-972e-acec81185ede",112399,"JOHN K. KAMPULAZI",,,36.0,grid,,"Mitundu Rural Hospital",public,district_hospital,,more_than_16,0,0,0,0,,,4,collected
,0.0,0.0,-14.242022,35.266136,HIDDEN,GROUP_REGION_SOUTH_EAST,GROUP_ADMIN,GROUP_REGION_SOUTH,H517,"ba8d1078-9b32-41f4-a62a-f7b56ea3465e",33449,"WELLINGTON MKWEZA",,,39.0,none,,Lungwena,public,community_hospital,,none,0,0,0,0,,,4,delivered
,0.0,0.0,-14.23961,34.323624,HIDDEN,"GROUP_REGION_CENTRAL_WEST",GROUP_ADMIN,GROUP_REGION_CENTRAL,H154,"0121dbb4-f425-4013-bf70-c484bbc55dce",2561,"J. U JUMA",,,26.0,none,,"Kanyama Health Centre",faithbased,community_hospital,,none,0,0,0,0,,,4,delivered
,0.0,0.0,-14.235477,35.46858,HIDDEN,GROUP_REGION_SOUTH_EAST,GROUP_ADMIN,GROUP_REGION_SOUTH,H538,"ba8d1078-9b32-41f4-a62a-f7b56ea3465e",19417,"NEVER M. KASAMBALA",,,70.0,none,,"Luwalika Health Centre",faithbased,community_hospital,,none,0,0,0,0,,,4,delivered
