_conflict_type,_default_access,_form_id,_group_modify,_group_privileged,_group_read_only,_id,_locale,_row_etag,_row_owner,_savepoint_creator,_savepoint_timestamp,_savepoint_type,_sync_state,Location_accuracy,Location_altitude,Location_latitude,Location_longitude,admin_region,climate_zone,contact_name,delivery_type,distance_to_supply,electricity_source,facility_coverage,facility_id,facility_name,facility_ownership,facility_population,facility_type,gas_availability,grid_power_availability,kerosene_availability,regionLevel1,regionLevel2,solar_suitable_climate,solar_suitable_site,storage_type,vaccine_reserve_stock_requirement,vaccine_supply_interval,vaccine_supply_mode
,HIDDEN,,GROUP_REGION_NORTH,GROUP_ADMIN,GROUP_REGION_NORTH,H389,default,uuid:62b836c3-088b-411a-a61e-a056e0babacc,,anonymous,2016-07-11T16:01:59.047000000,COMPLETE,synced,,,-12.59386211,33.60975804,Mzimba South,temperate,IAN NGULUWE,both,150.0,none,100.0,1013-0017,Emfeni,public,28812.0,community_hospital,irregular,none,not_available,North,North,yes,yes,delivery,1.0,4.0,delivered
,HIDDEN,,GROUP_REGION_NORTH,GROUP_ADMIN,GROUP_REGION_NORTH,H388,default,uuid:563cb683-5ff6-4f9b-aba5-2bf27fb5ce7e,,anonymous,2016-07-11T16:01:59.044000000,COMPLETE,synced,,,-12.234238,33.48630358,Mzimba South,temperate,ALFRED MSETEKA,both,50.0,none,100.0,1013-0016,Vibangalala,public,12234.0,community_hospital,irregular,none,not_available,North,North,yes,yes,delivery,1.0,4.0,both
,HIDDEN,,GROUP_REGION_NORTH,GROUP_ADMIN,GROUP_REGION_NORTH,H387,default,uuid:a82b7588-01c5-4d6a-8b86-c22ae3284fbe,,anonymous,2016-07-11T16:01:59.042000000,COMPLETE,synced,,,-12.35951667,33.73998672,Mzimba South,temperate,MOSES SHABA,both,80.0,none,100.0,1013-0015,Msese,public,7212.0,community_hospital,irregular,none,not_available,North,North,yes,yes,delivery,1.0,4.0,delivered
,HIDDEN,,GROUP_REGION_NORTH,GROUP_ADMIN,GROUP_REGION_NORTH,H386,default,uuid:c3f3fe3e-27d5-4fc9-b4a6-426fb5862a37,,anonymous,2016-07-11T16:01:59.040000000,COMPLETE,synced,,,-12.44028278,33.79144381,Mzimba South,temperate,TEMBO,both,98.0,none,100.0,1013-0014,Khosolo,public,18240.0,community_hospital,available,none,not_available,North,North,yes,yes,delivery,1.0,8.0,delivered
,HIDDEN,,GROUP_REGION_NORTH,GROUP_ADMIN,GROUP_REGION_NORTH,H385,default,uuid:52850183-4b3a-4330-acf1-d1168267c1cb,,anonymous,2016-07-11T16:01:59.035000000,COMPLETE,synced,,,-11.49722598,33.54886286,Mzimba South,temperate,NYIRENDA,both,57.0,none,100.0,1013-0013,Mtende,public,16591.0,community_hospital,irregular,none,not_available,North,North,yes,yes,delivery,1.0,8.0,both
,HIDDEN,,GROUP_REGION_NORTH,GROUP_ADMIN,GROUP_REGION_NORTH,H384,default,uuid:a605ba76-fc96-4ab0-b872-7621d84b1e62,,anonymous,2016-07-11T16:01:59.033000000,COMPLETE,synced,,,-11.79800733,33.70697239,Mzimba South,temperate,DAVIS H.M. KAMANGA,both,45.0,none,100.0,1013-0012,Mathandani,public,12226.0,dispensary,irregular,none,not_available,North,North,yes,yes,delivery,1.0,8.0,delivered
,HIDDEN,,GROUP_REGION_NORTH,GROUP_ADMIN,GROUP_REGION_NORTH,H383,default,uuid:4615fc8b-96af-4433-b9fb-a516b7ea5c12,,anonymous,2016-07-11T16:01:59.031000000,COMPLETE,synced,,,-12.48822646,33.64112967,Mzimba South,temperate,LONELY J. SOKO,both,125.0,none,100.0,1013-0011,Luwerezi,public,24989.0,community_hospital,irregular,none,not_available,North,North,yes,yes,delivery,1.0,8.0,both
,HIDDEN,,GROUP_REGION_NORTH,GROUP_ADMIN,GROUP_REGION_NORTH,H382,default,uuid:cb5535aa-5384-412f-8472-7d514aef0aa7,,anonymous,2016-07-11T16:01:59.029000000,COMPLETE,synced,,,-12.20402645,33.3337651,Mzimba South,temperate,M.P.H. CHIMA,both,110.0,grid,100.0,1013-0010,Kalikumbi,faithbased,13744.0,community_hospital,not_available,more_than_16,not_available,North,North,yes,yes,delivery,1.0,8.0,both
,HIDDEN,,GROUP_REGION_NORTH,GROUP_ADMIN,GROUP_REGION_NORTH,H381,default,uuid:8df25fce-1228-4e71-bd26-539c5d994db6,,anonymous,2016-07-11T16:01:59.027000000,COMPLETE,synced,,,-11.3576476,33.37118252,Mzimba South,temperate,GEORGE BOTA,both,105.0,grid,100.0,1013-0009,Mbarachanda,public,15245.0,community_hospital,not_available,more_than_16,not_available,North,North,yes,yes,delivery,1.0,4.0,delivered
,HIDDEN,,GROUP_REGION_NORTH,GROUP_ADMIN,GROUP_REGION_NORTH,H380,default,uuid:7e5e4b82-c60a-42ac-a0ff-0dfac0014a14,,anonymous,2016-07-11T16:01:59.025000000,COMPLETE,synced,,,-12.2463865,33.42978054,Mzimba South,temperate,IAN.D.S MHANGO.,both,68.0,none,100.0,1013-0008,Mabiri,faithbased,19363.0,community_hospital,not_available,none,not_available,North,North,no,yes,delivery,1.0,4.0,both
,HIDDEN,,GROUP_REGION_SOUTH_WEST,GROUP_ADMIN,GROUP_REGION_SOUTH,H779,default,uuid:07911030-5c0a-4e13-9a42-9a907bf6e8d6,,anonymous,2016-07-11T16:01:59.044000000,COMPLETE,synced,,,-16.48874605,35.15913115,Nsanje,temperate,BOSTON NYAKAMERA,both,13.0,none,100.0,1027-0020,Mchacha Health Centre,public,6168.0,dispensary,not_available,none,available,South,South West,yes,yes,delivery,1.0,4.0,collected
,HIDDEN,,GROUP_REGION_SOUTH_WEST,GROUP_ADMIN,GROUP_REGION_SOUTH,H778,default,uuid:4307e1e5-8fc1-4022-8f54-5b48973a85ec,,anonymous,2016-07-11T16:01:59.042000000,COMPLETE,synced,,,-16.45414808,35.25811723,Nsanje,temperate,FANUWEL CHANGWA,both,16.0,none,100.0,1027-0019,Sankhulani Health Health Centre,public,6282.0,community_hospital,not_available,none,available,South,South West,yes,yes,delivery,1.0,4.0,collected
,HIDDEN,,GROUP_REGION_SOUTH_WEST,GROUP_ADMIN,GROUP_REGION_SOUTH,H776,default,uuid:f20e6b79-7744-468e-90b0-84af27a74587,,anonymous,2016-07-11T16:01:59.035000000,COMPLETE,synced,,,-16.6919109,34.96642285,Nsanje,temperate,HOREACE CHIMWANZA,both,71.0,none,100.0,1027-0017,Kanyimbi,public,4144.0,dispensary,not_available,none,available,South,South West,yes,yes,delivery,1.0,4.0,both
,HIDDEN,,GROUP_REGION_SOUTH_WEST,GROUP_ADMIN,GROUP_REGION_SOUTH,H777,default,uuid:addcd2ed-04c3-4e37-b6e2-5dd1c80e76c7,,anonymous,2016-07-11T16:01:59.040000000,COMPLETE,synced,,,-16.51904244,35.172729,Nsanje,temperate,DAVID JEKE,both,15.0,grid,100.0,1027-0018,Makhanga,public,14165.0,community_hospital,irregular,more_than_16,not_available,South,South West,no,yes,delivery,1.0,4.0,collected
,HIDDEN,,GROUP_REGION_SOUTH_WEST,GROUP_ADMIN,GROUP_REGION_SOUTH,H774,default,uuid:76e9d6bf-c155-4718-af43-b2bba9cca7b9,,anonymous,2016-07-11T16:01:59.031000000,COMPLETE,synced,,,-16.54012701,35.01076857,Nsanje,temperate,CAROL CHIGWALE,both,69.0,grid,100.0,1027-0015,Sorgin Health Centre,public,14236.0,community_hospital,not_available,more_than_16,not_available,South,South West,yes,yes,delivery,1.0,4.0,both
,HIDDEN,,GROUP_REGION_SOUTH_WEST,GROUP_ADMIN,GROUP_REGION_SOUTH,H775,default,uuid:c73f4422-87ce-41ab-b1d6-089fcb3618a6,,anonymous,2016-07-11T16:01:59.033000000,COMPLETE,synced,,,-16.75990586,35.04674866,Nsanje,temperate,DEVIS MOSES MTHYOLA,both,79.0,none,100.0,1027-0016,Mitsamvu Health Centre,public,4114.0,dispensary,available,none,not_available,South,South West,yes,yes,delivery,1.0,4.0,both
,HIDDEN,,GROUP_REGION_SOUTH_WEST,GROUP_ADMIN,GROUP_REGION_SOUTH,H772,default,uuid:8fe6a2f3-21ec-49c7-b48f-8766e8745903,,anonymous,2016-07-11T16:01:59.027000000,COMPLETE,synced,,,-16.62592519,35.15575899,Nsanje,temperate,JOSEPHY LUMBE,both,35.0,grid,100.0,1027-0013,Phokera Health Centre,public,9366.0,community_hospital,not_available,more_than_16,not_available,South,South West,yes,yes,delivery,1.0,4.0,both
,HIDDEN,,GROUP_REGION_SOUTH_WEST,GROUP_ADMIN,GROUP_REGION_SOUTH,H773,default,uuid:add8a335-6949-4ab9-8e5e-7a55c856cbf8,,anonymous,2016-07-11T16:01:59.029000000,COMPLETE,synced,,,-16.57303935,35.11057645,Nsanje,temperate,AZANI BASIKOLO,both,48.0,grid,10.0,1027-0014,Kalemba Community Hospital,faithbased,23304.0,hospital,not_available,more_than_16,not_available,South,South West,yes,yes,delivery,1.0,4.0,both
,HIDDEN,,GROUP_REGION_SOUTH_WEST,GROUP_ADMIN,GROUP_REGION_SOUTH,H770,default,uuid:932a332e-5cf2-40ce-9bb5-913e2c878a2e,,anonymous,2016-07-11T16:01:59.023000000,COMPLETE,synced,,,-16.73003648,35.26971316,Nsanje,temperate,TELEZA BISENTI,both,22.0,grid,100.0,1027-0011,Tengani Health Centre,public,24027.0,community_hospital,not_available,more_than_16,not_available,South,South West,yes,yes,delivery,3.0,12.0,both
,HIDDEN,,GROUP_REGION_SOUTH_WEST,GROUP_ADMIN,GROUP_REGION_SOUTH,H771,default,uuid:50b561f9-2b16-497c-82e6-5587b31ccb4a,,anonymous,2016-07-11T16:01:59.025000000,COMPLETE,synced,,,-16.67971118,35.19749995,Nsanje,temperate,PETER AMOSI,both,25.0,grid,100.0,1027-0012,Nyamithuthu Health Centre,public,8403.0,community_hospital,not_available,more_than_16,not_available,South,South West,yes,yes,delivery,1.0,4.0,both
,HIDDEN,,GROUP_REGION_NORTH,GROUP_ADMIN,GROUP_REGION_NORTH,H379,default,uuid:582cc2ff-c9ee-403d-b85f-2d4ebe385821,,anonymous,2016-07-11T16:01:59.023000000,COMPLETE,synced,,,-11.94013633,33.43941245,Mzimba South,temperate,F.N. CHIPINGA,both,21.0,none,100.0,1013-0007,Manyamula,public,24852.0,community_hospital,irregular,none,not_available,North,North,yes,yes,delivery,1.0,8.0,both
,HIDDEN,,GROUP_REGION_NORTH,GROUP_ADMIN,GROUP_REGION_NORTH,H378,default,uuid:6c87b811-dfae-4696-89cd-f0a35238a744,,anonymous,2016-07-11T16:01:59.022000000,COMPLETE,synced,,,-12.34626536,33.61424718,Mzimba South,temperate,MRS NYIRENDA,both,73.0,grid,100.0,1013-0006,Katete,faithbased,15880.0,community_hospital,irregular,more_than_16,not_available,North,North,yes,yes,delivery,1.0,4.0,both
,HIDDEN,,GROUP_REGION_NORTH,GROUP_ADMIN,GROUP_REGION_NORTH,H375,default,uuid:47b45f2b-b04e-436e-bf35-b6d2ba022911,,anonymous,2016-07-11T16:01:59.016000000,COMPLETE,synced,,,-11.53908592,33.29454065,Mzimba South,temperate,CAPSON MUNTHALI,both,82.0,none,100.0,1013-0003,Madede,public,13548.0,community_hospital,irregular,none,not_available,North,North,yes,yes,delivery,1.0,4.0,both
,HIDDEN,,GROUP_REGION_NORTH,GROUP_ADMIN,GROUP_REGION_NORTH,H374,default,uuid:40f94903-2c22-4f5e-9e4f-4a17e6bbd6c0,,anonymous,2016-07-11T16:01:59.051000000,COMPLETE,synced,,,-11.6122792,33.56524942,Mzimba South,temperate,A.S. MANDA,both,8.0,none,100.0,1013-0002,Mzalangwe,public,14029.0,community_hospital,irregular,none,not_available,North,North,yes,yes,delivery,1.0,4.0,delivered
,HIDDEN,,GROUP_REGION_NORTH,GROUP_ADMIN,GROUP_REGION_NORTH,H377,default,uuid:0fe618cd-f720-44ec-ab88-a5d2c59eb016,,anonymous,2016-07-11T16:01:59.019000000,COMPLETE,synced,,,-12.27791136,33.68668416,Mzimba South,temperate,G.I. PHIRI,both,54.0,none,100.0,1013-0005,Hoho,public,10438.0,community_hospital,irregular,none,not_available,North,North,yes,yes,delivery,1.0,8.0,delivered
,HIDDEN,,GROUP_REGION_NORTH,GROUP_ADMIN,GROUP_REGION_NORTH,H376,default,uuid:8a89c4c9-0ca8-4621-9d73-2d63d40a7708,,anonymous,2016-07-11T16:01:59.017000000,COMPLETE,synced,,,-11.67833868,33.44799641,Mzimba South,temperate,B. MAKAMO,both,47.0,none,100.0,1013-0004,Bulala,public,34398.0,community_hospital,irregular,none,not_available,North,North,no,yes,delivery,1.0,4.0,both
,HIDDEN,,GROUP_REGION_NORTH,GROUP_ADMIN,GROUP_REGION_NORTH,H371,default,uuid:a142b4df-0dd3-422d-852f-6463d3a0e64e,,anonymous,2016-07-11T16:01:59.044000000,COMPLETE,synced,,,-11.46275854,34.02395332,Mzimba North,temperate,S A KHUNGA,none,0.1,grid,100.0,1012-0034,Mzimba North Dho Vaccine Store,public,396269.0,regional_vaccine_store,irregular,more_than_16,unknown,North,North,yes,yes,depot,1.0,4.0,collected
,HIDDEN,,GROUP_REGION_NORTH,GROUP_ADMIN,GROUP_REGION_NORTH,H370,default,uuid:2496698f-f58d-443c-b9da-a42dda7db48b,,anonymous,2016-07-11T16:01:59.042000000,COMPLETE,synced,,,-11.45876787,34.01443281,Mzimba North,temperate,CHANCE MSISKA,both,2.5,grid,100.0,1012-0033,Mzuzu Healthy Centre,public,13800.0,community_hospital,unknown,more_than_16,unknown,North,North,yes,yes,delivery,1.0,4.0,collected
,HIDDEN,,GROUP_REGION_NORTH,GROUP_ADMIN,GROUP_REGION_NORTH,H373,default,uuid:245b9d84-957b-422b-a0bd-240e5ac96981,,anonymous,2016-07-11T16:01:59.049000000,COMPLETE,synced,,,-12.04048654,33.31319333,Mzimba South,temperate,D.O. HARA,both,54.0,grid,100.0,1013-0001,Edingeni,public,14082.0,community_hospital,not_available,more_than_16,not_available,North,North,yes,yes,delivery,1.0,8.0,delivered
,HIDDEN,,GROUP_REGION_NORTH,GROUP_ADMIN,GROUP_REGION_NORTH,H372,default,uuid:d9ba6bf9-8c28-4c65-b481-8cb8230485dd,,anonymous,2016-07-11T16:01:59.047000000,COMPLETE,synced,,,-11.75783768,33.55633021,Mzimba South,temperate,ESTERY MKANDAWIRE,both,16.0,none,100.0,1013-0000,Endindeni,public,22012.0,community_hospital,not_available,none,not_available,North,North,yes,yes,delivery,1.0,4.0,both
,HIDDEN,,GROUP_REGION_SOUTH_WEST,GROUP_ADMIN,GROUP_REGION_SOUTH,H789,default,uuid:9cf1d1ee-4f70-4b03-9e8d-b00539e83392,,anonymous,2016-07-11T16:01:59.027000000,COMPLETE,synced,,,-16.10833348,35.24467695,Thyolo,temperate,MERCY DAIMONI,both,16.0,grid,100.0,1028-0006,Mitengo,faithbased,14053.0,community_hospital,not_available,more_than_16,not_available,South,South West,yes,no,delivery,1.0,4.0,delivered
,HIDDEN,,GROUP_REGION_SOUTH_WEST,GROUP_ADMIN,GROUP_REGION_SOUTH,H785,default,uuid:7d59b0bc-3c38-4acf-adf1-c100687fa33a,,anonymous,2016-07-11T16:01:59.019000000,COMPLETE,synced,,,-16.02599656,35.26073635,Thyolo,temperate,JANET NISALA,both,19.0,grid,100.0,1028-0002,Mangunda,public,51389.0,community_hospital,not_available,more_than_16,available,South,South West,no,yes,delivery,1.0,4.0,delivered
,HIDDEN,,GROUP_REGION_SOUTH_WEST,GROUP_ADMIN,GROUP_REGION_SOUTH,H786,default,uuid:db8ca7b1-b198-4c62-9248-3b74e87a8a8c,,anonymous,2016-07-11T16:01:59.022000000,COMPLETE,synced,,,-16.06533414,35.25026718,Thyolo,temperate,JOHN NYEZELELA,both,15.0,grid,100.0,1028-0003,Mafis,private,2298.0,community_hospital,not_available,more_than_16,not_available,South,South West,yes,no,delivery,1.0,4.0,both
,HIDDEN,,GROUP_REGION_SOUTH_WEST,GROUP_ADMIN,GROUP_REGION_SOUTH,H787,default,uuid:ca55cf71-1629-4de4-aea9-a6846f479db0,,anonymous,2016-07-11T16:01:59.023000000,COMPLETE,synced,,,-16.09383747,35.27078197,Thyolo,temperate,RODGERS B BENDULO,both,20.0,grid,100.0,1028-0004,Khonjeni,public,29752.0,community_hospital,not_available,more_than_16,available,South,South West,yes,no,delivery,1.0,4.0,both
,HIDDEN,,GROUP_REGION_SOUTH_WEST,GROUP_ADMIN,GROUP_REGION_SOUTH,H788,default,uuid:9a736970-51bf-4a4b-a237-00f58f96d50b,,anonymous,2016-07-11T16:01:59.025000000,COMPLETE,synced,,,-16.17904207,35.27898952,Thyolo,temperate,CHANCY MBEWE,both,27.0,none,100.0,1028-0005,Makapwa,private,9899.0,community_hospital,not_available,none,available,South,South West,yes,no,delivery,1.0,4.0,both
,HIDDEN,,GROUP_REGION_SOUTH_WEST,GROUP_ADMIN,GROUP_REGION_SOUTH,H781,default,uuid:8ce42d03-15eb-41e6-994a-bc336db63164,,anonymous,2016-07-11T16:01:59.049000000,COMPLETE,synced,,,-16.41698726,35.15179419,Nsanje,temperate,SYDAY MAKOKA,both,4.0,none,100.0,1027-0022,Mulolo Health Centre,public,7909.0,dispensary,not_available,none,available,South,South West,yes,yes,delivery,1.0,4.0,collected
,HIDDEN,,GROUP_REGION_SOUTH_WEST,GROUP_ADMIN,GROUP_REGION_SOUTH,H782,default,uuid:b1df403e-a22f-4b47-93a9-d719bb4faea1,,anonymous,2016-07-11T16:01:59.051000000,COMPLETE,synced,,,-16.3346029,35.09587224,Nsanje,temperate,STANLEY RANK,both,20.0,none,100.0,1027-0023,Masenjere Health Centre,public,14789.0,community_hospital,not_available,none,available,South,South West,yes,yes,delivery,1.0,4.0,collected
,HIDDEN,,GROUP_REGION_SOUTH_WEST,GROUP_ADMIN,GROUP_REGION_SOUTH,H783,default,uuid:8ee3d101-1a6a-4405-8a04-a195ba78a090,,anonymous,2016-07-11T16:01:59.016000000,COMPLETE,synced,,,-16.06538631,35.14668341,Thyolo,temperate,PJ NKHANU,none,35.0,grid,100.0,1028-0000,Thyolo District Hospital Vaccine Store,public,632624.0,regional_vaccine_store,not_available,more_than_16,not_available,South,South West,yes,no,depot,1.0,4.0,collected
,HIDDEN,,GROUP_REGION_SOUTH_WEST,GROUP_ADMIN,GROUP_REGION_SOUTH,H784,default,uuid:8f99603d-810f-4c5e-8c06-c5239bdc8674,,anonymous,2016-07-11T16:01:59.017000000,COMPLETE,synced,,,-16.05821451,35.77096061,Thyolo,temperate,PJ NKHANU,both,0.0,grid,10.0,1028-0001,Thyolo Dho,public,70000.0,central_hospital,not_available,more_than_16,not_available,South,South West,yes,no,delivery,1.0,4.0,both
,HIDDEN,,GROUP_REGION_SOUTH_WEST,GROUP_ADMIN,GROUP_REGION_SOUTH,H780,default,uuid:1a864f3e-e941-4933-8305-8d1bbeeaf557,,anonymous,2016-07-11T16:01:59.047000000,COMPLETE,synced,,,-16.41641273,35.17074296,Nsanje,temperate,ANNA BANDE,both,100.0,grid,10.0,1027-0021,Trinity Mission Hospital,faithbased,19797.0,rural_hospital,not_available,more_than_16,not_available,South,South West,yes,yes,delivery,1.0,4.0,collected
,HIDDEN,,GROUP_REGION_SOUTH_WEST,GROUP_ADMIN,GROUP_REGION_SOUTH,H794,default,uuid:0887b40a-51bd-4e7b-a3c1-857d28ef189d,,anonymous,2016-07-11T16:01:59.040000000,COMPLETE,synced,,,-15.93907828,35.20827213,Thyolo,temperate,PW TAIBU,static,18.0,grid,10.0,1028-0011,Chitsoka,public,19172.0,district_hospital,not_available,more_than_16,not_available,South,South West,no,yes,delivery,1.0,4.0,delivered
,HIDDEN,,GROUP_REGION_SOUTH_WEST,GROUP_ADMIN,GROUP_REGION_SOUTH,H795,default,uuid:0f20cb3e-505b-4a4e-9a5d-138766b9e36f,,anonymous,2016-07-11T16:01:59.042000000,COMPLETE,synced,,,-15.97438547,35.18086473,Thyolo,temperate,PAUL GUDU,both,15.0,none,100.0,1028-0012,Chimaliro,public,42021.0,community_hospital,not_available,none,available,South,South West,no,yes,delivery,1.0,4.0,both
,HIDDEN,,GROUP_REGION_SOUTH_WEST,GROUP_ADMIN,GROUP_REGION_SOUTH,H792,default,uuid:2df26531-ab1f-4e88-9cd4-e2515a4cc65e,,anonymous,2016-07-11T16:01:59.033000000,COMPLETE,synced,,,-15.89886923,35.18293363,Thyolo,temperate,WEKHA NKOLOKOSA,both,18.0,grid,100.0,1028-0009,Mikolongwe,public,26097.0,community_hospital,not_available,more_than_16,available,South,South West,no,yes,delivery,1.0,4.0,collected
,HIDDEN,,GROUP_REGION_SOUTH_WEST,GROUP_ADMIN,GROUP_REGION_SOUTH,H793,default,uuid:505317c8-62fa-4c37-b01d-13596b6633b7,,anonymous,2016-07-11T16:01:59.035000000,COMPLETE,synced,,,-15.9156277,35.2052707,Thyolo,temperate,RICHARD MALATA,both,20.0,grid,10.0,1028-0010,Chingazi,faithbased,8161.0,hospital,not_available,more_than_16,available,South,South West,no,yes,delivery,1.0,4.0,collected
,HIDDEN,,GROUP_REGION_SOUTH_WEST,GROUP_ADMIN,GROUP_REGION_SOUTH,H798,default,uuid:89a6c5de-9a2b-4818-beff-09ff2bd95878,,anonymous,2016-07-11T16:01:59.049000000,COMPLETE,synced,,,-15.99455739,35.11517567,Thyolo,temperate,RABECCA KAIRA,static,8.0,grid,100.0,1028-0015,Mindali,private,1512.0,community_hospital,not_available,more_than_16,not_available,South,South West,yes,no,delivery,1.0,4.0,collected
,HIDDEN,,GROUP_REGION_SOUTH_WEST,GROUP_ADMIN,GROUP_REGION_SOUTH,H796,default,uuid:1d8cfdba-780e-43fa-b581-4f35a4bff8c0,,anonymous,2016-07-11T16:01:59.044000000,COMPLETE,synced,,,-16.07431917,35.07554551,Thyolo,temperate,ELLEN C GAMA,static,6.0,grid,100.0,1028-0013,Satemwa,private,7860.0,community_hospital,not_available,more_than_16,not_available,South,South West,yes,no,delivery,1.0,4.0,both
,HIDDEN,,GROUP_REGION_SOUTH_WEST,GROUP_ADMIN,GROUP_REGION_SOUTH,H797,default,uuid:84d56908-a709-413e-a1b5-267b3a2cdeb6,,anonymous,2016-07-11T16:01:59.047000000,COMPLETE,synced,,,-16.03733091,35.08926072,Thyolo,temperate,JOHN NYEZERERA,both,5.0,grid,100.0,1028-0014,Namingomba,private,6000.0,community_hospital,not_available,more_than_16,not_available,South,South West,yes,no,delivery,1.0,4.0,collected
,HIDDEN,,GROUP_REGION_SOUTH_WEST,GROUP_ADMIN,GROUP_REGION_SOUTH,H790,default,uuid:442dad71-cb97-4087-8988-40bf73b67e8e,,anonymous,2016-07-11T16:01:59.029000000,COMPLETE,synced,,,-15.92566592,35.07686821,Thyolo,temperate,JONATHAN BENESI,both,15.0,grid,100.0,1028-0007,Bvumbwe,public,53836.0,community_hospital,not_available,more_than_16,not_available,South,South West,yes,no,delivery,1.0,4.0,both
,HIDDEN,,GROUP_REGION_SOUTH_WEST,GROUP_ADMIN,GROUP_REGION_SOUTH,H791,default,uuid:89c25dc8-3602-4b78-a181-419c41d991fc,,anonymous,2016-07-11T16:01:59.031000000,COMPLETE,synced,,,-15.93920924,35.12239192,Thyolo,temperate,SAMUEL R KAMBONA,both,15.0,grid,100.0,1028-0008,Chimvu,public,17037.0,community_hospital,not_available,more_than_16,available,South,South West,no,yes,delivery,1.0,4.0,collected
,HIDDEN,,GROUP_REGION_NORTH,GROUP_ADMIN,GROUP_REGION_NORTH,H397,default,uuid:23e63537-b8b9-4e74-9c1b-983ff0e696e8,,anonymous,2016-07-11T16:01:59.025000000,COMPLETE,synced,,,-12.11335137,33.71942532,Mzimba South,temperate,LUKY KALIMBIRA,both,36.0,none,100.0,1013-0025,Luwawa,public,5110.0,community_hospital,irregular,none,not_available,North,North,yes,yes,delivery,1.0,8.0,delivered
,HIDDEN,,GROUP_REGION_NORTH,GROUP_ADMIN,GROUP_REGION_NORTH,H396,default,uuid:985e727a-1345-4643-8f60-a1b3242ff32b,,anonymous,2016-07-11T16:01:59.023000000,COMPLETE,synced,,,-11.8433073,33.80057047,Mzimba South,temperate,N.T. MAFULEKA,both,40.0,grid,100.0,1013-0024,Chikangawa,public,9114.0,community_hospital,irregular,more_than_16,not_available,North,North,yes,yes,delivery,1.0,8.0,both
,HIDDEN,,GROUP_REGION_NORTH,GROUP_ADMIN,GROUP_REGION_NORTH,H399,default,uuid:191d2944-aa7f-40f7-90c6-e2181d71217b,,anonymous,2016-07-11T16:01:59.029000000,COMPLETE,synced,,,-11.71426764,33.68563559,Mzimba South,temperate,BENJAMIN SANDY KAPONDA,both,50.0,none,100.0,1013-0027,Lunjika,faithbased,13500.0,community_hospital,irregular,none,not_available,North,North,yes,yes,delivery,1.0,4.0,collected
,HIDDEN,,GROUP_REGION_NORTH,GROUP_ADMIN,GROUP_REGION_NORTH,H398,default,uuid:a3dd03c2-add7-445f-b9a7-1d0098f89dbb,,anonymous,2016-07-11T16:01:59.027000000,COMPLETE,synced,,,-11.91629619,33.75596349,Mzimba South,temperate,LEWIN MBUGHI,both,38.0,grid,100.0,1013-0026,Raiply,private,9696.0,community_hospital,not_available,more_than_16,not_available,North,North,yes,yes,delivery,1.0,4.0,both
,HIDDEN,,GROUP_REGION_NORTH,GROUP_ADMIN,GROUP_REGION_NORTH,H391,default,uuid:1c513296-d5a8-48d3-b612-2eb803029c8b,,anonymous,2016-07-11T16:01:59.051000000,COMPLETE,synced,,,-12.20129145,33.66897458,Mzimba South,temperate,M.MAFFENI,both,31.0,none,100.0,1013-0019,Luviri,public,9846.0,dispensary,irregular,none,not_available,North,North,yes,yes,delivery,1.0,8.0,both
,HIDDEN,,GROUP_REGION_NORTH,GROUP_ADMIN,GROUP_REGION_NORTH,H390,default,uuid:91e2a369-501e-4e85-ac4c-78ea17b8b8cd,,anonymous,2016-07-11T16:01:59.049000000,COMPLETE,synced,,,-12.6122471,33.78266043,Mzimba South,temperate,MACLEAN KAMATA,both,153.0,none,100.0,1013-0018,Mkoma,public,31000.0,community_hospital,not_available,none,not_available,North,North,no,yes,delivery,1.0,8.0,both
,HIDDEN,,GROUP_REGION_NORTH,GROUP_ADMIN,GROUP_REGION_NORTH,H392,default,uuid:96b1e6b0-435c-4b3f-8aea-4e39a7e99dfd,,anonymous,2016-07-11T16:01:59.016000000,COMPLETE,synced,,,-12.51716638,34.07397894,Mzimba South,temperate,TROUBLE MAK BANDA,both,345.0,none,100.0,1013-0020,Kabuwa,public,4979.0,community_hospital,not_available,none,not_available,North,North,yes,yes,delivery,1.0,4.0,both
,HIDDEN,,GROUP_REGION_CENTRAL_EAST,GROUP_ADMIN,GROUP_REGION_CENTRAL,H8,default,uuid:24c761c9-d359-4e2d-b949-1d609a730a80,,anonymous,2016-07-11T16:01:59.029000000,COMPLETE,synced,,,-13.40684652,33.6078577,Dowa,temperate,STEVEN KAYENDA,both,58.0,grid,10.0,1000-0007,Madisi,faithbased,41285.0,rural_hospital,not_available,more_than_16,not_available,Central,Central East,yes,yes,delivery,1.0,4.0,delivered
,HIDDEN,,GROUP_REGION_NORTH,GROUP_ADMIN,GROUP_REGION_NORTH,H395,default,uuid:c4d59895-1231-4668-92ce-53b5eb58cf77,,anonymous,2016-07-11T16:01:59.022000000,COMPLETE,synced,,,-12.26213253,33.58925361,Mzimba South,temperate,JONATHAN NYASULU,both,25.0,none,100.0,1013-0023,Ehehleni,public,7195.0,community_hospital,irregular,none,not_available,North,North,yes,yes,delivery,1.0,4.0,delivered
,HIDDEN,,GROUP_REGION_CENTRAL_EAST,GROUP_ADMIN,GROUP_REGION_CENTRAL,H9,default,uuid:6d72f384-2b3d-479d-bc81-b663dc937b25,,anonymous,2016-07-11T16:01:59.031000000,COMPLETE,synced,,,-13.33336383,33.57615929,Dowa,temperate,B.G. KAMUYAMBENI,both,64.0,grid,100.0,1000-0008,Kasese,private,24954.0,community_hospital,not_available,more_than_16,not_available,Central,Central East,yes,yes,delivery,1.0,4.0,delivered
,HIDDEN,,GROUP_REGION_NORTH,GROUP_ADMIN,GROUP_REGION_NORTH,H394,default,uuid:ea8f3153-8bbf-4d1f-becd-03be3bd3e090,,anonymous,2016-07-11T16:01:59.019000000,COMPLETE,synced,,,-11.45830035,33.4197116,Mzimba South,temperate,ABEL NYIRENDA,both,65.0,grid,10.0,1013-0022,Euthini,public,24745.0,district_hospital,irregular,more_than_16,not_available,North,North,yes,yes,delivery,1.0,4.0,delivered
,HIDDEN,,GROUP_REGION_CENTRAL_EAST,GROUP_ADMIN,GROUP_REGION_CENTRAL,H7,default,uuid:e4fde5d3-14c5-4cb5-a5a2-2874f3e19890,,anonymous,2016-07-11T16:01:59.027000000,COMPLETE,synced,,,-13.38532768,33.72097513,Dowa,temperate,A.K. YOHANE,both,15.0,none,100.0,1000-0006,Chinkhwili,public,22828.0,community_hospital,not_available,none,available,Central,Central East,yes,yes,delivery,1.0,4.0,delivered
,HIDDEN,,GROUP_REGION_CENTRAL_EAST,GROUP_ADMIN,GROUP_REGION_CENTRAL,H6,default,uuid:7a98abc2-69b5-466b-b9f9-082160e872f2,,anonymous,2016-07-11T16:01:59.025000000,COMPLETE,synced,,,-13.44421,33.64692594,Dowa,temperate,PETER DZIKAMBANI,both,56.0,grid,100.0,1000-0005,Bowe,public,29113.0,community_hospital,not_available,8_to_16,not_available,Central,Central East,no,yes,delivery,1.0,4.0,delivered
,HIDDEN,,GROUP_REGION_CENTRAL_EAST,GROUP_ADMIN,GROUP_REGION_CENTRAL,H5,default,uuid:5f9cd456-9781-41f3-8173-2af0cc8f1008,,anonymous,2016-07-11T16:01:59.023000000,COMPLETE,synced,,,-13.44421,33.64692594,Dowa,temperate,ALICK KEFASI BANDA,both,59.0,none,100.0,1000-0004,Chakhaza,public,25491.0,community_hospital,not_available,none,unknown,Central,Central East,no,yes,delivery,1.0,4.0,delivered
,HIDDEN,,GROUP_REGION_CENTRAL_EAST,GROUP_ADMIN,GROUP_REGION_CENTRAL,H4,default,uuid:30c98bab-9486-45c2-ab61-3bef653e3fd3,,anonymous,2016-07-11T16:01:59.022000000,COMPLETE,synced,,,-13.51568416,33.83682211,Dowa,temperate,PATRICIA MSUKU,both,14.0,none,100.0,1000-0003,Chibanzi Health Post,public,10301.0,dispensary,not_available,none,unknown,Central,Central East,yes,yes,delivery,1.0,4.0,delivered
,HIDDEN,,GROUP_REGION_CENTRAL_EAST,GROUP_ADMIN,GROUP_REGION_CENTRAL,H3,default,uuid:afe9fd32-0a2f-4895-9106-67dd928fa198,,anonymous,2016-07-11T16:01:59.019000000,COMPLETE,synced,,,-13.55307773,33.89731836,Dowa,temperate,LYFORD CHIPENI,both,17.0,none,100.0,1000-0002,Msakambewa,public,29845.0,community_hospital,not_available,none,available,Central,Central East,yes,yes,delivery,1.0,4.0,delivered
,HIDDEN,,GROUP_REGION_CENTRAL_EAST,GROUP_ADMIN,GROUP_REGION_CENTRAL,H2,default,uuid:6d98625c-2b22-4540-9f99-733809bd6883,,anonymous,2016-07-11T16:01:59.017000000,COMPLETE,synced,,,-13.65531667,33.93647862,Dowa,temperate,MARTIN NYANGULU,none,50.0,grid,100.0,1000-0001,Dowa Dho Vaccine Store,public,641895.0,regional_vaccine_store,not_available,more_than_16,not_available,Central,Central East,no,yes,depot,1.0,4.0,collected
,HIDDEN,,GROUP_REGION_CENTRAL_EAST,GROUP_ADMIN,GROUP_REGION_CENTRAL,H1,default,uuid:b8ba1424-9131-4dfe-ba33-c994f19f2661,,anonymous,2016-07-11T16:01:59.016000000,COMPLETE,synced,,,-13.65531667,33.93647862,Dowa,temperate,M. NYANGULU,static,20.0,grid,10.0,1000-0000,Dowa Hospital,public,46303.0,central_hospital,unknown,more_than_16,unknown,Central,Central East,yes,yes,delivery,1.0,4.0,unknown
,HIDDEN,,GROUP_REGION_SOUTH_EAST,GROUP_ADMIN,GROUP_REGION_SOUTH,H580,default,uuid:70b53d33-8813-469a-94a2-1b2013e42fa3,,anonymous,2016-07-11T16:01:59.017000000,COMPLETE,synced,,,-16.15390597,35.34007544,Mulanje,temperate,KATOWA KAYANGE,both,40.0,none,100.0,1019-0021,Chinyama Health Centre,public,22834.0,community_hospital,not_available,none,available,South,South East,yes,yes,delivery,1.0,4.0,delivered
,HIDDEN,,GROUP_REGION_SOUTH_EAST,GROUP_ADMIN,GROUP_REGION_SOUTH,H581,default,uuid:f2fa84f0-e939-4fcb-a02e-ab82384baf4b,,anonymous,2016-07-11T16:01:59.019000000,COMPLETE,synced,,,-16.11431366,35.40480135,Mulanje,temperate,STEPHEN NAZOMBE,both,38.0,none,100.0,1019-0022,Dzenje Maternity,public,5811.0,health_post,not_available,none,available,South,South East,yes,yes,delivery,1.0,4.0,both
,HIDDEN,,GROUP_REGION_SOUTH_EAST,GROUP_ADMIN,GROUP_REGION_SOUTH,H582,default,uuid:a4394520-45a5-453c-abbc-02c71e7e1cea,,anonymous,2016-07-11T16:01:59.022000000,COMPLETE,synced,,,-16.08467893,35.43315659,Mulanje,temperate,ISHMAEL MATOLA,both,20.0,none,100.0,1019-0023,Thembe Dispensary,faithbased,13675.0,community_hospital,not_available,none,irregular,South,South East,yes,yes,delivery,1.0,8.0,both
,HIDDEN,,GROUP_REGION_SOUTH_EAST,GROUP_ADMIN,GROUP_REGION_SOUTH,H587,default,uuid:9873937a-45bb-4077-8ec2-21620eb9862f,,anonymous,2016-07-11T16:01:59.031000000,COMPLETE,synced,,,-15.80333461,35.64748933,Phalombe,temperate,P M CHIWAYA,none,100.0,grid,100.0,1020-0001,Phalombe Dho Vaccine Store,public,343269.0,regional_vaccine_store,unknown,more_than_16,available,South,South East,yes,yes,depot,1.0,4.0,collected
,HIDDEN,,GROUP_REGION_NORTH,GROUP_ADMIN,GROUP_REGION_NORTH,H309,default,uuid:db1572c0-b8c7-4811-aca3-0e579db965df,,anonymous,2016-07-11T16:01:59.019000000,COMPLETE,synced,,,-9.7780099,33.45299469,Chitipa,temperate,SOCRATES MWENITETE,both,25.0,grid,100.0,1009-0024,Kapoka,public,2793.0,dispensary,available,more_than_16,not_available,North,North,yes,yes,delivery,1.0,4.0,collected
,HIDDEN,,GROUP_REGION_SOUTH_EAST,GROUP_ADMIN,GROUP_REGION_SOUTH,H588,default,uuid:2f0199d7-bda6-461f-b23c-dc92004bfe47,,anonymous,2016-07-11T16:01:59.033000000,COMPLETE,synced,,,-15.82494053,35.61841841,Phalombe,temperate,M CHINGANDA,both,5.0,grid,100.0,1020-0002,Holy Family Hospital,faithbased,29329.0,community_hospital,not_available,more_than_16,not_available,South,South East,yes,yes,delivery,1.0,4.0,collected
,HIDDEN,,GROUP_REGION_SOUTH_EAST,GROUP_ADMIN,GROUP_REGION_SOUTH,H589,default,uuid:5d668686-e3b0-42f6-a4d4-d51593c4506e,,anonymous,2016-07-11T16:01:59.035000000,COMPLETE,synced,,,-15.9302897,35.76565982,Phalombe,temperate,AARON KADZUWA,both,50.0,none,100.0,1020-0003,Sukasanje,faithbased,11269.0,community_hospital,not_available,none,available,South,South East,yes,yes,delivery,1.0,4.0,delivered
,HIDDEN,,GROUP_REGION_SOUTH_EAST,GROUP_ADMIN,GROUP_REGION_SOUTH,H583,default,uuid:96ac6275-5211-4160-848f-9c269a76bdf5,,anonymous,2016-07-11T16:01:59.023000000,COMPLETE,synced,,,-16.01816572,35.46403951,Mulanje,temperate,MINUS MPHANDO,both,7.0,grid,10.0,1019-0024,Mulanje Mission Hospital,faithbased,49296.0,rural_hospital,not_available,more_than_16,not_available,South,South East,yes,yes,delivery,1.0,4.0,both
,HIDDEN,,GROUP_REGION_NORTH,GROUP_ADMIN,GROUP_REGION_NORTH,H305,default,uuid:ab6bd525-63aa-4c09-abf4-8286f48c5e92,,anonymous,2016-07-11T16:01:59.049000000,COMPLETE,synced,,,-9.720027519,33.5833358,Chitipa,temperate,LIANT FUMBO,both,16.0,none,100.0,1009-0020,Sokola,public,1583.0,dispensary,available,none,not_available,North,North,yes,yes,delivery,1.0,4.0,both
,HIDDEN,,GROUP_REGION_SOUTH_EAST,GROUP_ADMIN,GROUP_REGION_SOUTH,H584,default,uuid:3b286cb4-7dd4-4a3e-bba7-c4de11130711,,anonymous,2016-07-11T16:01:59.025000000,COMPLETE,synced,,,-15.99835962,35.43199663,Mulanje,temperate,JANE MWAFULIRWA,both,10.0,grid,100.0,1019-0025,Chisitu Dispensary,public,2498.0,health_center,not_available,more_than_16,not_available,South,South East,yes,yes,delivery,1.0,4.0,delivered
,HIDDEN,,GROUP_REGION_NORTH,GROUP_ADMIN,GROUP_REGION_NORTH,H306,default,uuid:dce50e02-f183-469f-97d8-a3570fe47b51,,anonymous,2016-07-11T16:01:59.051000000,COMPLETE,synced,,,-9.748465645,33.67491086,Chitipa,temperate,A. BUKOBWAMBEBA,both,33.0,none,100.0,1009-0021,Musumbe,public,1680.0,dispensary,available,none,not_available,North,North,yes,yes,delivery,1.0,4.0,both
,HIDDEN,,GROUP_REGION_SOUTH_EAST,GROUP_ADMIN,GROUP_REGION_SOUTH,H585,default,uuid:5f9419cf-ae5e-4c3d-a5b7-353c2a5b2679,,anonymous,2016-07-11T16:01:59.027000000,COMPLETE,synced,,,-16.03997538,35.61319606,Mulanje,temperate,ODGERS NYIRENDA,both,17.0,none,100.0,1019-0026,Bondo Health Centre,public,22324.0,community_hospital,not_available,none,irregular,South,South East,yes,yes,delivery,1.0,4.0,both
,HIDDEN,,GROUP_REGION_NORTH,GROUP_ADMIN,GROUP_REGION_NORTH,H307,default,uuid:b68732b0-3200-4f0a-a2a8-4518afdc2364,,anonymous,2016-07-11T16:01:59.016000000,COMPLETE,synced,,,-9.675202103,33.59499857,Chitipa,temperate,M. MOGHA,both,15.0,none,100.0,1009-0022,Itulo,public,1243.0,dispensary,available,none,not_available,North,North,yes,yes,delivery,1.0,4.0,both
,HIDDEN,,GROUP_REGION_SOUTH_EAST,GROUP_ADMIN,GROUP_REGION_SOUTH,H586,default,uuid:0a12db0d-bd45-4b1c-ac4e-04ffc48bc3f2,,anonymous,2016-07-11T16:01:59.029000000,COMPLETE,synced,,,-15.80621884,35.6487303,Phalombe,temperate,CHRISSIE HAPALA,both,0.5,grid,10.0,1020-0000,Phalombe District Hospital,public,25931.0,central_hospital,not_available,more_than_16,not_available,South,South East,yes,yes,delivery,1.0,4.0,collected
,HIDDEN,,GROUP_REGION_NORTH,GROUP_ADMIN,GROUP_REGION_NORTH,H308,default,uuid:059f070d-1a21-4b2f-8c18-acaab76f4dd5,,anonymous,2016-07-11T16:01:59.017000000,COMPLETE,synced,,,-9.677033186,33.52000197,Chitipa,temperate,JOHN SINGOGO,both,75.0,grid,100.0,1009-0023,Misuku,public,25901.0,community_hospital,irregular,more_than_16,not_available,North,North,yes,yes,delivery,1.0,4.0,collected
,HIDDEN,,GROUP_REGION_NORTH,GROUP_ADMIN,GROUP_REGION_NORTH,H302,default,uuid:4b87ca5d-ed2f-452e-9d41-bb28f35f46d5,,anonymous,2016-07-11T16:01:59.042000000,COMPLETE,synced,,,-9.491160484,33.2485012,Chitipa,temperate,WILLARD MBEYE,both,33.0,none,100.0,1009-0017,Kapenda,public,19081.0,community_hospital,available,none,not_available,North,North,yes,yes,delivery,1.0,4.0,collected
,HIDDEN,,GROUP_REGION_NORTH,GROUP_ADMIN,GROUP_REGION_NORTH,H301,default,uuid:36419050-eeb8-46df-a32c-cc3360b99d78,,anonymous,2016-07-11T16:01:59.040000000,COMPLETE,synced,,,-9.506205429,33.34086952,Chitipa,temperate,DENIS SILUNGWE,both,17.0,none,100.0,1009-0016,Bupighu,public,3745.0,dispensary,available,none,not_available,North,North,yes,yes,delivery,1.0,4.0,collected
,HIDDEN,,GROUP_REGION_NORTH,GROUP_ADMIN,GROUP_REGION_NORTH,H304,default,uuid:7e48639b-917c-43f9-a439-14e428038907,,anonymous,2016-07-11T16:01:59.047000000,COMPLETE,synced,,,-9.663928564,33.37316676,Chitipa,temperate,AUSTIN MTAMBO,both,16.0,none,10.0,1009-0019,Kaseye,faithbased,15077.0,hospital,available,none,not_available,North,North,yes,yes,delivery,1.0,4.0,collected
,HIDDEN,,GROUP_REGION_NORTH,GROUP_ADMIN,GROUP_REGION_NORTH,H303,default,uuid:843750b7-a573-46ac-9b2a-da50c66eaa88,,anonymous,2016-07-11T16:01:59.044000000,COMPLETE,synced,,,-9.601561574,33.40148645,Chitipa,temperate,JACK MKHALA,both,29.0,none,100.0,1009-0018,Ifumbo,public,7091.0,community_hospital,available,none,not_available,North,North,no,yes,delivery,1.0,4.0,collected
,HIDDEN,,GROUP_REGION_NORTH,GROUP_ADMIN,GROUP_REGION_NORTH,H300,default,uuid:47a8561e-cc14-4328-97d5-4963135d82e7,,anonymous,2016-07-11T16:01:59.035000000,COMPLETE,synced,,,-9.564198372,33.25872358,Chitipa,temperate,ABEL G.M.MUNTHALI,both,10.0,none,100.0,1009-0015,Nkhangwa,public,2250.0,dispensary,available,none,not_available,North,North,yes,yes,delivery,1.0,4.0,both
,HIDDEN,,GROUP_REGION_SOUTH_EAST,GROUP_ADMIN,GROUP_REGION_SOUTH,H570,default,uuid:134fc74b-dee5-4d5c-9e1b-6cf7507794cb,,anonymous,2016-07-11T16:01:59.031000000,COMPLETE,synced,,,-15.90049312,35.48966137,Mulanje,temperate,EDSON MLETSENI,both,14.0,none,100.0,1019-0011,Chambe Health Centre,public,45000.0,community_hospital,not_available,none,available,South,South East,yes,yes,delivery,1.0,4.0,delivered
,HIDDEN,,GROUP_REGION_SOUTH_EAST,GROUP_ADMIN,GROUP_REGION_SOUTH,H571,default,uuid:b2a9dcd6-c82f-4d1c-b7b6-f7a8f6878f48,,anonymous,2016-07-11T16:01:59.033000000,COMPLETE,synced,,,-15.85047764,35.56310431,Mulanje,temperate,PATRICK KALONGONDA,both,28.0,grid,100.0,1019-0012,Kambenje Health Centre,public,18596.0,community_hospital,not_available,more_than_16,not_available,South,South East,yes,yes,delivery,1.0,4.0,collected
,HIDDEN,,GROUP_REGION_SOUTH_EAST,GROUP_ADMIN,GROUP_REGION_SOUTH,H578,default,uuid:d3e7d4e3-b866-4fa8-a345-2f0a065c851e,,anonymous,2016-07-11T16:01:59.051000000,COMPLETE,synced,,,-15.99455584,35.32266085,Mulanje,temperate,LIZZIE MUMBA,both,39.0,grid,100.0,1019-0019,Chonde Health Centre,public,42814.0,community_hospital,not_available,more_than_16,not_available,South,South East,yes,yes,delivery,1.0,4.0,both
,HIDDEN,,GROUP_REGION_SOUTH_EAST,GROUP_ADMIN,GROUP_REGION_SOUTH,H579,default,uuid:00ff24b1-eac2-4a24-8ab3-c438fee72955,,anonymous,2016-07-11T16:01:59.016000000,COMPLETE,synced,,,-16.09007748,35.34539058,Mulanje,temperate,MCHONEY KULISEMBA,both,28.0,none,100.0,1019-0020,Mbiza Health Centre,public,35250.0,community_hospital,not_available,none,available,South,South East,yes,yes,delivery,1.0,4.0,both
,HIDDEN,,GROUP_REGION_SOUTH_EAST,GROUP_ADMIN,GROUP_REGION_SOUTH,H576,default,uuid:0cbc61f2-2cbf-454e-96ea-8abaf7720a9a,,anonymous,2016-07-11T16:01:59.047000000,COMPLETE,synced,,,-15.86290409,35.32663494,Mulanje,temperate,EVANCE MALONJE,both,26.0,grid,100.0,1019-0017,Namulenga Health Centre,faithbased,8820.0,community_hospital,not_available,more_than_16,not_available,South,South East,yes,yes,delivery,1.0,5.0,both
,HIDDEN,,GROUP_REGION_SOUTH_EAST,GROUP_ADMIN,GROUP_REGION_SOUTH,H577,default,uuid:65fd72ec-3599-4e00-9887-09ed983749d2,,anonymous,2016-07-11T16:01:59.049000000,COMPLETE,synced,,,-15.91640985,35.36104624,Mulanje,temperate,OSCAR STONKEN,both,17.0,none,100.0,1019-0018,Thuchila Health Centre,public,35401.0,community_hospital,not_available,none,available,South,South East,yes,yes,delivery,1.0,4.0,both
,HIDDEN,,GROUP_REGION_SOUTH_EAST,GROUP_ADMIN,GROUP_REGION_SOUTH,H574,default,uuid:8240cf66-dfbe-494d-b8b8-f383621b9061,,anonymous,2016-07-11T16:01:59.042000000,COMPLETE,synced,,,-15.7183401,35.3660136,Mulanje,temperate,CLEFTON LAMANI,both,60.0,none,100.0,1019-0015,Nkomaula Health Centre,public,18492.0,community_hospital,not_available,none,available,South,South East,yes,yes,delivery,1.0,4.0,delivered
,HIDDEN,,GROUP_REGION_SOUTH_EAST,GROUP_ADMIN,GROUP_REGION_SOUTH,H575,default,uuid:59c06f5c-c67f-45a7-85d5-7efa14d79340,,anonymous,2016-07-11T16:01:59.044000000,COMPLETE,synced,,,-15.80149167,35.34828822,Mulanje,temperate,LASTON SAMBANISO,both,40.0,none,100.0,1019-0016,Namphungo Health Centre,public,34461.0,community_hospital,not_available,none,available,South,South East,yes,yes,delivery,1.0,4.0,delivered
,HIDDEN,,GROUP_REGION_SOUTH_EAST,GROUP_ADMIN,GROUP_REGION_SOUTH,H572,default,uuid:3f1b4eb1-ee76-4a92-a241-d32672d52dc5,,anonymous,2016-07-11T16:01:59.035000000,COMPLETE,synced,,,-15.76278759,35.49227482,Mulanje,temperate,JONAS CHIMERA,both,65.0,none,100.0,1019-0013,Mulomba Mealth Centre,public,21019.0,community_hospital,not_available,none,not_available,South,South East,no,yes,delivery,1.0,4.0,delivered
,HIDDEN,,GROUP_REGION_SOUTH_EAST,GROUP_ADMIN,GROUP_REGION_SOUTH,H573,default,uuid:0c2da90a-6219-4ecf-80f1-8226c51eee50,,anonymous,2016-07-11T16:01:59.040000000,COMPLETE,synced,,,-15.67226843,35.47604975,Mulanje,temperate,JOHNMWANGONDE,both,80.0,none,100.0,1019-0014,Kamwendo Health Post,public,35141.0,dispensary,not_available,none,available,South,South East,yes,yes,delivery,1.0,4.0,delivered
,HIDDEN,,GROUP_REGION_NORTH,GROUP_ADMIN,GROUP_REGION_NORTH,H327,default,uuid:1cfc74cc-4ff3-493e-b91c-23ed888029c7,,anonymous,2016-07-11T16:01:59.022000000,COMPLETE,synced,,,-9.92745957,33.85231681,Karonga,temperate,GERALD GONDWE,both,13.0,none,100.0,1010-0014,Lupaso,public,6596.0,dispensary,available,none,not_available,North,North,yes,yes,delivery,1.0,4.0,delivered
,HIDDEN,,GROUP_REGION_NORTH,GROUP_ADMIN,GROUP_REGION_NORTH,H328,default,uuid:b44c1aad-4111-4f77-8a0a-9f8af5c7cb6f,,anonymous,2016-07-11T16:01:59.023000000,COMPLETE,synced,,,-9.764807821,33.87398104,Karonga,temperate,B. Z. MOYO,both,20.0,grid,10.0,1010-0015,Kaporo,public,48358.0,district_hospital,irregular,more_than_16,not_available,North,North,yes,yes,delivery,1.0,4.0,both
,HIDDEN,,GROUP_REGION_NORTH,GROUP_ADMIN,GROUP_REGION_NORTH,H329,default,uuid:84676812-0b73-4433-ae6a-56bc39213541,,anonymous,2016-07-11T16:01:59.025000000,COMPLETE,synced,,,-9.771469659,33.73374686,Karonga,temperate,B. MOYO,both,23.0,none,100.0,1010-0016,Chikutu,public,4224.0,dispensary,available,none,not_available,North,North,yes,yes,delivery,1.0,4.0,delivered
,HIDDEN,,GROUP_REGION_NORTH,GROUP_ADMIN,GROUP_REGION_NORTH,H320,default,uuid:209b5c10-9a0b-457e-9456-3335e167fbed,,anonymous,2016-07-11T16:01:59.044000000,COMPLETE,synced,,,-10.28277728,34.10786767,Karonga,temperate,AARON BANDA,both,53.0,grid,100.0,1010-0007,Nyungwe,public,16437.0,community_hospital,irregular,more_than_16,not_available,North,North,yes,yes,delivery,1.0,4.0,both
,HIDDEN,,GROUP_REGION_NORTH,GROUP_ADMIN,GROUP_REGION_NORTH,H322,default,uuid:918def55-e77f-42b7-af42-54bc9f02546b,,anonymous,2016-07-11T16:01:59.049000000,COMPLETE,synced,,,-10.32670639,34.17460273,Karonga,temperate,PENJANI KAWONGA,both,60.0,none,100.0,1010-0009,Tilora,public,14437.0,dispensary,available,none,not_available,North,North,yes,yes,delivery,1.0,4.0,delivered
,HIDDEN,,GROUP_REGION_NORTH,GROUP_ADMIN,GROUP_REGION_NORTH,H321,default,uuid:a93413db-9161-439d-9dc4-8939c9e32040,,anonymous,2016-07-11T16:01:59.047000000,COMPLETE,synced,,,-10.32961218,34.10986688,Karonga,temperate,PRECIOUS NDOVIE,both,8.0,none,100.0,1010-0008,Wovwe Scheme,public,6945.0,dispensary,available,none,not_available,North,North,yes,yes,delivery,1.0,4.0,both
,HIDDEN,,GROUP_REGION_NORTH,GROUP_ADMIN,GROUP_REGION_NORTH,H324,default,uuid:6f72186b-c637-45eb-a1f6-3991ff3452fd,,anonymous,2016-07-11T16:01:59.016000000,COMPLETE,synced,,,-10.40892827,34.21163803,Karonga,temperate,BRENDA NYIRONGO,both,69.0,grid,100.0,1010-0011,St Annes,faithbased,5985.0,community_hospital,irregular,more_than_16,not_available,North,North,yes,yes,delivery,1.0,4.0,both
,HIDDEN,,GROUP_REGION_NORTH,GROUP_ADMIN,GROUP_REGION_NORTH,H323,default,uuid:758a49f1-730c-42dd-a5cc-9808be9f3d40,,anonymous,2016-07-11T16:01:59.051000000,COMPLETE,synced,,,-10.38748369,34.20814852,Karonga,temperate,DANWIK CHIMATIYO,both,67.0,grid,100.0,1010-0010,Chilumba Garrison,private,4543.0,community_hospital,irregular,more_than_16,not_available,North,North,yes,yes,delivery,1.0,4.0,both
,HIDDEN,,GROUP_REGION_NORTH,GROUP_ADMIN,GROUP_REGION_NORTH,H326,default,uuid:29ad3677-bd68-4fa5-ae19-aaa4bd388018,,anonymous,2016-07-11T16:01:59.019000000,COMPLETE,synced,,,-9.871073287,33.86959953,Karonga,temperate,ADAMSON MWALUGHALI,both,12.0,grid,100.0,1010-0013,Kasoba,public,22074.0,community_hospital,irregular,more_than_16,not_available,North,North,yes,yes,delivery,1.0,4.0,delivered
,HIDDEN,,GROUP_REGION_NORTH,GROUP_ADMIN,GROUP_REGION_NORTH,H325,default,uuid:f8cb25c2-2752-4133-bdab-30fbd3c5d037,,anonymous,2016-07-11T16:01:59.017000000,COMPLETE,synced,,,-10.42941181,34.25092343,Karonga,temperate,R. MKALIRA,static,72.0,grid,10.0,1010-0012,Chilumba Rural Hospital,public,18411.0,district_hospital,irregular,more_than_16,not_available,North,North,yes,yes,delivery,1.0,4.0,delivered
,HIDDEN,,GROUP_REGION_SOUTH_EAST,GROUP_ADMIN,GROUP_REGION_SOUTH,H593,default,uuid:7ba4b482-dccf-465e-bdaa-1405b998e4d9,,anonymous,2016-07-11T16:01:59.047000000,COMPLETE,synced,,,-15.77220936,35.76508201,Phalombe,temperate,HANNA SIMALE,both,30.0,grid,100.0,1020-0007,Chilinga Maternity,public,11080.0,community_hospital,not_available,fewer_than_4,not_available,South,South East,yes,yes,delivery,1.0,4.0,delivered
,HIDDEN,,GROUP_REGION_SOUTH_EAST,GROUP_ADMIN,GROUP_REGION_SOUTH,H590,default,uuid:7159e6b5-898a-4de2-afe1-b0863e3a944b,,anonymous,2016-07-11T16:01:59.040000000,COMPLETE,synced,,,-15.85791335,35.7513277,Phalombe,temperate,H E KUMBANGA,both,36.0,none,100.0,1020-0004,Nkhulambe Health Centre,public,17149.0,community_hospital,not_available,none,available,South,South East,yes,yes,delivery,1.0,4.0,delivered
,HIDDEN,,GROUP_REGION_SOUTH_EAST,GROUP_ADMIN,GROUP_REGION_SOUTH,H591,default,uuid:7aa7a5db-b1e9-4f4b-9440-4a3e5b6abc7d,,anonymous,2016-07-11T16:01:59.042000000,COMPLETE,synced,,,-15.85703154,35.81568673,Phalombe,temperate,CHRISTOPHER CHISAWO,both,47.0,none,100.0,1020-0005,Mulungu Alinafe,public,9875.0,dispensary,not_available,none,available,South,South East,yes,yes,delivery,1.0,4.0,delivered
,HIDDEN,,GROUP_REGION_SOUTH_EAST,GROUP_ADMIN,GROUP_REGION_SOUTH,H596,default,uuid:0345aed9-434d-4c71-a1e8-67c7f98d11f5,,anonymous,2016-07-11T16:01:59.016000000,COMPLETE,synced,,,-15.71941895,35.68561252,Phalombe,temperate,FREZER NAMIZOMBE,both,9.0,grid,100.0,1020-0010,Migowi Health Centre,public,21504.0,community_hospital,not_available,more_than_16,not_available,South,South East,yes,yes,delivery,1.0,4.0,delivered
,HIDDEN,,GROUP_REGION_NORTH,GROUP_ADMIN,GROUP_REGION_NORTH,H318,default,uuid:8cfc883c-c11c-446c-bd98-d9efba5aea66,,anonymous,2016-07-11T16:01:59.040000000,COMPLETE,synced,,,-10.06346249,33.98720286,Karonga,temperate,MICHAEL MULAMBIA,both,20.0,grid,100.0,1010-0005,Lupembe,public,10584.0,community_hospital,irregular,more_than_16,not_available,North,North,yes,yes,delivery,1.0,4.0,delivered
,HIDDEN,,GROUP_REGION_SOUTH_EAST,GROUP_ADMIN,GROUP_REGION_SOUTH,H597,default,uuid:4738471c-766d-4b37-a5ac-42aa2aa695d9,,anonymous,2016-07-11T16:01:59.017000000,COMPLETE,synced,,,-15.67195035,35.72833111,Phalombe,temperate,M THOMAS,both,19.0,none,100.0,1020-0011,Kalinde Health Centre,public,30098.0,community_hospital,not_available,none,not_available,South,South East,yes,yes,delivery,1.0,4.0,delivered
,HIDDEN,,GROUP_REGION_NORTH,GROUP_ADMIN,GROUP_REGION_NORTH,H319,default,uuid:b584d7b3-cfa7-4f07-af50-4ff49dd8a2ee,,anonymous,2016-07-11T16:01:59.042000000,COMPLETE,synced,,,-10.17033215,34.03515883,Karonga,temperate,ENWOOD CHIHANA,both,34.0,grid,100.0,1010-0006,Mlare,public,11840.0,community_hospital,available,more_than_16,not_available,North,North,yes,yes,delivery,1.0,4.0,both
,HIDDEN,,GROUP_REGION_SOUTH_EAST,GROUP_ADMIN,GROUP_REGION_SOUTH,H594,default,uuid:5773bab8-76c1-433f-a63e-4b6c80c74773,,anonymous,2016-07-11T16:01:59.049000000,COMPLETE,synced,,,-15.75256652,35.77778803,Phalombe,temperate,LIDIA KASONGA,both,24.0,none,100.0,1020-0008,Nazombe Health Centre,public,16986.0,community_hospital,not_available,none,available,South,South East,yes,yes,delivery,1.0,4.0,delivered
,HIDDEN,,GROUP_REGION_NORTH,GROUP_ADMIN,GROUP_REGION_NORTH,H316,default,uuid:021a8025-93db-4486-9cc8-11f9958df3e4,,anonymous,2016-07-11T16:01:59.033000000,COMPLETE,synced,,,-9.942004139,33.77313007,Karonga,temperate,W. NYASULU,both,28.0,none,100.0,1010-0003,Vilaule,public,2017.0,dispensary,available,none,not_available,North,North,yes,yes,delivery,1.0,4.0,both
,HIDDEN,,GROUP_REGION_SOUTH_EAST,GROUP_ADMIN,GROUP_REGION_SOUTH,H595,default,uuid:46c7fade-cdda-45a8-8c97-baa191ee9d8d,,anonymous,2016-07-11T16:01:59.051000000,COMPLETE,synced,,,-15.55683139,35.81924953,Phalombe,temperate,ENERST MPEKETULA,both,43.0,none,100.0,1020-0009,Nambazo Health Centre,public,38236.0,community_hospital,not_available,none,unknown,South,South East,yes,yes,delivery,1.0,4.0,delivered
,HIDDEN,,GROUP_REGION_NORTH,GROUP_ADMIN,GROUP_REGION_NORTH,H317,default,uuid:ee913833-241f-4123-895d-4c01588e8440,,anonymous,2016-07-11T16:01:59.035000000,COMPLETE,synced,,,-9.957958252,33.81466568,Karonga,temperate,AARON NYIRENDA,both,30.0,none,100.0,1010-0004,Mpata,public,3368.0,community_hospital,available,none,not_available,North,North,yes,yes,delivery,1.0,4.0,collected
,HIDDEN,,GROUP_REGION_SOUTH_EAST,GROUP_ADMIN,GROUP_REGION_SOUTH,H598,default,uuid:58441248-9871-4388-a2e6-5a59de58993f,,anonymous,2016-07-11T16:01:59.019000000,COMPLETE,synced,,,-15.77087971,35.55087086,Phalombe,temperate,PETER CHOSADZIWA,both,17.0,none,100.0,1020-0012,Waluma Health Post,public,21420.0,dispensary,not_available,none,irregular,South,South East,yes,yes,delivery,1.0,4.0,delivered
,HIDDEN,,GROUP_REGION_SOUTH_EAST,GROUP_ADMIN,GROUP_REGION_SOUTH,H599,default,uuid:db4a5560-788e-4d22-8954-f1c565d9faaf,,anonymous,2016-07-11T16:01:59.022000000,COMPLETE,synced,,,-15.75794483,35.61179332,Phalombe,temperate,WONDERFUL NJEWA,both,7.0,none,100.0,1020-0013,Mpasa Health Centre,public,31229.0,community_hospital,not_available,none,available,South,South East,yes,yes,delivery,1.0,4.0,delivered
,HIDDEN,,GROUP_REGION_NORTH,GROUP_ADMIN,GROUP_REGION_NORTH,H311,default,uuid:1d5f53a0-fc0e-4937-9bb2-97a1cd0cffc1,,anonymous,2016-07-11T16:01:59.023000000,COMPLETE,synced,,,-9.698985861,33.26580915,Chitipa,temperate,CHARLES MUSYANI,none,305.0,grid,100.0,1009-0026,Chitipa District Vaccine Store,public,198541.0,regional_vaccine_store,irregular,more_than_16,not_available,North,North,yes,yes,depot,1.0,4.0,collected
,HIDDEN,,GROUP_REGION_NORTH,GROUP_ADMIN,GROUP_REGION_NORTH,H310,default,uuid:1d265262-2b89-4149-a61b-75d33bb2282e,,anonymous,2016-07-11T16:01:59.022000000,COMPLETE,synced,,,-9.96319302,33.38877418,Chitipa,temperate,H.NDHOVU,both,101.0,none,100.0,1009-0025,Chisenga,public,2286.0,dispensary,available,none,not_available,North,North,yes,yes,delivery,1.0,4.0,both
,HIDDEN,,GROUP_REGION_NORTH,GROUP_ADMIN,GROUP_REGION_NORTH,H315,default,uuid:e61b3653-74fb-47aa-a3df-6fadac10a6c7,,anonymous,2016-07-11T16:01:59.031000000,COMPLETE,synced,,,-9.890448973,33.61331338,Karonga,temperate,BENIDICTO ZUZE,both,51.0,grid,100.0,1010-0002,Wiliro,public,7318.0,community_hospital,irregular,more_than_16,not_available,North,North,yes,yes,delivery,1.0,4.0,both
,HIDDEN,,GROUP_REGION_NORTH,GROUP_ADMIN,GROUP_REGION_NORTH,H314,default,uuid:b65ce18a-149f-48a9-aafe-79b3baa17b31,,anonymous,2016-07-11T16:01:59.029000000,COMPLETE,synced,,,-9.952275175,33.91070786,Karonga,temperate,H.A. MILANZIE,none,250.0,grid,100.0,1010-0001,Karonga District Vaccine Store,public,297694.0,regional_vaccine_store,irregular,more_than_16,not_available,North,North,yes,yes,depot,1.0,4.0,collected
,HIDDEN,,GROUP_REGION_NORTH,GROUP_ADMIN,GROUP_REGION_NORTH,H313,default,uuid:e4565f6a-cece-4e83-9b0c-6a78d85ceb5f,,anonymous,2016-07-11T16:01:59.027000000,COMPLETE,synced,,,-9.952275175,33.91070786,Karonga,temperate,H. MILANZI,both,210.0,grid,10.0,1010-0000,Karonga District Hospital,public,38552.0,central_hospital,irregular,more_than_16,not_available,North,North,yes,yes,delivery,1.0,4.0,collected
,HIDDEN,,GROUP_REGION_NORTH,GROUP_ADMIN,GROUP_REGION_NORTH,H312,default,uuid:4c551cd1-ddbc-4a53-a18b-189a1afa90da,,anonymous,2016-07-11T16:01:59.025000000,COMPLETE,synced,,,-9.698985861,33.26580915,Chitipa,temperate,CHARLES MUSYANI,both,320.0,grid,10.0,1009-0027,Chitipa District Hospital,public,49634.0,central_hospital,irregular,more_than_16,not_available,North,North,yes,yes,delivery,1.0,4.0,collected
,HIDDEN,,GROUP_REGION_SOUTH_EAST,GROUP_ADMIN,GROUP_REGION_SOUTH,H544,default,uuid:42970d74-aeb3-47b7-80a1-c5af7aad2691,,anonymous,2016-07-11T16:01:59.051000000,COMPLETE,synced,,,-14.52304877,35.03701602,Mangochi,temperate,PETER SILANJI PHIRI,both,30.0,none,100.0,1018-0034,Katema Health Centre,faithbased,29588.0,community_hospital,not_available,none,available,South,South East,yes,yes,delivery,1.0,4.0,delivered
,HIDDEN,,GROUP_REGION_SOUTH_EAST,GROUP_ADMIN,GROUP_REGION_SOUTH,H543,default,uuid:80ab2468-9cf4-43c1-95f1-fa0bfde31dc3,,anonymous,2016-07-11T16:01:59.049000000,COMPLETE,synced,,,-14.60837321,35.08187848,Mangochi,temperate,EMMANUEL NKANGO SAKA,both,45.0,none,100.0,1018-0033,Mtimabi Health Centre,public,29630.0,community_hospital,not_available,none,available,South,South East,yes,yes,delivery,1.0,4.0,delivered
,HIDDEN,,GROUP_REGION_SOUTH_EAST,GROUP_ADMIN,GROUP_REGION_SOUTH,H546,default,uuid:4705b50d-2ab3-477e-83b2-be2b9a54a959,,anonymous,2016-07-11T16:01:59.017000000,COMPLETE,synced,,,-14.70020977,34.9732535,Mangochi,temperate,E MWALE/ THANDIWE CHINZINGA,both,62.0,none,100.0,1018-0036,Chilipa Health Centre,public,31588.0,community_hospital,not_available,none,available,South,South East,yes,yes,delivery,1.0,4.0,delivered
,HIDDEN,,GROUP_REGION_SOUTH_EAST,GROUP_ADMIN,GROUP_REGION_SOUTH,H545,default,uuid:ebbc159b-86b7-4f28-92c3-a1b938a41083,,anonymous,2016-07-11T16:01:59.016000000,COMPLETE,synced,,,-14.58555236,34.89783526,Mangochi,temperate,PETER S. KAIPA,both,65.0,none,100.0,1018-0035,Phililongwe Health Centre,public,20779.0,community_hospital,not_available,none,available,South,South East,yes,yes,delivery,1.0,4.0,delivered
,HIDDEN,,GROUP_REGION_SOUTH_EAST,GROUP_ADMIN,GROUP_REGION_SOUTH,H540,default,uuid:759bf550-cfbc-40b8-ba47-c310e383c55b,,anonymous,2016-07-11T16:01:59.042000000,COMPLETE,synced,,,-14.41924466,35.38338955,Mangochi,temperate,J MAMBO,both,17.0,none,100.0,1018-0030,Chikole Health Centre,public,8330.0,community_hospital,not_available,none,available,South,South East,yes,yes,delivery,1.0,4.0,delivered
,HIDDEN,,GROUP_REGION_NORTH,GROUP_ADMIN,GROUP_REGION_NORTH,H349,default,uuid:3602627e-aba3-4aee-9cf8-a9003f96c83c,,anonymous,2016-07-11T16:01:59.031000000,COMPLETE,synced,,,-11.48241441,33.89542642,Mzimba North,temperate,BOYCE MSUKU,both,25.0,none,100.0,1012-0012,Matuli Health Centre,public,10200.0,community_hospital,available,none,unknown,North,North,yes,yes,delivery,1.0,4.0,delivered
,HIDDEN,,GROUP_REGION_SOUTH_EAST,GROUP_ADMIN,GROUP_REGION_SOUTH,H542,default,uuid:64671154-38d3-4dd9-b75b-cad42ced86b2,,anonymous,2016-07-11T16:01:59.047000000,COMPLETE,synced,,,-14.65504941,35.07639708,Mangochi,temperate,ELLINGTON KADEWERE,both,57.0,none,100.0,1018-0032,Ngatala Health Centre,public,14573.0,dispensary,not_available,none,available,South,South East,yes,yes,delivery,1.0,4.0,delivered
,HIDDEN,,GROUP_REGION_SOUTH_EAST,GROUP_ADMIN,GROUP_REGION_SOUTH,H541,default,uuid:468be9bf-da57-4243-8af1-0e28ac422cde,,anonymous,2016-07-11T16:01:59.044000000,COMPLETE,synced,,,-14.75250441,35.11141555,Mangochi,temperate,GILBART ISSAH,both,66.0,none,100.0,1018-0031,Mwatakata Health Centre,public,7136.0,dispensary,not_available,none,available,South,South East,yes,yes,delivery,1.0,4.0,delivered
,HIDDEN,,GROUP_REGION_NORTH,GROUP_ADMIN,GROUP_REGION_NORTH,H340,default,uuid:fec8995e-5089-4e31-85a2-87a10a6c1844,,anonymous,2016-07-11T16:01:59.051000000,COMPLETE,synced,,,-11.46250966,34.02272403,Mzimba North,temperate,T.MUSHANI,none,355.0,grid,100.0,1012-0000,Regional Vaccine Store,public,1871053.0,national_vaccine_store,not_available,more_than_16,not_available,North,North,yes,yes,depot,3.0,12.0,collected
,HIDDEN,,GROUP_REGION_NORTH,GROUP_ADMIN,GROUP_REGION_NORTH,H345,default,uuid:745c7fa0-0d2a-4df6-8897-78549abe1c07,,anonymous,2016-07-11T16:01:59.023000000,COMPLETE,synced,,,-11.36881269,33.88277134,Mzimba North,temperate,B MFUNE,both,15.0,grid,10.0,1012-0008,Ekwendeni Mission Hospital,faithbased,55000.0,rural_hospital,unknown,more_than_16,unknown,North,North,yes,yes,delivery,1.0,4.0,delivered
,HIDDEN,,GROUP_REGION_NORTH,GROUP_ADMIN,GROUP_REGION_NORTH,H346,default,uuid:36a58298-2ee5-4f89-b026-1edb7459e4e1,,anonymous,2016-07-11T16:01:59.025000000,COMPLETE,synced,,,-11.38734475,33.98425616,Mzimba North,temperate,TOBIAS KAMANGA,both,10.0,none,100.0,1012-0009,Nkholongo Health Centre,faithbased,9929.0,community_hospital,not_available,none,not_available,North,North,yes,yes,delivery,1.0,4.0,delivered
,HIDDEN,,GROUP_REGION_NORTH,GROUP_ADMIN,GROUP_REGION_NORTH,H347,default,uuid:c199da62-e7d9-4920-9c6b-3ec0fd88bb0f,,anonymous,2016-07-11T16:01:59.027000000,COMPLETE,synced,,,-11.31014574,33.99048777,Mzimba North,temperate,MISHECK MAGAWA,both,25.0,none,100.0,1012-0010,Choma He Centrealth,public,9041.0,community_hospital,not_available,none,unknown,North,North,no,yes,delivery,1.0,8.0,delivered
,HIDDEN,,GROUP_REGION_NORTH,GROUP_ADMIN,GROUP_REGION_NORTH,H348,default,uuid:46b7b503-4f58-41f3-a672-7a7036227705,,anonymous,2016-07-11T16:01:59.029000000,COMPLETE,synced,,,-11.42039493,33.89692706,Mzimba North,temperate,OSMAN A NKOSI,both,14.0,none,100.0,1012-0011,Ekwaiweni Dispensary,public,8031.0,community_hospital,available,none,not_available,North,North,yes,yes,delivery,1.0,4.0,delivered
,HIDDEN,,GROUP_REGION_SOUTH_EAST,GROUP_ADMIN,GROUP_REGION_SOUTH,H547,default,uuid:7e48619c-8467-47b1-8864-092772ca172d,,anonymous,2016-07-11T16:01:59.019000000,COMPLETE,synced,,,-14.78309423,34.99850072,Mangochi,temperate,DAVID MALANGE,both,74.0,grid,100.0,1018-0037,Kapale,faithbased,9084.0,community_hospital,not_available,more_than_16,not_available,South,South East,no,yes,delivery,1.0,4.0,delivered
,HIDDEN,,GROUP_REGION_NORTH,GROUP_ADMIN,GROUP_REGION_NORTH,H341,default,uuid:0ff43565-cdec-4004-b285-ece7c4061c4d,,anonymous,2016-07-11T16:01:59.016000000,COMPLETE,synced,,,-11.44955574,34.0267933,Mzimba North,temperate,EVELYN BANDA,both,3.0,grid,10.0,1012-0004,St Jonns Hospital,faithbased,37920.0,rural_hospital,unknown,more_than_16,unknown,North,North,yes,yes,delivery,1.0,4.0,collected
,HIDDEN,,GROUP_REGION_SOUTH_EAST,GROUP_ADMIN,GROUP_REGION_SOUTH,H548,default,uuid:d1f762c4-a378-4305-baa1-3d279d1747d6,,anonymous,2016-07-11T16:01:59.022000000,COMPLETE,synced,,,-14.74378114,35.18760753,Mangochi,temperate,JULIA MASAUKO,both,48.0,none,100.0,1018-0038,Chalopa,public,18761.0,dispensary,not_available,none,irregular,South,South East,yes,yes,delivery,1.0,4.0,delivered
,HIDDEN,,GROUP_REGION_NORTH,GROUP_ADMIN,GROUP_REGION_NORTH,H342,default,uuid:4d1f6759-ecd0-413b-bcba-16fd7c595881,,anonymous,2016-07-11T16:01:59.017000000,COMPLETE,synced,,,-11.45336529,34.01566024,Mzimba North,temperate,ESTER BANDA,none,3.0,grid,100.0,1012-0005,Banja La Mtsogolo Mzuzu,private,56000.0,community_hospital,unknown,more_than_16,unknown,North,North,yes,yes,delivery,1.0,4.0,both
,HIDDEN,,GROUP_REGION_SOUTH_EAST,GROUP_ADMIN,GROUP_REGION_SOUTH,H549,default,uuid:e1287515-fcdc-4a0c-a12d-41ba810dfadc,,anonymous,2016-07-11T16:01:59.023000000,COMPLETE,synced,,,-14.54278119,35.19150525,Mangochi,temperate,EDNA MANJOLO,none,10.0,grid,100.0,1018-0039,Assalamu Health Centre,faithbased,9000.0,community_hospital,not_available,more_than_16,not_available,South,South East,yes,yes,delivery,1.0,4.0,delivered
,HIDDEN,,GROUP_REGION_NORTH,GROUP_ADMIN,GROUP_REGION_NORTH,H343,default,uuid:e8077803-9808-4952-8fb4-b4b879b4c4ca,,anonymous,2016-07-11T16:01:59.019000000,COMPLETE,synced,,,-11.425195,33.99548648,Mzimba North,temperate,O T NYIRENDA,static,5.0,grid,10.0,1012-0006,Mzuzu Central Hospital,public,56000.0,district_vaccine_store,unknown,more_than_16,unknown,North,North,yes,yes,delivery,1.0,4.0,collected
,HIDDEN,,GROUP_REGION_NORTH,GROUP_ADMIN,GROUP_REGION_NORTH,H344,default,uuid:aa450f68-0241-40a1-936b-95dc45402ed2,,anonymous,2016-07-11T16:01:59.022000000,COMPLETE,synced,,,-11.46883915,33.99396145,Mzimba North,temperate,GRACE MWAFULIRWA,none,4.0,grid,100.0,1012-0007,Masm Mzuzu,private,9400.0,community_hospital,unknown,more_than_16,unknown,North,North,yes,yes,delivery,1.0,4.0,collected
,HIDDEN,,GROUP_REGION_SOUTH_EAST,GROUP_ADMIN,GROUP_REGION_SOUTH,H535,default,uuid:0d796aa0-740c-4d91-87da-45c54962da10,,anonymous,2016-07-11T16:01:59.029000000,COMPLETE,synced,,,-13.9267069,35.26287994,Mangochi,temperate,HALORD SAULOS,both,109.0,none,100.0,1018-0025,Maleta,public,3483.0,dispensary,not_available,none,not_available,South,South East,yes,yes,delivery,1.0,4.0,delivered
,HIDDEN,,GROUP_REGION_SOUTH_EAST,GROUP_ADMIN,GROUP_REGION_SOUTH,H534,default,uuid:bf63eda4-f949-4fcc-a77c-8b708bd522a3,,anonymous,2016-07-11T16:01:59.027000000,COMPLETE,synced,,,-14.63469728,35.17946935,Mangochi,temperate,E KAMANGA,both,20.0,none,100.0,1018-0024,Kukalanga,public,33583.0,community_hospital,not_available,none,available,South,South East,yes,yes,delivery,1.0,4.0,delivered
,HIDDEN,,GROUP_REGION_SOUTH_EAST,GROUP_ADMIN,GROUP_REGION_SOUTH,H533,default,uuid:05d1498c-f6ea-4b47-b74a-ffb82bc16a20,,anonymous,2016-07-11T16:01:59.025000000,COMPLETE,synced,,,-14.304328,35.39624679,Mangochi,temperate,JOHN BOUL MATOPE,both,31.0,none,100.0,1018-0023,Iba,public,19338.0,health_center,not_available,none,available,South,South East,yes,yes,delivery,1.0,4.0,delivered
,HIDDEN,,GROUP_REGION_SOUTH_EAST,GROUP_ADMIN,GROUP_REGION_SOUTH,H532,default,uuid:342e2f20-74a1-41c0-af19-5d3fd59e557b,,anonymous,2016-07-11T16:01:59.023000000,COMPLETE,synced,,,-14.36026732,35.44174166,Mangochi,temperate,ESMEY WHITE,both,31.0,grid,100.0,1018-0022,Jalasi,public,25504.0,community_hospital,not_available,more_than_16,not_available,South,South East,yes,yes,delivery,1.0,4.0,delivered
,HIDDEN,,GROUP_REGION_SOUTH_EAST,GROUP_ADMIN,GROUP_REGION_SOUTH,H531,default,uuid:c610b9e8-7a3f-4b3b-ad36-117020411360,,anonymous,2016-07-11T16:01:59.022000000,COMPLETE,synced,,,-14.36098891,35.50157784,Mangochi,temperate,JOHN MKOMBE,both,45.0,grid,100.0,1018-0021,Namwera,public,15977.0,community_hospital,not_available,more_than_16,not_available,South,South East,yes,yes,delivery,1.0,4.0,delivered
,HIDDEN,,GROUP_REGION_SOUTH_EAST,GROUP_ADMIN,GROUP_REGION_SOUTH,H530,default,uuid:42b8b271-a9d9-437d-b6ce-26160beea17a,,anonymous,2016-07-11T16:01:59.019000000,COMPLETE,synced,,,-14.4792851,35.26413119,Mangochi,temperate,I .H NDALEMA,both,0.002,grid,10.0,1018-0020,Mangochi,public,75239.0,central_hospital,not_available,more_than_16,not_available,South,South East,yes,yes,delivery,1.0,4.0,delivered
,HIDDEN,,GROUP_REGION_NORTH,GROUP_ADMIN,GROUP_REGION_NORTH,H339,default,uuid:298f8043-d943-497b-ad62-4d3f2fa0a5bc,,anonymous,2016-07-11T16:01:59.049000000,COMPLETE,synced,,,-12.02934403,34.62443366,Likoma,temperate,PATRICK MALUWA,both,25.0,grid,100.0,1011-0001,Chizumulu Health Centre,public,3006.0,community_hospital,not_available,8_to_16,unknown,North,North,yes,yes,delivery,1.0,4.0,collected
,HIDDEN,,GROUP_REGION_NORTH,GROUP_ADMIN,GROUP_REGION_NORTH,H338,default,uuid:95ac7213-e21d-4a86-a926-804034cc8881,,anonymous,2016-07-11T16:01:59.047000000,COMPLETE,synced,,,-12.0650085,34.73650019,Likoma,temperate,BENJAMIN CHITUKWI,both,120.0,grid,10.0,1011-0000,St Peters Hospital,faithbased,7072.0,rural_hospital,unknown,8_to_16,unknown,North,North,yes,yes,delivery,1.0,4.0,collected
,HIDDEN,,GROUP_REGION_NORTH,GROUP_ADMIN,GROUP_REGION_NORTH,H336,default,uuid:c335b29d-2f3a-4b55-99f4-44889d8ee1e2,,anonymous,2016-07-11T16:01:59.042000000,COMPLETE,synced,,,-10.51343647,34.21270146,Karonga,temperate,PIRIRA MHANGO,both,89.0,none,100.0,1010-0023,Sangilo,faithbased,10897.0,community_hospital,available,none,not_available,North,North,yes,yes,delivery,1.0,4.0,delivered
,HIDDEN,,GROUP_REGION_NORTH,GROUP_ADMIN,GROUP_REGION_NORTH,H337,default,uuid:5b9d5260-db97-44e4-b686-4cf86ba22d9f,,anonymous,2016-07-11T16:01:59.044000000,COMPLETE,synced,,,-10.56416631,34.17870258,Karonga,temperate,MR. NGWILA,both,94.0,none,100.0,1010-0024,Lwezga,faithbased,2480.0,community_hospital,available,none,not_available,North,North,yes,yes,delivery,1.0,4.0,delivered
,HIDDEN,,GROUP_REGION_NORTH,GROUP_ADMIN,GROUP_REGION_NORTH,H334,default,uuid:636cd896-661d-4bd8-8ff4-34fe3396e05b,,anonymous,2016-07-11T16:01:59.035000000,COMPLETE,synced,,,-10.445083,34.11137977,Karonga,temperate,JAMES MOYO,both,94.0,none,100.0,1010-0021,Fulirwa,public,40700.0,community_hospital,available,none,not_available,North,North,yes,yes,delivery,1.0,4.0,delivered
,HIDDEN,,GROUP_REGION_NORTH,GROUP_ADMIN,GROUP_REGION_NORTH,H335,default,uuid:93809ab5-4449-4ded-9dd3-2d6c2ecc3f18,,anonymous,2016-07-11T16:01:59.040000000,COMPLETE,synced,,,-10.48613144,34.16841997,Karonga,temperate,MCWELLS GONDWE,both,88.0,none,100.0,1010-0022,Hara,public,8775.0,community_hospital,available,none,not_available,North,North,yes,yes,delivery,1.0,4.0,delivered
,HIDDEN,,GROUP_REGION_SOUTH_EAST,GROUP_ADMIN,GROUP_REGION_SOUTH,H538,default,uuid:95c1bc4a-2f4a-497e-974a-4a49a637602a,,anonymous,2016-07-11T16:01:59.035000000,COMPLETE,synced,,,-14.23547759,35.46857876,Mangochi,temperate,NEVER M. KASAMBALA,both,70.0,none,100.0,1018-0028,Luwalika Health Centre,faithbased,19417.0,community_hospital,not_available,none,available,South,South East,yes,yes,delivery,1.0,4.0,delivered
,HIDDEN,,GROUP_REGION_NORTH,GROUP_ADMIN,GROUP_REGION_NORTH,H332,default,uuid:1286c9af-87a9-4fb4-8307-cca85bdcecdb,,anonymous,2016-07-11T16:01:59.031000000,COMPLETE,synced,,,-9.588862206,33.77494004,Karonga,temperate,OSMAN KAIRA,both,45.0,grid,100.0,1010-0019,Songwe Border,public,4914.0,dispensary,irregular,more_than_16,not_available,North,North,yes,yes,delivery,1.0,4.0,delivered
,HIDDEN,,GROUP_REGION_SOUTH_EAST,GROUP_ADMIN,GROUP_REGION_SOUTH,H539,default,uuid:748e11de-5f0b-4b52-aba6-93308cd49aef,,anonymous,2016-07-11T16:01:59.040000000,COMPLETE,synced,,,-14.3163397,35.55442971,Mangochi,temperate,M. KUNGOMO /ROSE NASAMBO,both,47.0,none,100.0,1018-0029,Chiumbangame Health Centre,public,11448.0,health_center,not_available,none,available,South,South East,yes,yes,delivery,1.0,4.0,delivered
,HIDDEN,,GROUP_REGION_NORTH,GROUP_ADMIN,GROUP_REGION_NORTH,H333,default,uuid:71ebcd2f-55e2-453f-ba1f-e74c555f3d42,,anonymous,2016-07-11T16:01:59.033000000,COMPLETE,synced,,,-9.617559419,33.69828962,Karonga,temperate,Y.E. KAYANGE,both,39.0,none,100.0,1010-0020,Ngana,public,3443.0,community_hospital,available,none,not_available,North,North,yes,yes,delivery,1.0,4.0,delivered
,HIDDEN,,GROUP_REGION_SOUTH_EAST,GROUP_ADMIN,GROUP_REGION_SOUTH,H536,default,uuid:084e0410-56e5-447b-95b3-238510c1807b,,anonymous,2016-07-11T16:01:59.031000000,COMPLETE,synced,,,-14.02847873,35.33679155,Mangochi,temperate,FRANK MFUNDENJI/OWEN ASSAN/YONASI MASIKIYA,both,84.0,grid,100.0,1018-0026,Ngapani Health Centre Private,private,12586.0,community_hospital,not_available,more_than_16,not_available,South,South East,yes,yes,delivery,1.0,4.0,delivered
,HIDDEN,,GROUP_REGION_NORTH,GROUP_ADMIN,GROUP_REGION_NORTH,H330,default,uuid:71a9f3e3-38ba-4d9f-8ccf-4ca4fc7958c9,,anonymous,2016-07-11T16:01:59.027000000,COMPLETE,synced,,,-9.73303972,33.83688674,Karonga,temperate,B.Z. MOYO,both,27.0,grid,10.0,1010-0017,Atupele,faithbased,2224.0,hospital,irregular,8_to_16,not_available,North,North,yes,yes,delivery,1.0,4.0,delivered
,HIDDEN,,GROUP_REGION_SOUTH_EAST,GROUP_ADMIN,GROUP_REGION_SOUTH,H537,default,uuid:dd8aef7b-49d9-4fef-aae0-5194291f181d,,anonymous,2016-07-11T16:01:59.033000000,COMPLETE,synced,,,-14.17724187,35.44389067,Mangochi,temperate,MAISON CHABWERA,both,65.0,none,100.0,1018-0027,Katuli Health Centre,public,22731.0,community_hospital,not_available,none,available,South,South East,yes,yes,delivery,1.0,4.0,delivered
,HIDDEN,,GROUP_REGION_NORTH,GROUP_ADMIN,GROUP_REGION_NORTH,H331,default,uuid:7494e538-a22a-4b27-997b-1c6caff798fd,,anonymous,2016-07-11T16:01:59.029000000,COMPLETE,synced,,,-9.643421475,33.81166557,Karonga,temperate,VINCENT MBWAGHA,both,32.0,grid,100.0,1010-0018,Iponga,public,19411.0,community_hospital,irregular,more_than_16,not_available,North,North,yes,yes,delivery,1.0,4.0,delivered
,HIDDEN,,GROUP_REGION_SOUTH_EAST,GROUP_ADMIN,GROUP_REGION_SOUTH,H562,default,uuid:d4606d63-7824-42a8-8f2f-433269d8eeb6,,anonymous,2016-07-11T16:01:59.016000000,COMPLETE,synced,,,-16.14115446,35.52411552,Mulanje,temperate,CHRISTOPHER CHIWANDA,both,14.0,grid,100.0,1019-0003,Mpala,public,24386.0,community_hospital,not_available,more_than_16,not_available,South,South East,yes,yes,delivery,1.0,4.0,both
,HIDDEN,,GROUP_REGION_SOUTH_EAST,GROUP_ADMIN,GROUP_REGION_SOUTH,H561,default,uuid:57229fc2-2329-4ce1-bbfb-3747484104a5,,anonymous,2016-07-11T16:01:59.051000000,COMPLETE,synced,,,-16.09970574,35.47757353,Mulanje,temperate,CHARLES MALEMBA,both,16.0,none,100.0,1019-0002,Milonde,public,16722.0,community_hospital,not_available,none,irregular,South,South East,yes,yes,delivery,1.0,4.0,both
,HIDDEN,,GROUP_REGION_SOUTH_EAST,GROUP_ADMIN,GROUP_REGION_SOUTH,H564,default,uuid:048c48f7-26e1-4da0-b536-be31ce56bd45,,anonymous,2016-07-11T16:01:59.019000000,COMPLETE,synced,,,-16.087063,35.66424001,Mulanje,temperate,ON MAFERAWYS,both,24.0,grid,100.0,1019-0005,Rou Estate Dispensary,private,1640.0,community_hospital,not_available,more_than_16,not_available,South,South East,yes,yes,delivery,1.0,4.0,both
,HIDDEN,,GROUP_REGION_SOUTH_EAST,GROUP_ADMIN,GROUP_REGION_SOUTH,H563,default,uuid:5b1af115-894b-452d-b91f-864f649ab59c,,anonymous,2016-07-11T16:01:59.017000000,COMPLETE,synced,,,-16.08309619,35.61168529,Mulanje,temperate,AMES KAUNDA,both,15.0,grid,100.0,1019-0004,Mimosa Dispensary,public,24976.0,health_center,not_available,more_than_16,not_available,South,South East,no,yes,delivery,1.0,4.0,collected
,HIDDEN,,GROUP_REGION_SOUTH_EAST,GROUP_ADMIN,GROUP_REGION_SOUTH,H566,default,uuid:d71d39e6-0a94-42ff-a54a-2089c0123ee7,,anonymous,2016-07-11T16:01:59.023000000,COMPLETE,synced,,,-16.05985583,35.76136311,Mulanje,temperate,FREDSON PINDANI,both,32.0,none,100.0,1019-0007,Muloza Health Centre,public,43604.0,community_hospital,not_available,none,available,South,South East,yes,yes,delivery,1.0,4.0,collected
,HIDDEN,,GROUP_REGION_SOUTH_EAST,GROUP_ADMIN,GROUP_REGION_SOUTH,H565,default,uuid:91dde578-ac0b-4390-b410-41eadfc7d3a0,,anonymous,2016-07-11T16:01:59.022000000,COMPLETE,synced,,,-16.07765716,35.71478221,Mulanje,temperate,IKELO,both,20.0,grid,100.0,1019-0006,Namasalima Healt Centre,faithbased,21285.0,community_hospital,not_available,more_than_16,not_available,South,South East,yes,yes,delivery,1.0,4.0,both
,HIDDEN,,GROUP_REGION_SOUTH_EAST,GROUP_ADMIN,GROUP_REGION_SOUTH,H568,default,uuid:f2b8159d-116a-4fd6-a3c6-8cc238af1167,,anonymous,2016-07-11T16:01:59.027000000,COMPLETE,synced,,,-16.03365481,35.67815461,Mulanje,temperate,ANDREW MUMBULU,both,35.0,none,100.0,1019-0009,Naphimba,public,16597.0,community_hospital,not_available,none,available,South,South East,yes,yes,delivery,1.0,4.0,delivered
,HIDDEN,,GROUP_REGION_SOUTH_EAST,GROUP_ADMIN,GROUP_REGION_SOUTH,H567,default,uuid:1b269e9b-3021-41ac-bb70-35f842e64fa8,,anonymous,2016-07-11T16:01:59.025000000,COMPLETE,synced,,,-16.0382418,35.70629046,Mulanje,temperate,MOSES NGAMAME,static,68.0,grid,100.0,1019-0008,Chisambo Dispensary,private,1560.0,community_hospital,not_available,more_than_16,not_available,South,South East,yes,yes,delivery,1.0,4.0,collected
,HIDDEN,,GROUP_REGION_SOUTH_EAST,GROUP_ADMIN,GROUP_REGION_SOUTH,H560,default,uuid:9b479251-0b87-49e1-bf6b-55b31dfd3aed,,anonymous,2016-07-11T16:01:59.049000000,COMPLETE,synced,,,-16.02290919,35.50682868,Mulanje,temperate,MC NEVER MWANGO,none,89.0,grid,100.0,1019-0001,Mulanje District Vaccine Store,public,543745.0,regional_vaccine_store,available,more_than_16,available,South,South East,no,yes,depot,1.0,4.0,collected
,HIDDEN,,GROUP_REGION_NORTH,GROUP_ADMIN,GROUP_REGION_NORTH,H360,default,uuid:23d5f9db-7867-4d18-83c0-7a48bc805c43,,anonymous,2016-07-11T16:01:59.019000000,COMPLETE,synced,,,-11.10015781,33.78833435,Mzimba North,temperate,HELEN BANDA,both,50.0,none,100.0,1012-0023,Kamwe Health Centre,public,16700.0,community_hospital,unknown,none,unknown,North,North,yes,yes,delivery,1.0,4.0,delivered
,HIDDEN,,GROUP_REGION_NORTH,GROUP_ADMIN,GROUP_REGION_NORTH,H361,default,uuid:e365a88e-ae70-49b8-97b3-8204f667e37c,,anonymous,2016-07-11T16:01:59.022000000,COMPLETE,synced,,,-11.13693028,33.71482636,Mzimba North,temperate,MOLES MC MSISKA,both,85.0,none,100.0,1012-0024,Khuyo Clinic,public,14125.0,dispensary,available,none,unknown,North,North,yes,yes,delivery,1.0,4.0,delivered
,HIDDEN,,GROUP_REGION_NORTH,GROUP_ADMIN,GROUP_REGION_NORTH,H362,default,uuid:dcb8d84d-6169-4bfa-afb6-df93a0f1a44d,,anonymous,2016-07-11T16:01:59.023000000,COMPLETE,synced,,,-11.06085888,33.9157368,Mzimba North,temperate,PETER J NGWIRA,both,57.0,grid,100.0,1012-0025,Bwengu Health Centre,public,12893.0,community_hospital,unknown,more_than_16,unknown,North,North,yes,yes,delivery,1.0,4.0,delivered
,HIDDEN,,GROUP_REGION_SOUTH_EAST,GROUP_ADMIN,GROUP_REGION_SOUTH,H569,default,uuid:26145dce-7d77-400c-b8d2-5d7b554c6803,,anonymous,2016-07-11T16:01:59.029000000,COMPLETE,synced,,,-16.02576856,35.65429062,Mulanje,temperate,HUSSEIN ASIMA,both,25.0,grid,100.0,1019-0010,Lujeri Tea Estate,private,14000.0,community_hospital,not_available,more_than_16,not_available,South,South East,yes,yes,delivery,1.0,4.0,collected
,HIDDEN,,GROUP_REGION_NORTH,GROUP_ADMIN,GROUP_REGION_NORTH,H363,default,uuid:1fe858d9-ed87-46ee-b711-be9326bb4c58,,anonymous,2016-07-11T16:01:59.025000000,COMPLETE,synced,,,-10.99407322,33.95516966,Mzimba North,temperate,MACBETH KAIRA,both,68.0,grid,100.0,1012-0026,Luzi Health Centre,public,6685.0,community_hospital,unknown,more_than_16,unknown,North,North,yes,yes,delivery,1.0,4.0,delivered
,HIDDEN,,GROUP_REGION_NORTH,GROUP_ADMIN,GROUP_REGION_NORTH,H364,default,uuid:18997ae5-30ec-42e1-8a41-02c3aa4f1285,,anonymous,2016-07-11T16:01:59.027000000,COMPLETE,synced,,,-11.17730505,33.88525517,Mzimba North,temperate,TOLANI KUMWENDA,both,42.0,grid,100.0,1012-0027,Enukwenu Health Centre,public,18150.0,community_hospital,unknown,more_than_16,unknown,North,North,yes,yes,delivery,1.0,4.0,delivered
,HIDDEN,,GROUP_REGION_NORTH,GROUP_ADMIN,GROUP_REGION_NORTH,H365,default,uuid:43d23468-de71-413c-96b0-c4051cbb97e8,,anonymous,2016-07-11T16:01:59.029000000,COMPLETE,synced,,,-11.44637791,34.02275772,Mzimba North,temperate,A M GAMA,none,4.0,grid,100.0,1012-0028,Mzuzu City Assembly Clinic,public,140000.0,dispensary,unknown,more_than_16,unknown,North,North,yes,yes,delivery,1.0,4.0,collected
,HIDDEN,,GROUP_REGION_NORTH,GROUP_ADMIN,GROUP_REGION_NORTH,H366,default,uuid:1f82ab60-aedf-4e37-918c-1aab6dee9789,,anonymous,2016-07-11T16:01:59.031000000,COMPLETE,synced,,,-11.21944985,33.91359493,Mzimba North,temperate,CHANCE C MKANDAWIRE,both,38.0,grid,100.0,1012-0029,Khuyukuyu Health Centre,public,6467.0,community_hospital,unknown,more_than_16,unknown,North,North,yes,yes,delivery,1.0,4.0,delivered
,HIDDEN,,GROUP_REGION_NORTH,GROUP_ADMIN,GROUP_REGION_NORTH,H367,default,uuid:f4507a31-4a11-4a79-922c-270fb02d1909,,anonymous,2016-07-11T16:01:59.033000000,COMPLETE,synced,,,-11.52995744,33.93946202,Mzimba North,temperate,MOFFAT WINDSOR ZGAMBE,static,16.0,grid,100.0,1012-0030,Lusangazi Dispensary,public,4982.0,health_center,unknown,more_than_16,not_available,North,North,yes,yes,delivery,1.0,4.0,collected
,HIDDEN,,GROUP_REGION_NORTH,GROUP_ADMIN,GROUP_REGION_NORTH,H368,default,uuid:9e63c5f0-3e69-4373-a18a-7f68cc7119f1,,anonymous,2016-07-11T16:01:59.035000000,COMPLETE,synced,,,-11.45938507,34.02414285,Mzimba North,temperate,MONICA MUNTHALI,static,1.5,grid,100.0,1012-0031,Mzuzu Police Dispensary,other,1200.0,health_center,unknown,more_than_16,unknown,North,North,yes,yes,delivery,1.0,4.0,collected
,HIDDEN,,GROUP_REGION_NORTH,GROUP_ADMIN,GROUP_REGION_NORTH,H369,default,uuid:198d26ab-36cb-4bf2-bc61-60467c843b13,,anonymous,2016-07-11T16:01:59.040000000,COMPLETE,synced,,,-11.45695885,34.03777441,Mzimba North,temperate,MNYAIZA K MANONDO,static,4.6,grid,100.0,1012-0032,Moyale Health Centre,private,4147.0,community_hospital,unknown,more_than_16,unknown,North,North,yes,yes,delivery,1.0,4.0,collected
,HIDDEN,,GROUP_REGION_SOUTH_EAST,GROUP_ADMIN,GROUP_REGION_SOUTH,H553,default,uuid:6a9d553e-23e5-4016-be03-22a670c05f13,,anonymous,2016-07-11T16:01:59.031000000,COMPLETE,synced,,,-14.13244069,34.84405654,Mangochi,temperate,MELINA KAPANDA,both,77.0,grid,100.0,1018-0043,Nankhwali Health Centre,public,9814.0,community_hospital,not_available,more_than_16,not_available,South,South East,yes,yes,delivery,1.0,4.0,delivered
,HIDDEN,,GROUP_REGION_SOUTH_EAST,GROUP_ADMIN,GROUP_REGION_SOUTH,H552,default,uuid:db0260e7-4bcf-4209-b091-cd7f994f15ab,,anonymous,2016-07-11T16:01:59.029000000,COMPLETE,synced,,,-14.23390214,34.82469729,Mangochi,temperate,ISHAMAEL TEMBATANI/JOYCE PHIRI,both,71.0,grid,100.0,1018-0042,Malembo Health Centre,public,24422.0,community_hospital,not_available,more_than_16,not_available,South,South East,yes,yes,delivery,1.0,4.0,delivered
,HIDDEN,,GROUP_REGION_SOUTH_EAST,GROUP_ADMIN,GROUP_REGION_SOUTH,H551,default,uuid:8c0cfab4-56b5-4f93-ab7b-d6e0fe1af57d,,anonymous,2016-07-11T16:01:59.027000000,COMPLETE,synced,,,-14.46448316,34.87041653,Mangochi,temperate,GLORIA BULEYA,both,100.0,none,100.0,1018-0041,Chilonga Health,public,11822.0,health_center,not_available,none,not_available,South,South East,yes,yes,delivery,1.0,4.0,delivered
,HIDDEN,,GROUP_REGION_SOUTH_EAST,GROUP_ADMIN,GROUP_REGION_SOUTH,H550,default,uuid:286ca35f-f3b2-41df-9bef-3eb791a74952,,anonymous,2016-07-11T16:01:59.025000000,COMPLETE,synced,,,-14.36996144,35.19059023,Mangochi,temperate,MPHATSO THOMAS CHABWERA,both,15.0,none,100.0,1018-0040,Namiyasi Health Centre,public,12585.0,dispensary,not_available,none,available,South,South East,yes,yes,delivery,1.0,4.0,delivered
,HIDDEN,,GROUP_REGION_SOUTH_EAST,GROUP_ADMIN,GROUP_REGION_SOUTH,H557,default,uuid:d8665956-f215-4683-8dae-93a43fb28629,,anonymous,2016-07-11T16:01:59.042000000,COMPLETE,synced,,,-14.45068967,35.24318316,Mangochi,temperate,MOFOLO CHILONGA,both,3.0,grid,100.0,1018-0047,Mpondasi Health Centre,faithbased,18444.0,community_hospital,not_available,more_than_16,not_available,South,South East,yes,yes,delivery,1.0,4.0,delivered
,HIDDEN,,GROUP_REGION_SOUTH_EAST,GROUP_ADMIN,GROUP_REGION_SOUTH,H556,default,uuid:9994e9b3-6abf-4cd2-89c9-89bf881346b6,,anonymous,2016-07-11T16:01:59.040000000,COMPLETE,synced,,,-14.33060625,35.14251645,Mangochi,temperate,RHODA KANDU,both,20.0,grid,100.0,1018-0046,Koche Health Centre,faithbased,39442.0,community_hospital,not_available,more_than_16,not_available,South,South East,yes,yes,delivery,1.0,4.0,delivered
,HIDDEN,,GROUP_REGION_SOUTH_EAST,GROUP_ADMIN,GROUP_REGION_SOUTH,H555,default,uuid:43540288-1554-41c0-8f1d-671300c6cec1,,anonymous,2016-07-11T16:01:59.035000000,COMPLETE,synced,,,-14.08208283,34.91016788,Mangochi,temperate,ZACHEUS SOLOMON,both,63.0,grid,10.0,1018-0045,Monkeybay Health Centre,public,30246.0,district_hospital,not_available,more_than_16,not_available,South,South East,yes,no,delivery,1.0,4.0,collected
,HIDDEN,,GROUP_REGION_SOUTH_EAST,GROUP_ADMIN,GROUP_REGION_SOUTH,H554,default,uuid:8f5fc74f-72c1-434c-b71a-5b4b9d044e49,,anonymous,2016-07-11T16:01:59.033000000,COMPLETE,synced,,,-14.19474162,35.03860496,Mangochi,temperate,STONALD KAPANDAWALE,both,47.0,grid,100.0,1018-0044,Nkope Health Centre,faithbased,22531.0,community_hospital,not_available,more_than_16,not_available,South,South East,yes,yes,delivery,1.0,4.0,delivered
,HIDDEN,,GROUP_REGION_NORTH,GROUP_ADMIN,GROUP_REGION_NORTH,H350,default,uuid:b324d1ce-b187-4b19-bb4a-78eb5b5e14d0,,anonymous,2016-07-11T16:01:59.033000000,COMPLETE,synced,,,-11.44168727,33.82420052,Mzimba North,temperate,TOBINAS G K MATUPI,both,32.0,none,100.0,1012-0013,Emsizini Heaqlth Centre,public,8900.0,community_hospital,available,none,unknown,North,North,yes,yes,delivery,1.0,8.0,delivered
,HIDDEN,,GROUP_REGION_NORTH,GROUP_ADMIN,GROUP_REGION_NORTH,H351,default,uuid:455b35ba-eee9-49c6-adca-ad0ef626fae1,,anonymous,2016-07-11T16:01:59.035000000,COMPLETE,synced,,,-11.39400695,33.74524024,Mzimba North,temperate,ENERST MAKUNGANYA,both,38.0,grid,100.0,1012-0014,Mtwalo Health Centre,public,10992.0,community_hospital,available,more_than_16,unknown,North,North,yes,yes,delivery,1.0,4.0,delivered
,HIDDEN,,GROUP_REGION_NORTH,GROUP_ADMIN,GROUP_REGION_NORTH,H354,default,uuid:d39943f2-9ef5-41db-9a4c-4d50b69590d5,,anonymous,2016-07-11T16:01:59.044000000,COMPLETE,synced,,,-11.38634259,33.6722093,Mzimba North,temperate,NICHOLAS WK MWENEBANDA,both,70.0,none,100.0,1012-0017,Luvwere Health Centre,public,6875.0,community_hospital,not_available,none,unknown,North,North,yes,yes,delivery,1.0,4.0,delivered
,HIDDEN,,GROUP_REGION_NORTH,GROUP_ADMIN,GROUP_REGION_NORTH,H355,default,uuid:a8865e3e-a64d-4885-abca-3cbf0b11a32a,,anonymous,2016-07-11T16:01:59.047000000,COMPLETE,synced,,,-11.28537478,33.61390321,Mzimba North,temperate,AUSTINE MWENECHANYA,both,79.0,grid,100.0,1012-0018,Mpherembe Health Centre,public,30120.0,community_hospital,unknown,more_than_16,unknown,North,North,yes,yes,delivery,1.0,4.0,delivered
,HIDDEN,,GROUP_REGION_SOUTH_EAST,GROUP_ADMIN,GROUP_REGION_SOUTH,H558,default,uuid:925ffbf3-4569-45ed-9387-9e61e89d69a1,,anonymous,2016-07-11T16:01:59.044000000,COMPLETE,synced,,,-14.36275522,34.82322489,Mangochi,temperate,I MAUNDE,both,85.0,none,100.0,1018-0048,Nankumba Health Centre,public,25233.0,community_hospital,not_available,none,available,South,South East,yes,yes,delivery,1.0,4.0,delivered
,HIDDEN,,GROUP_REGION_NORTH,GROUP_ADMIN,GROUP_REGION_NORTH,H352,default,uuid:175c84ea-2b88-48ed-9e69-0f0316ab0ed9,,anonymous,2016-07-11T16:01:59.040000000,COMPLETE,synced,,,-11.52187286,33.69884664,Mzimba North,temperate,AUGUSTINE CHAVUKA,both,45.0,none,100.0,1012-0015,Njuyu Health Centre,public,16639.0,community_hospital,not_available,none,unknown,North,North,yes,yes,delivery,1.0,4.0,delivered
,HIDDEN,,GROUP_REGION_SOUTH_EAST,GROUP_ADMIN,GROUP_REGION_SOUTH,H559,default,uuid:2502e785-6335-46a8-a4d4-b02965f01160,,anonymous,2016-07-11T16:01:59.047000000,COMPLETE,synced,,,-16.02290919,35.50682868,Mulanje,temperate,MC NEVER MWANGO,both,85.0,grid,10.0,1019-0000,Mulanje District Hospital,public,30908.0,central_hospital,irregular,more_than_16,available,South,South East,no,yes,delivery,1.0,4.0,delivered
,HIDDEN,,GROUP_REGION_NORTH,GROUP_ADMIN,GROUP_REGION_NORTH,H353,default,uuid:c1579f0a-fbd2-47b9-88f2-9aeb662ea3b0,,anonymous,2016-07-11T16:01:59.042000000,COMPLETE,synced,,,-11.45480484,33.63331646,Mzimba North,temperate,MAMIE KHONJE,both,69.0,grid,100.0,1012-0016,Kafukule Health Centre,public,12200.0,community_hospital,not_available,more_than_16,unknown,North,North,yes,yes,delivery,1.0,4.0,delivered
,HIDDEN,,GROUP_REGION_NORTH,GROUP_ADMIN,GROUP_REGION_NORTH,H358,default,uuid:a9745816-7066-43b3-b3c5-f701dca9551a,,anonymous,2016-07-11T16:01:59.016000000,COMPLETE,synced,,,-11.18279961,33.57552969,Mzimba North,temperate,DOREEN SOKO,both,88.0,none,100.0,1012-0021,Thunduwike Health Centre,public,19783.0,community_hospital,available,none,unknown,North,North,yes,yes,delivery,1.0,4.0,delivered
,HIDDEN,,GROUP_REGION_NORTH,GROUP_ADMIN,GROUP_REGION_NORTH,H359,default,uuid:e02ab955-50d2-4eb1-89ef-17a1a601bc75,,anonymous,2016-07-11T16:01:59.017000000,COMPLETE,synced,,,-11.19494637,33.82242333,Mzimba North,temperate,AURELIANO CHISALE,both,47.0,grid,100.0,1012-0022,Enguthwini Health Centre,public,16546.0,community_hospital,unknown,more_than_16,unknown,North,North,yes,yes,delivery,1.0,4.0,delivered
,HIDDEN,,GROUP_REGION_NORTH,GROUP_ADMIN,GROUP_REGION_NORTH,H356,default,uuid:6ee50b2b-1390-42f6-8b88-630284cafe47,,anonymous,2016-07-11T16:01:59.049000000,COMPLETE,synced,,,-11.30611044,33.52492879,Mzimba North,temperate,RICHARD YL MHANGO,both,88.0,none,100.0,1012-0019,Kabwafu Health Centre,public,11477.0,community_hospital,available,none,unknown,North,North,yes,yes,delivery,1.0,4.0,delivered
,HIDDEN,,GROUP_REGION_NORTH,GROUP_ADMIN,GROUP_REGION_NORTH,H357,default,uuid:5ef1f609-93ff-4ab3-92d6-07a32a5b8c2e,,anonymous,2016-07-11T16:01:59.051000000,COMPLETE,synced,,,-11.22658087,33.49924494,Mzimba North,temperate,JUSTEYS NGULUBE,both,100.0,none,100.0,1012-0020,Malidadi Health Centre,public,14432.0,community_hospital,not_available,none,unknown,North,North,no,yes,delivery,1.0,4.0,delivered
,HIDDEN,,GROUP_REGION_SOUTH_EAST,GROUP_ADMIN,GROUP_REGION_SOUTH,H614,default,uuid:265c558b-2ea7-4b31-912c-b71bc58a0e95,,anonymous,2016-07-11T16:01:59.017000000,COMPLETE,synced,,,-15.47733114,35.24074469,Zomba,temperate,F MATIPWILI,static,15.0,grid,100.0,1021-0011,Namikango Maternity,faithbased,6172.0,community_hospital,not_available,more_than_16,not_available,South,South East,yes,yes,delivery,1.0,4.0,delivered
,HIDDEN,,GROUP_REGION_SOUTH_EAST,GROUP_ADMIN,GROUP_REGION_SOUTH,H613,default,uuid:b843c234-31f0-45ad-bd0a-8e6046493bf5,,anonymous,2016-07-11T16:01:59.016000000,COMPLETE,synced,,,-15.38960316,35.21176261,Zomba,temperate,ANNIE CHITSUKWA,both,17.0,grid,100.0,1021-0010,Changalume Health Centre,public,3320.0,community_hospital,not_available,more_than_16,not_available,South,South East,yes,yes,delivery,1.0,4.0,delivered
,HIDDEN,,GROUP_REGION_SOUTH_EAST,GROUP_ADMIN,GROUP_REGION_SOUTH,H616,default,uuid:fffd3d23-327f-4aeb-bf0a-f0b98484e80e,,anonymous,2016-07-11T16:01:59.022000000,COMPLETE,synced,,,-15.56144583,35.2610486,Zomba,temperate,GIFT MATEWERE,both,15.0,grid,100.0,1021-0013,Magomero Health Centre,faithbased,26610.0,community_hospital,not_available,more_than_16,not_available,South,South East,yes,yes,delivery,1.0,4.0,delivered
,HIDDEN,,GROUP_REGION_SOUTH_EAST,GROUP_ADMIN,GROUP_REGION_SOUTH,H615,default,uuid:7b7b282c-cd24-4ccc-9bcb-778d111e62d8,,anonymous,2016-07-11T16:01:59.019000000,COMPLETE,synced,,,-15.75517709,35.34044136,Zomba,temperate,GERALD LAMYA,both,13.0,none,100.0,1021-0012,Lambulira Health Centre,public,28636.0,community_hospital,not_available,none,available,South,South East,yes,yes,delivery,1.0,4.0,delivered
,HIDDEN,,GROUP_REGION_SOUTH_EAST,GROUP_ADMIN,GROUP_REGION_SOUTH,H618,default,uuid:d3114f39-12d8-416a-93a4-a4c6ed552af5,,anonymous,2016-07-11T16:01:59.025000000,COMPLETE,synced,,,-15.57379552,35.37266545,Zomba,temperate,DAVESON GUNDA,both,30.0,grid,100.0,1021-0015,Mayaka Health Centre,public,52756.0,community_hospital,not_available,more_than_16,not_available,South,South East,yes,yes,delivery,1.0,4.0,delivered
,HIDDEN,,GROUP_REGION_SOUTH_EAST,GROUP_ADMIN,GROUP_REGION_SOUTH,H617,default,uuid:73f7f583-463b-4fe0-beb2-0e38cc7ccc68,,anonymous,2016-07-11T16:01:59.023000000,COMPLETE,synced,,,-15.60234481,35.2593987,Zomba,temperate,HOWARD KAYENDA,both,30.0,grid,100.0,1021-0014,Nasawa Health Centre,public,32883.0,community_hospital,not_available,more_than_16,not_available,South,South East,yes,yes,delivery,1.0,4.0,delivered
,HIDDEN,,GROUP_REGION_SOUTH_EAST,GROUP_ADMIN,GROUP_REGION_SOUTH,H619,default,uuid:145036e4-9e39-450e-b082-39f77a2bba80,,anonymous,2016-07-11T16:01:59.027000000,COMPLETE,synced,,,-15.66665297,35.42736739,Zomba,temperate,GOLDEN H KACHIMANGA,both,57.0,none,100.0,1021-0016,Ngwelero Health Centre,public,28773.0,community_hospital,not_available,none,available,South,South East,yes,yes,delivery,1.0,4.0,delivered
,HIDDEN,,GROUP_REGION_CENTRAL_WEST,GROUP_ADMIN,GROUP_REGION_CENTRAL,H255,default,uuid:b30c68eb-7e8d-4048-85c5-3df0d893cfda,,anonymous,2016-07-11T16:01:59.051000000,COMPLETE,synced,,,-14.64617478,34.7740089,Ntcheu,temperate,EMILY MAKINA,both,60.0,none,100.0,1008-0007,Bwanje Health Centre,public,26527.0,community_hospital,unknown,none,available,Central,Central West,yes,yes,delivery,1.0,4.0,delivered
,HIDDEN,,GROUP_REGION_CENTRAL_WEST,GROUP_ADMIN,GROUP_REGION_CENTRAL,H256,default,uuid:41dae916-dd2a-4e7e-baf2-35b7f5f12f2e,,anonymous,2016-07-11T16:01:59.016000000,COMPLETE,synced,,,-14.89979926,34.73122721,Ntcheu,temperate,JONAH J.L. CHILEWANI,both,15.0,none,100.0,1008-0008,Champiti Health Centre,public,10999.0,community_hospital,irregular,none,available,Central,Central West,yes,yes,delivery,1.0,5.0,delivered
,HIDDEN,,GROUP_REGION_CENTRAL_WEST,GROUP_ADMIN,GROUP_REGION_CENTRAL,H253,default,uuid:93e4c4d0-4f40-4952-bbc8-996892c0a90a,,anonymous,2016-07-11T16:01:59.047000000,COMPLETE,synced,,,-14.77017083,34.90673739,Ntcheu,temperate,ROSE KAKHOME,both,50.0,none,100.0,1008-0005,Chikande Health Centre,public,15592.0,community_hospital,unknown,none,available,Central,Central West,yes,yes,delivery,1.0,4.0,delivered
,HIDDEN,,GROUP_REGION_CENTRAL_WEST,GROUP_ADMIN,GROUP_REGION_CENTRAL,H254,default,uuid:4ca27dc1-e884-4e8b-bdb8-3fa2c4ad4cc9,,anonymous,2016-07-11T16:01:59.049000000,COMPLETE,synced,,,-14.82215817,34.85058977,Ntcheu,temperate,ROSE R. MORRIS,both,42.0,none,100.0,1008-0006,Bilira Health Centre,public,43789.0,community_hospital,unknown,none,not_available,Central,Central West,yes,yes,delivery,1.0,4.0,delivered
,HIDDEN,,GROUP_REGION_CENTRAL_WEST,GROUP_ADMIN,GROUP_REGION_CENTRAL,H259,default,uuid:0d665094-16a6-4b25-83ba-866333d48b82,,anonymous,2016-07-11T16:01:59.022000000,COMPLETE,synced,,,-15.00548024,34.8591035,Ntcheu,temperate,PATRICK KABAMBE,both,46.0,none,100.0,1008-0011,Manjawira Health Centre,public,5921.0,community_hospital,not_available,none,irregular,Central,Central West,yes,yes,delivery,1.0,4.0,delivered
,HIDDEN,,GROUP_REGION_CENTRAL_WEST,GROUP_ADMIN,GROUP_REGION_CENTRAL,H257,default,uuid:df080c56-28b4-4f23-b451-16aca98403f8,,anonymous,2016-07-11T16:01:59.017000000,COMPLETE,synced,,,-15.0021511,34.76997481,Ntcheu,temperate,FRANCIS BINGALASON,both,35.0,none,100.0,1008-0009,Kapeni Health Centre,public,11598.0,community_hospital,not_available,none,available,Central,Central West,yes,yes,delivery,1.0,4.0,delivered
,HIDDEN,,GROUP_REGION_CENTRAL_WEST,GROUP_ADMIN,GROUP_REGION_CENTRAL,H258,default,uuid:89e698f9-a47b-4fa4-a542-90efdcbda5cb,,anonymous,2016-07-11T16:01:59.019000000,COMPLETE,synced,,,-14.34225605,34.71938302,Ntcheu,temperate,JOHN HAWA,both,130.0,none,100.0,1008-0010,Phanga Health Centre,public,3351.0,community_hospital,irregular,none,available,Central,Central West,yes,yes,delivery,1.0,4.0,delivered
,HIDDEN,,GROUP_REGION_CENTRAL_WEST,GROUP_ADMIN,GROUP_REGION_CENTRAL,H251,default,uuid:e7cf7bc2-2e25-489b-ab70-95b45d330f41,,anonymous,2016-07-11T16:01:59.042000000,COMPLETE,synced,,,-14.86167083,34.75126307,Ntcheu,temperate,DAVE PATSANJE,both,16.0,grid,100.0,1008-0003,Nsipe Health Centre,faithbased,20120.0,community_hospital,not_available,more_than_16,not_available,Central,Central West,yes,yes,delivery,1.0,4.0,delivered
,HIDDEN,,GROUP_REGION_SOUTH_EAST,GROUP_ADMIN,GROUP_REGION_SOUTH,H610,default,uuid:9c03ebb5-50e0-4571-ab0e-49917f75bea8,,anonymous,2016-07-11T16:01:59.047000000,COMPLETE,synced,,,-15.32431254,35.11698648,Zomba,temperate,LAMECK MANYAWA,both,40.0,none,100.0,1021-0007,Chilipa Health Centre,faithbased,12620.0,community_hospital,not_available,none,available,South,South East,yes,yes,delivery,1.0,4.0,delivered
,HIDDEN,,GROUP_REGION_CENTRAL_WEST,GROUP_ADMIN,GROUP_REGION_CENTRAL,H252,default,uuid:c9d8213c-a3f8-4bf2-81e5-1b56ae5bf90f,,anonymous,2016-07-11T16:01:59.044000000,COMPLETE,synced,,,-14.80508065,34.73524777,Ntcheu,temperate,THANDIE MTALIMANJA,both,12.0,none,100.0,1008-0004,Dzunje Health Centre,public,30405.0,community_hospital,irregular,none,irregular,Central,Central West,yes,yes,delivery,1.0,5.0,delivered
,HIDDEN,,GROUP_REGION_SOUTH_EAST,GROUP_ADMIN,GROUP_REGION_SOUTH,H611,default,uuid:e16b07d9-e21c-49b2-81e5-b02454fa2874,,anonymous,2016-07-11T16:01:59.049000000,COMPLETE,synced,,,-15.38973857,35.09511773,Zomba,temperate,NICHOLUS E SAYENDA,both,35.0,grid,100.0,1021-0008,Chipini Health Centre,public,23758.0,community_hospital,not_available,more_than_16,not_available,South,South East,yes,yes,delivery,1.0,4.0,delivered
,HIDDEN,,GROUP_REGION_SOUTH_EAST,GROUP_ADMIN,GROUP_REGION_SOUTH,H612,default,uuid:5abc7dd6-fb7b-4e1a-ae07-ec4dd9887ff6,,anonymous,2016-07-11T16:01:59.051000000,COMPLETE,synced,,,-15.39696744,35.18059473,Zomba,temperate,YVONNIE MATOLA,both,40.0,grid,100.0,1021-0009,Chingale Health Centre,public,29243.0,community_hospital,not_available,more_than_16,not_available,South,South East,yes,yes,delivery,1.0,4.0,delivered
,HIDDEN,,GROUP_REGION_CENTRAL_WEST,GROUP_ADMIN,GROUP_REGION_CENTRAL,H250,default,uuid:241676ee-9bf8-42be-9415-d4b16f5bc621,,anonymous,2016-07-11T16:01:59.040000000,COMPLETE,synced,,,-14.94567217,34.64219657,Ntcheu,temperate,ROBERT MAKHAMBERA,both,23.0,none,100.0,1008-0002,Dzonzi Mvai Dispensary,public,4457.0,health_center,not_available,none,irregular,Central,Central West,yes,yes,delivery,1.0,6.0,both
,HIDDEN,,GROUP_REGION_SOUTH_EAST,GROUP_ADMIN,GROUP_REGION_SOUTH,H627,default,uuid:e399f7d6-305c-4419-bd34-29c5a425e1e5,,anonymous,2016-07-11T16:01:59.047000000,COMPLETE,synced,,,-17.94621661,35.45179818,Zomba,temperate,MARY PHAMOYO,both,33.0,none,100.0,1021-0024,Machinjiri,public,9218.0,community_hospital,not_available,none,available,South,South East,yes,yes,delivery,1.0,4.0,delivered
,HIDDEN,,GROUP_REGION_SOUTH_EAST,GROUP_ADMIN,GROUP_REGION_SOUTH,H626,default,uuid:33bc07d3-fb58-4d9f-9f9c-062234b4690c,,anonymous,2016-07-11T16:01:59.044000000,COMPLETE,synced,,,-15.20898111,35.35241004,Zomba,temperate,A. MULOTIWA,both,30.0,grid,10.0,1021-0023,St Lukes,faithbased,11121.0,rural_hospital,not_available,more_than_16,not_available,South,South East,yes,yes,delivery,1.0,4.0,delivered
,HIDDEN,,GROUP_REGION_SOUTH_EAST,GROUP_ADMIN,GROUP_REGION_SOUTH,H625,default,uuid:c3dcf898-45bb-4eab-bf1f-6ba09576e43e,,anonymous,2016-07-11T16:01:59.042000000,COMPLETE,synced,,,-15.23184545,35.44224981,Zomba,temperate,IAN GHOSTEN,both,28.0,grid,100.0,1021-0022,Namasalima,public,15481.0,community_hospital,not_available,more_than_16,not_available,South,South East,yes,yes,delivery,1.0,4.0,delivered
,HIDDEN,,GROUP_REGION_SOUTH_EAST,GROUP_ADMIN,GROUP_REGION_SOUTH,H629,default,uuid:f2c30659-ba64-4fe9-a4ea-ff1324ddcd47,,anonymous,2016-07-11T16:01:59.051000000,COMPLETE,synced,,,-15.29754021,35.36062834,Zomba,temperate,NIGHTON UNDANI,both,16.0,grid,100.0,1021-0026,Parker Sharp,faithbased,8766.0,community_hospital,not_available,more_than_16,not_available,South,South East,yes,yes,delivery,1.0,4.0,delivered
,HIDDEN,,GROUP_REGION_SOUTH_EAST,GROUP_ADMIN,GROUP_REGION_SOUTH,H628,default,uuid:4a79814f-79f1-4856-b57c-5d21604f9ed0,,anonymous,2016-07-11T16:01:59.049000000,COMPLETE,synced,,,-15.28058838,35.39918343,Zomba,temperate,PATRICK CHIGUMULA,both,30.0,grid,10.0,1021-0025,Domasi Rural Hospital,public,22773.0,district_hospital,available,more_than_16,not_available,South,South East,yes,yes,delivery,1.0,4.0,delivered
,HIDDEN,,GROUP_REGION_CENTRAL_WEST,GROUP_ADMIN,GROUP_REGION_CENTRAL,H264,default,uuid:86ebc878-bc6b-49b4-b5d1-3033219ed457,,anonymous,2016-07-11T16:01:59.031000000,COMPLETE,synced,,,-15.10752117,34.8287153,Ntcheu,temperate,LISTEN JASTEN,both,57.0,none,100.0,1008-0016,Likudzi Health Post,public,1400.0,dispensary,not_available,none,irregular,Central,Central West,yes,yes,delivery,1.0,4.0,delivered
,HIDDEN,,GROUP_REGION_CENTRAL_WEST,GROUP_ADMIN,GROUP_REGION_CENTRAL,H265,default,uuid:6bb68116-c5a1-47c9-a547-002f4600babe,,anonymous,2016-07-11T16:01:59.033000000,COMPLETE,synced,,,-14.8908418,34.58521863,Ntcheu,temperate,LEYA BANDA,both,24.0,none,100.0,1008-0017,Nzama Health Centre,faithbased,10813.0,community_hospital,not_available,none,not_available,Central,Central West,yes,yes,delivery,1.0,5.0,delivered
,HIDDEN,,GROUP_REGION_CENTRAL_WEST,GROUP_ADMIN,GROUP_REGION_CENTRAL,H266,default,uuid:00bcce0f-a59f-48c6-a404-d38e14ea2f6d,,anonymous,2016-07-11T16:01:59.035000000,COMPLETE,synced,,,-14.93391579,34.87345056,Ntcheu,temperate,M. H. KANGUWO,both,14.0,grid,100.0,1008-0018,Nsiyaludzu Health Centre,public,28161.0,community_hospital,unknown,more_than_16,unknown,Central,Central West,yes,yes,delivery,1.0,4.0,both
,HIDDEN,,GROUP_REGION_CENTRAL_WEST,GROUP_ADMIN,GROUP_REGION_CENTRAL,H268,default,uuid:652f8daa-ad2f-4f3d-8501-ae6999ef2e6e,,anonymous,2016-07-11T16:01:59.042000000,COMPLETE,synced,,,-15.07956232,34.59003162,Ntcheu,temperate,BONIFACE MANGANI,both,65.0,none,100.0,1008-0020,Doviko Health Centre,public,7480.0,community_hospital,not_available,none,available,Central,Central West,yes,yes,delivery,1.0,4.0,delivered
,HIDDEN,,GROUP_REGION_CENTRAL_WEST,GROUP_ADMIN,GROUP_REGION_CENTRAL,H269,default,uuid:9e92edee-92a5-4722-824c-889f48715047,,anonymous,2016-07-11T16:01:59.044000000,COMPLETE,synced,,,-15.10264748,34.66763106,Ntcheu,temperate,FRACKSON E. MADZIAKATAYIKA,both,69.0,none,100.0,1008-0021,Matanda Health Centre,faithbased,7166.0,community_hospital,not_available,none,irregular,Central,Central West,yes,yes,delivery,1.0,5.0,delivered
,HIDDEN,,GROUP_REGION_SOUTH_EAST,GROUP_ADMIN,GROUP_REGION_SOUTH,H622,default,uuid:a9179764-f9ca-4708-ac9e-958a649ddd70,,anonymous,2016-07-11T16:01:59.033000000,COMPLETE,synced,,,-15.46564057,35.51652622,Zomba,temperate,COLLINS M KAWERA,both,32.0,none,100.0,1021-0019,Chamba Health Centre,public,24135.0,community_hospital,not_available,none,available,South,South East,yes,yes,delivery,1.0,4.0,delivered
,HIDDEN,,GROUP_REGION_CENTRAL_WEST,GROUP_ADMIN,GROUP_REGION_CENTRAL,H260,default,uuid:3a763271-7646-4893-96d6-71b4693acc04,,anonymous,2016-07-11T16:01:59.023000000,COMPLETE,synced,,,-14.99630533,34.82700421,Ntcheu,temperate,CLEMENT MAFULA,both,58.0,grid,10.0,1008-0012,Sister Tereza Community Hospital,faithbased,4832.0,hospital,not_available,more_than_16,not_available,Central,Central West,yes,yes,delivery,1.0,5.0,delivered
,HIDDEN,,GROUP_REGION_SOUTH_EAST,GROUP_ADMIN,GROUP_REGION_SOUTH,H623,default,uuid:95bd3634-76f0-4de1-8d2a-8a663c2dc402,,anonymous,2016-07-11T16:01:59.035000000,COMPLETE,synced,,,-15.36936602,35.45066031,Zomba,temperate,MATHEWS MANDALA,both,15.0,none,100.0,1021-0020,Makwapala Health Centre,public,37336.0,community_hospital,not_available,none,not_available,South,South East,yes,yes,delivery,1.0,4.0,delivered
,HIDDEN,,GROUP_REGION_CENTRAL_WEST,GROUP_ADMIN,GROUP_REGION_CENTRAL,H261,default,uuid:fef7c9f5-03fd-4e95-b966-fe24d6e24b70,,anonymous,2016-07-11T16:01:59.025000000,COMPLETE,synced,,,-15.07584084,34.85712786,Ntcheu,temperate,ALINAFE GOLOMBE,both,58.0,grid,100.0,1008-0013,Senzani Health Centre,faithbased,12805.0,community_hospital,not_available,more_than_16,not_available,Central,Central West,yes,yes,delivery,1.0,4.0,delivered
,HIDDEN,,GROUP_REGION_SOUTH_EAST,GROUP_ADMIN,GROUP_REGION_SOUTH,H620,default,uuid:379b7789-afac-4e4b-bf6c-d222c8d63f55,,anonymous,2016-07-11T16:01:59.029000000,COMPLETE,synced,,,-15.48272038,35.45075204,Zomba,temperate,KINGSLEY KALILOMBE,both,27.0,grid,10.0,1021-0017,Pilimiti Hospital,private,31189.0,rural_hospital,not_available,more_than_16,not_available,South,South East,yes,yes,delivery,1.0,4.0,delivered
,HIDDEN,,GROUP_REGION_CENTRAL_WEST,GROUP_ADMIN,GROUP_REGION_CENTRAL,H262,default,uuid:d9104aba-ecb5-4e64-8b25-712418199766,,anonymous,2016-07-11T16:01:59.027000000,COMPLETE,synced,,,-15.20388898,34.84688152,Ntcheu,temperate,DAVID GA BLIERE LAMBOLEN,both,76.0,none,100.0,1008-0014,Machereza Health Post,public,6440.0,dispensary,not_available,none,irregular,Central,Central West,yes,yes,delivery,1.0,4.0,both
,HIDDEN,,GROUP_REGION_SOUTH_EAST,GROUP_ADMIN,GROUP_REGION_SOUTH,H621,default,uuid:8a7243c5-abbb-4c09-9ba8-6a07badc1091,,anonymous,2016-07-11T16:01:59.031000000,COMPLETE,synced,,,-15.42787005,35.54443665,Zomba,temperate,MATRIIDA GATOMA,both,35.0,none,100.0,1021-0018,Likangala Health Centre,public,35954.0,community_hospital,not_available,none,available,South,South East,yes,yes,delivery,1.0,4.0,delivered
,HIDDEN,,GROUP_REGION_CENTRAL_WEST,GROUP_ADMIN,GROUP_REGION_CENTRAL,H263,default,uuid:792ea504-59a0-45c4-90fa-807e6fb393ff,,anonymous,2016-07-11T16:01:59.029000000,COMPLETE,synced,,,-15.08071189,34.78056631,Ntcheu,temperate,L. JUSTEN,both,48.0,none,100.0,1008-0015,Namisu Health Centre,public,4800.0,community_hospital,irregular,none,irregular,Central,Central West,yes,yes,delivery,1.0,5.0,delivered
,HIDDEN,,GROUP_REGION_SOUTH_EAST,GROUP_ADMIN,GROUP_REGION_SOUTH,H639,default,uuid:1014e118-b1ec-4f59-88ab-3f578de5a9c9,,anonymous,2016-07-11T16:01:59.033000000,COMPLETE,synced,,,-15.39040601,35.35957731,Zomba,temperate,JOYCE LIGOMEKA,both,12.0,grid,100.0,1021-0036,Matawale,public,16958.0,community_hospital,not_available,more_than_16,not_available,South,South East,yes,yes,delivery,1.0,4.0,delivered
,HIDDEN,,GROUP_REGION_SOUTH_EAST,GROUP_ADMIN,GROUP_REGION_SOUTH,H636,default,uuid:213fa582-b1a4-489c-80ff-bf0d8b3f8a0c,,anonymous,2016-07-11T16:01:59.027000000,COMPLETE,synced,,,-15.35783772,35.38500057,Zomba,temperate,TABITA GADAMA,both,17.0,none,100.0,1021-0033,Naisi,public,14135.0,community_hospital,not_available,none,available,South,South East,yes,yes,delivery,1.0,4.0,delivered
,HIDDEN,,GROUP_REGION_SOUTH_EAST,GROUP_ADMIN,GROUP_REGION_SOUTH,H635,default,uuid:d4a98072-292f-4ef6-997d-d841e4c27a79,,anonymous,2016-07-11T16:01:59.025000000,COMPLETE,synced,,,-15.48438133,35.23687959,Zomba,temperate,HENDERSON CHAULUKA,both,16.0,grid,100.0,1021-0032,Thondwe,public,51721.0,community_hospital,not_available,more_than_16,not_available,South,South East,yes,yes,delivery,1.0,4.0,delivered
,HIDDEN,,GROUP_REGION_SOUTH_EAST,GROUP_ADMIN,GROUP_REGION_SOUTH,H638,default,uuid:93e9dfef-c583-45aa-aef3-d5b68b96a5cc,,anonymous,2016-07-11T16:01:59.031000000,COMPLETE,synced,,,-15.53410421,35.54718988,Zomba,temperate,CHARLES WINIKO,both,40.0,grid,100.0,1021-0035,Matiya,faithbased,32723.0,community_hospital,not_available,more_than_16,not_available,South,South East,yes,yes,delivery,1.0,4.0,delivered
,HIDDEN,,GROUP_REGION_SOUTH_EAST,GROUP_ADMIN,GROUP_REGION_SOUTH,H637,default,uuid:2d476b8c-e575-4981-aa0f-abe6b9f2feee,,anonymous,2016-07-11T16:01:59.029000000,COMPLETE,synced,,,-15.35222889,35.29098565,Zomba,temperate,E. KAMPIRA,static,15.0,grid,100.0,1021-0034,Chawe Forest,private,420.0,community_hospital,not_available,more_than_16,not_available,South,South East,yes,yes,delivery,1.0,4.0,delivered
