_id,_form_id,_locale,_savepoint_type,_savepoint_timestamp,_savepoint_creator,location_accuracy,location_altitude,location_latitude,location_longitude,planting,plot_name,plot_size,_row_etag,_filter_type,_filter_value
1,,default,COMPLETE,2014-04-02T04:32:47.070000000,anonymous,15,45,-13.527050,29.670182,white,Benaya,0.5,,,
2,,default,COMPLETE,2014-04-02T04:32:47.127000000,anonymous,10,23,-13.562659,29.665888,white,Chanda,0.4,,,
3,,default,COMPLETE,2014-04-02T04:32:47.158000000,anonymous,5,50,-13.574778,29.693214,yellow,Dall,0.86,,,
4,,default,COMPLETE,2014-04-02T04:32:47.188000000,anonymous,7,22,-13.522483,29.702154,white,Gondo,0.8,,,
5,,default,COMPLETE,2014-04-02T04:32:47.225000000,anonymous,11,5,-13.544286,29.619117,orange,Ungoni,0.3,,,
6,,default,COMPLETE,2014-04-02T04:32:47.250000000,anonymous,15,17,-13.511286,29.656696,white,Zyambo,0.3,,,